[
	{
		"date": "2019-06-01T08:23:09.000Z",
		"name": "Zuidas",
		"id": "5175a0bfe4b0fcf80b143d7a",
		"lat": 52.33814679324865,
		"lng": 4.873464193899405,
		"city": "Amsterdam",
		"country": "Nederland",
		"categories": [
			"Neighborhood"
		]
	},
	{
		"date": "2019-06-01T08:27:00.000Z",
		"name": "Busstation Zuid",
		"id": "4d6bbfe8994f224b243818eb",
		"lat": 52.34081279418336,
		"lng": 4.872980806532037,
		"address": "Strawinskylaan",
		"city": "Amsterdam",
		"country": "Nederland",
		"categories": [
			"Bus Station"
		]
	},
	{
		"date": "2019-06-01T08:37:51.000Z",
		"name": "Amsterdam Zuid Railway Station (Station Amsterdam Zuid)",
		"id": "4a952e89f964a520a62220e3",
		"lat": 52.33894690990427,
		"lng": 4.873248992995775,
		"address": "Zuidplein 10",
		"postalCode": "1077 XV",
		"city": "Amsterdam",
		"country": "Nederland",
		"categories": [
			"Train Station"
		]
	},
	{
		"date": "2019-06-01T08:43:20.000Z",
		"name": "Olympiaplein",
		"id": "4c6c02996af58cfaa2868517",
		"lat": 52.346203326504174,
		"lng": 4.867103148136183,
		"address": "Olympiaplein",
		"postalCode": "1077",
		"city": "Amsterdam",
		"country": "Nederland",
		"categories": [
			"Plaza",
			"Skate Park"
		]
	},
	{
		"date": "2019-06-01T13:09:13.000Z",
		"name": "Hoofddorppleinbuurt",
		"id": "5314b1f3e4b0d805d373a23b",
		"lat": 52.35172846713251,
		"lng": 4.849367528557429,
		"country": "Nederland",
		"categories": [
			"Neighborhood"
		]
	},
	{
		"date": "2019-06-01T13:30:47.000Z",
		"name": "Amsterdamse Bos",
		"id": "4b6d7515f964a52089752ce3",
		"lat": 52.309043,
		"lng": 4.834945,
		"address": "Bosbaanweg 5",
		"city": "Amstelveen",
		"country": "Nederland",
		"categories": [
			"Forest",
			"Park"
		]
	},
	{
		"date": "2019-06-01T13:48:29.000Z",
		"name": "A'damse Bos 'Radarterrein'",
		"id": "4da851c86e81162ae7a3e589",
		"lat": 52.305715378875774,
		"lng": 4.818547655780681,
		"address": "Bos",
		"country": "Nederland",
		"categories": [
			"Campground"
		]
	},
	{
		"date": "2019-06-01T14:10:02.000Z",
		"name": "Diynamic Festival",
		"id": "5cf28732fb8e59002c4cfe06",
		"lat": 52.305641,
		"lng": 4.819669,
		"postalCode": "1182DA",
		"city": "Amstelveen",
		"country": "Nederland",
		"categories": [
			"Music Festival"
		]
	},
	{
		"date": "2019-06-01T21:01:15.000Z",
		"name": "Bosbaan Running Track",
		"id": "4e636ae3b993678bb6e89077",
		"lat": 52.327755285456,
		"lng": 4.854961328755114,
		"address": "Bosbaan",
		"city": "Amstelveen",
		"country": "Nederland",
		"categories": [
			"Track"
		]
	},
	{
		"date": "2019-06-01T21:03:05.000Z",
		"name": "Jachtwerf Klaver",
		"id": "4fc201a9e4b0c1dd0a147c4d",
		"lat": 52.33158240997902,
		"lng": 4.855601579633806,
		"country": "Nederland",
		"categories": [
			"Harbor / Marina"
		]
	},
	{
		"date": "2019-06-01T21:07:10.000Z",
		"name": "Inloopbaan Olympisch Stadion",
		"id": "4eaf087b722e4efd6156a612",
		"lat": 52.34110554204484,
		"lng": 4.852193694043806,
		"city": "Amsterdam",
		"country": "Nederland",
		"categories": [
			"Field"
		]
	},
	{
		"date": "2019-06-01T21:20:12.000Z",
		"name": "Pizzarella",
		"id": "5c707c7b27cbd1002562bf78",
		"lat": 52.349749,
		"lng": 4.84916,
		"address": "Aalsmeerweg 39",
		"postalCode": "1059 AK",
		"city": "Amsterdam",
		"country": "Nederland",
		"categories": [
			"Italian Restaurant",
			"Pizza Place"
		]
	},
	{
		"date": "2019-06-01T23:24:45.000Z",
		"name": "Amsterdam Zuid Railway Station (Station Amsterdam Zuid)",
		"id": "4a952e89f964a520a62220e3",
		"lat": 52.33894690990427,
		"lng": 4.873248992995775,
		"address": "Zuidplein 10",
		"postalCode": "1077 XV",
		"city": "Amsterdam",
		"country": "Nederland",
		"categories": [
			"Train Station"
		]
	},
	{
		"date": "2019-06-02T12:51:26.000Z",
		"name": "Zandvoort",
		"id": "4bd7eaee5cf276b0be389c00",
		"lat": 52.37675671369625,
		"lng": 4.529515655631464,
		"country": "Nederland",
		"categories": [
			"City"
		]
	},
	{
		"date": "2019-06-02T13:45:53.000Z",
		"name": "Strand Zandvoort aan Zee",
		"id": "4c2f344b3896e21e3978e390",
		"lat": 52.375486156134436,
		"lng": 4.525765926071059,
		"address": "Boulevard de Favauge",
		"city": "Zandvoort",
		"country": "Nederland",
		"categories": [
			"Beach"
		]
	},
	{
		"date": "2019-06-02T16:31:26.000Z",
		"name": "Albert Heijn",
		"id": "4b9a4b64f964a52066aa35e3",
		"lat": 52.38445463709139,
		"lng": 4.635787640721933,
		"address": "Kruisstraat 10",
		"postalCode": "2011 PX",
		"city": "Haarlem",
		"country": "Nederland",
		"categories": [
			"Supermarket"
		]
	},
	{
		"date": "2019-06-03T17:06:15.000Z",
		"name": "Stationsplein",
		"id": "4d9b27d55e52224b50293ce3",
		"lat": 52.387322505020094,
		"lng": 4.637520650266529,
		"address": "Jansweg 40",
		"city": "Haarlem",
		"country": "Nederland",
		"categories": [
			"Parking"
		]
	},
	{
		"date": "2019-06-04T17:46:17.000Z",
		"name": "Albert Heijn",
		"id": "4b9a4b64f964a52066aa35e3",
		"lat": 52.38445463709139,
		"lng": 4.635787640721933,
		"address": "Kruisstraat 10",
		"postalCode": "2011 PX",
		"city": "Haarlem",
		"country": "Nederland",
		"categories": [
			"Supermarket"
		]
	},
	{
		"date": "2019-06-05T10:09:49.000Z",
		"name": "The Döner Company",
		"id": "4d790928a56e37040e5d7567",
		"lat": 52.38817372624091,
		"lng": 4.63927902305991,
		"address": "Station Haarlem",
		"postalCode": "2011 LR",
		"city": "Haarlem",
		"country": "Nederland",
		"categories": [
			"Doner Restaurant",
			"Falafel Restaurant",
			"Kebab Restaurant"
		]
	},
	{
		"date": "2019-06-05T17:25:25.000Z",
		"name": "Albert Heijn",
		"id": "4b9a4b64f964a52066aa35e3",
		"lat": 52.38445463709139,
		"lng": 4.635787640721933,
		"address": "Kruisstraat 10",
		"postalCode": "2011 PX",
		"city": "Haarlem",
		"country": "Nederland",
		"categories": [
			"Supermarket"
		]
	},
	{
		"date": "2019-06-06T17:48:14.000Z",
		"name": "Albert Heijn",
		"id": "4b9a4b64f964a52066aa35e3",
		"lat": 52.38445463709139,
		"lng": 4.635787640721933,
		"address": "Kruisstraat 10",
		"postalCode": "2011 PX",
		"city": "Haarlem",
		"country": "Nederland",
		"categories": [
			"Supermarket"
		]
	},
	{
		"date": "2019-06-07T09:54:03.000Z",
		"name": "Kamera Express",
		"id": "5be5ac9b5c68380039e77c2c",
		"lat": 52.37985,
		"lng": 4.636356,
		"address": "Anegang 32",
		"postalCode": "2011 HS",
		"city": "Haarlem",
		"country": "Nederland",
		"categories": [
			"Camera Store",
			"Photography Lab"
		]
	},
	{
		"date": "2019-06-07T13:24:03.000Z",
		"name": "Albert Heijn to go",
		"id": "4b862ee0f964a520038231e3",
		"lat": 52.38851437453483,
		"lng": 4.639542485412089,
		"address": "Stationsplein 14",
		"postalCode": "2011 LR",
		"city": "Haarlem",
		"country": "Nederland",
		"categories": [
			"Convenience Store"
		]
	},
	{
		"date": "2019-06-07T13:24:10.000Z",
		"name": "Station Haarlem",
		"id": "4a8c3036f964a5203a0d20e3",
		"lat": 52.38801057573046,
		"lng": 4.638713550666082,
		"address": "Stationsplein 11 L",
		"postalCode": "2011 LR",
		"city": "Haarlem",
		"country": "Nederland",
		"categories": [
			"Train Station"
		]
	},
	{
		"date": "2019-06-07T13:57:56.000Z",
		"name": "Amsterdam Sloterdijk Station (Station Amsterdam Sloterdijk)",
		"id": "4a56245ff964a52085b41fe3",
		"lat": 52.38899431620469,
		"lng": 4.837957990409058,
		"address": "Orlyplein 105",
		"postalCode": "1043 DT",
		"city": "Amsterdam",
		"country": "Nederland",
		"categories": [
			"Train Station"
		]
	},
	{
		"date": "2019-06-07T14:22:05.000Z",
		"name": "Schiphol Airport Railway Station (Station Schiphol Airport)",
		"id": "4b14bf25f964a5203fa623e3",
		"lat": 52.30920799537486,
		"lng": 4.761746493019994,
		"address": "Aankomstpassage 18",
		"postalCode": "1118 AX",
		"city": "Hoofddorp",
		"country": "Nederland",
		"categories": [
			"Train Station"
		]
	},
	{
		"date": "2019-06-07T14:24:30.000Z",
		"name": "Amsterdam Airport Schiphol (AMS)",
		"id": "4a84e798f964a520defd1fe3",
		"lat": 52.3085704596075,
		"lng": 4.762122631072998,
		"address": "Aankomstpassage",
		"postalCode": "1118 CP",
		"city": "Schiphol",
		"country": "Nederland",
		"categories": [
			"Airport"
		]
	},
	{
		"date": "2019-06-07T14:41:50.000Z",
		"name": "KLM Crown Lounge 25 (Schengen)",
		"id": "4bd6bfa06f6495213b3f71ec",
		"lat": 52.30859648518195,
		"lng": 4.764506075829721,
		"address": "Concourse D",
		"postalCode": "1118 CP",
		"city": "Schiphol",
		"country": "Nederland",
		"categories": [
			"Airport Lounge"
		]
	},
	{
		"date": "2019-06-07T15:22:04.000Z",
		"name": "Concourse B",
		"id": "4f58b3fae4b0db2050e0a11d",
		"lat": 52.30465621747054,
		"lng": 4.762043045940551,
		"address": "AMS Airport",
		"city": "Schiphol",
		"country": "Nederland",
		"categories": [
			"Airport Terminal"
		]
	},
	{
		"date": "2019-06-07T19:19:43.000Z",
		"name": "Vienna International Airport (VIE) (Flughafen Wien-Schwechat)",
		"id": "4b05889af964a520e5cf22e3",
		"lat": 48.11934401963146,
		"lng": 16.56264517485397,
		"address": "Abflugstraße",
		"postalCode": "1300",
		"city": "Schwechat",
		"country": "Österreich",
		"categories": [
			"Airport"
		]
	},
	{
		"date": "2019-06-07T20:27:52.000Z",
		"name": "Tómalom",
		"id": "4e29ab8352b1c37d35cea4b7",
		"lat": 47.71554211831894,
		"lng": 16.621489894444487,
		"city": "Sopron",
		"country": "Magyarország",
		"categories": [
			"Neighborhood"
		]
	},
	{
		"date": "2019-06-08T12:05:28.000Z",
		"name": "Kis-Tómalom",
		"id": "4f857e8be4b05ea63f7a168f",
		"lat": 47.71016582127449,
		"lng": 16.625447273254395,
		"country": "Magyarország",
		"categories": [
			"Lake"
		]
	},
	{
		"date": "2019-06-08T15:52:07.000Z",
		"name": "Museum Cafe",
		"id": "582ad93bbd894921e95a75a7",
		"lat": 47.686899804607435,
		"lng": 16.59143757875342,
		"address": "Előkapu 2-7.",
		"postalCode": "9400",
		"city": "Sopron",
		"country": "Magyarország",
		"categories": [
			"Café",
			"Bar"
		]
	},
	{
		"date": "2019-06-08T17:03:42.000Z",
		"name": "Fő tér",
		"id": "4cc1918e21a4f04d87be6455",
		"lat": 47.68634925040153,
		"lng": 16.590835505738625,
		"address": "Fő tér",
		"postalCode": "9400",
		"city": "Sopron",
		"country": "Magyarország",
		"categories": [
			"Plaza"
		]
	},
	{
		"date": "2019-06-08T20:13:26.000Z",
		"name": "Gyógygödör",
		"id": "4df33e9c1f6e818dae000510",
		"lat": 47.68626077329399,
		"lng": 16.590529670063145,
		"address": "Fő tér 4.",
		"postalCode": "9400",
		"city": "Sopron",
		"country": "Magyarország",
		"categories": [
			"Wine Bar",
			"Pub"
		]
	},
	{
		"date": "2019-06-08T22:48:55.000Z",
		"name": "Deák tér",
		"id": "4d7cceeb34f7721e4f0acc25",
		"lat": 47.68042933030541,
		"lng": 16.587352485307203,
		"address": "Deák tér",
		"postalCode": "9400",
		"city": "Sopron",
		"country": "Magyarország",
		"categories": [
			"Park",
			"Plaza"
		]
	},
	{
		"date": "2019-06-08T22:58:56.000Z",
		"name": "Sopron vasútállomás",
		"id": "4bd6fe6529eb9c749dee95e1",
		"lat": 47.67771249028291,
		"lng": 16.58738136291504,
		"address": "Állomás u. 2.",
		"postalCode": "9400",
		"city": "Sopron",
		"country": "Magyarország",
		"categories": [
			"Train Station"
		]
	},
	{
		"date": "2019-06-08T23:16:02.000Z",
		"name": "OTP Bank",
		"id": "4e6df5e21f6e39092ee70dcf",
		"lat": 47.6851475948429,
		"lng": 16.592702806959156,
		"address": "Várkerület 96/a",
		"postalCode": "9400",
		"city": "Sopron",
		"country": "Magyarország",
		"categories": [
			"Bank"
		]
	},
	{
		"date": "2019-06-08T23:32:18.000Z",
		"name": "Tómalom",
		"id": "4e29ab8352b1c37d35cea4b7",
		"lat": 47.71554211831894,
		"lng": 16.621489894444487,
		"city": "Sopron",
		"country": "Magyarország",
		"categories": [
			"Neighborhood"
		]
	},
	{
		"date": "2019-06-09T08:10:02.000Z",
		"name": "Széchenyi tér",
		"id": "4dc924f11f6e936efe52ac05",
		"lat": 47.68289779925098,
		"lng": 16.589524032040796,
		"address": "Széchenyi tér",
		"postalCode": "9400",
		"city": "Sopron",
		"country": "Magyarország",
		"categories": [
			"Park",
			"Plaza"
		]
	},
	{
		"date": "2019-06-10T07:14:42.000Z",
		"name": "Vienna International Airport (VIE) (Flughafen Wien-Schwechat)",
		"id": "4b05889af964a520e5cf22e3",
		"lat": 48.11934401963146,
		"lng": 16.56264517485397,
		"address": "Abflugstraße",
		"postalCode": "1300",
		"city": "Schwechat",
		"country": "Österreich",
		"categories": [
			"Airport"
		]
	},
	{
		"date": "2019-06-10T07:55:04.000Z",
		"name": "Bierbar",
		"id": "5b2b27eea5a3150039e4491a",
		"lat": 48.11825211829872,
		"lng": 16.56711008927955,
		"address": "Terminal 3, near Gate F09",
		"city": "Wien",
		"country": "Österreich",
		"categories": [
			"Beer Bar",
			"Snack Place"
		]
	},
	{
		"date": "2019-06-10T12:55:56.000Z",
		"name": "Amsterdam Airport Schiphol (AMS)",
		"id": "4a84e798f964a520defd1fe3",
		"lat": 52.3085704596075,
		"lng": 4.762122631072998,
		"address": "Aankomstpassage",
		"postalCode": "1118 CP",
		"city": "Schiphol",
		"country": "Nederland",
		"categories": [
			"Airport"
		]
	},
	{
		"date": "2019-06-10T12:59:45.000Z",
		"name": "Gate B35",
		"id": "4bf01aaa51f2c9b66e30f192",
		"lat": 52.303299010298694,
		"lng": 4.7633905090404705,
		"address": "Concourse B",
		"city": "Schiphol",
		"country": "Nederland",
		"categories": [
			"Airport Gate"
		]
	},
	{
		"date": "2019-06-10T12:59:59.000Z",
		"name": "Concourse B",
		"id": "4f58b3fae4b0db2050e0a11d",
		"lat": 52.30465621747054,
		"lng": 4.762043045940551,
		"address": "AMS Airport",
		"city": "Schiphol",
		"country": "Nederland",
		"categories": [
			"Airport Terminal"
		]
	},
	{
		"date": "2019-06-10T13:31:51.000Z",
		"name": "Amsterdam Sloterdijk Station (Station Amsterdam Sloterdijk)",
		"id": "4a56245ff964a52085b41fe3",
		"lat": 52.38899431620469,
		"lng": 4.837957990409058,
		"address": "Orlyplein 105",
		"postalCode": "1043 DT",
		"city": "Amsterdam",
		"country": "Nederland",
		"categories": [
			"Train Station"
		]
	},
	{
		"date": "2019-06-10T14:13:22.000Z",
		"name": "Albert Heijn",
		"id": "4b9a4b64f964a52066aa35e3",
		"lat": 52.38445463709139,
		"lng": 4.635787640721933,
		"address": "Kruisstraat 10",
		"postalCode": "2011 PX",
		"city": "Haarlem",
		"country": "Nederland",
		"categories": [
			"Supermarket"
		]
	},
	{
		"date": "2019-06-12T11:02:59.000Z",
		"name": "Domino's Pizza Haarlem 3 - Station",
		"id": "5c266634b9b37b002cd9d5fb",
		"lat": 52.3884359,
		"lng": 4.6393777,
		"address": "Kennemerplein 12",
		"postalCode": "2011 MJ",
		"city": "Haarlem",
		"country": "Nederland",
		"categories": [
			"Pizza Place",
			"Restaurant"
		]
	},
	{
		"date": "2019-06-13T16:50:45.000Z",
		"name": "Albert Heijn",
		"id": "4b9a4b64f964a52066aa35e3",
		"lat": 52.38445463709139,
		"lng": 4.635787640721933,
		"address": "Kruisstraat 10",
		"postalCode": "2011 PX",
		"city": "Haarlem",
		"country": "Nederland",
		"categories": [
			"Supermarket"
		]
	},
	{
		"date": "2019-06-14T09:55:04.000Z",
		"name": "Kamera Express",
		"id": "5be5ac9b5c68380039e77c2c",
		"lat": 52.37985,
		"lng": 4.636356,
		"address": "Anegang 32",
		"postalCode": "2011 HS",
		"city": "Haarlem",
		"country": "Nederland",
		"categories": [
			"Camera Store",
			"Photography Lab"
		]
	},
	{
		"date": "2019-06-14T09:55:36.000Z",
		"name": "Grote Markt",
		"id": "4b33f1aef964a520842225e3",
		"lat": 52.381433191163424,
		"lng": 4.6357020650218494,
		"address": "Grote Markt",
		"postalCode": "2011",
		"city": "Haarlem",
		"country": "Nederland",
		"categories": [
			"Plaza",
			"Event Space"
		]
	},
	{
		"date": "2019-06-14T10:01:46.000Z",
		"name": "Mr. Bing",
		"id": "5b02a94f9d6a19002ccdd485",
		"lat": 52.383353,
		"lng": 4.635424,
		"address": "Kruisstraat 43",
		"postalCode": "2011 PW",
		"city": "Haarlem",
		"country": "Nederland",
		"categories": [
			"Bubble Tea Shop",
			"Deli / Bodega",
			"Snack Place"
		]
	},
	{
		"date": "2019-06-14T17:29:39.000Z",
		"name": "Luca pizzeria",
		"id": "4ba7a257f964a52089a439e3",
		"lat": 52.38056276467253,
		"lng": 4.646154420445277,
		"city": "Haarlem",
		"country": "Nederland",
		"categories": [
			"Pizza Place",
			"Italian Restaurant"
		]
	},
	{
		"date": "2019-06-14T19:08:43.000Z",
		"name": "Amsterdamse Poort",
		"id": "4bdb283a63c5c9b6e79b2668",
		"lat": 52.38063054648961,
		"lng": 4.646394715851816,
		"address": "Amsterdamse Poort",
		"city": "Haarlem",
		"country": "Nederland",
		"categories": [
			"Monument / Landmark",
			"Historic Site"
		]
	},
	{
		"date": "2019-06-14T19:27:04.000Z",
		"name": "Aan de (Nieuwe)Gracht",
		"id": "4dadb3a9fa8cf64d804e00af",
		"lat": 52.385038012286394,
		"lng": 4.638014586966368,
		"address": "Nieuwe Gracht",
		"postalCode": "2011NM",
		"city": "Haarlem",
		"country": "Nederland",
		"categories": [
			"Other Great Outdoors"
		]
	},
	{
		"date": "2019-06-15T12:12:22.000Z",
		"name": "Marqt",
		"id": "4ae1d0e3f964a520aa8721e3",
		"lat": 52.3802600023814,
		"lng": 4.632357722477905,
		"address": "Gedempte Oude Gracht 66",
		"postalCode": "2011 TG",
		"city": "Haarlem",
		"country": "Nederland",
		"categories": [
			"Organic Grocery"
		]
	},
	{
		"date": "2019-06-16T10:10:46.000Z",
		"name": "De Klimmuur",
		"id": "4b925dc3f964a520b7f433e3",
		"lat": 52.39121626623272,
		"lng": 4.649255089197858,
		"address": "Spaarndamseweg 120b",
		"postalCode": "2021 KA",
		"city": "Haarlem",
		"country": "Nederland",
		"categories": [
			"Climbing Gym"
		]
	},
	{
		"date": "2019-06-16T11:16:27.000Z",
		"name": "De Fabriek",
		"id": "5ba937b318d43b002cda5cb0",
		"lat": 52.39237,
		"lng": 4.6481323,
		"postalCode": "2021 AA",
		"city": "Haarlem",
		"country": "Nederland",
		"categories": [
			"Climbing Gym"
		]
	},
	{
		"date": "2019-06-16T13:30:26.000Z",
		"name": "RataPlan Kringloopwinkel",
		"id": "521897ae11d2a6c2dd0f0d1a",
		"lat": 52.39045815391731,
		"lng": 4.648954410718502,
		"address": "Werfstraat 3",
		"city": "Haarlem",
		"country": "Nederland",
		"categories": [
			"Thrift / Vintage Store"
		]
	},
	{
		"date": "2019-06-16T13:34:05.000Z",
		"name": "Action",
		"id": "4c1a06b66a21c9b6735dcb97",
		"lat": 52.391095588018075,
		"lng": 4.64856076516707,
		"address": "Werfstraat 11",
		"city": "Haarlem",
		"country": "Nederland",
		"categories": [
			"Discount Store"
		]
	},
	{
		"date": "2019-06-16T14:32:09.000Z",
		"name": "Station Haarlem",
		"id": "4a8c3036f964a5203a0d20e3",
		"lat": 52.38801057573046,
		"lng": 4.638713550666082,
		"address": "Stationsplein 11 L",
		"postalCode": "2011 LR",
		"city": "Haarlem",
		"country": "Nederland",
		"categories": [
			"Train Station"
		]
	},
	{
		"date": "2019-06-16T15:08:16.000Z",
		"name": "Leiden Central Railway station (Station Leiden Centraal)",
		"id": "4ad44a63f964a5208be720e3",
		"lat": 52.166069721919676,
		"lng": 4.482098314771528,
		"address": "Stationsplein 3G",
		"postalCode": "2312 AJ",
		"city": "Leiden",
		"country": "Nederland",
		"categories": [
			"Train Station"
		]
	},
	{
		"date": "2019-06-16T15:48:08.000Z",
		"name": "Rotterdam Central Station (Station Rotterdam Centraal)",
		"id": "4ae19cc4f964a520678621e3",
		"lat": 51.92536602394011,
		"lng": 4.469021675569301,
		"address": "Stationssingel 10",
		"postalCode": "3013 HA",
		"city": "Rotterdam",
		"country": "Nederland",
		"categories": [
			"Train Station"
		]
	},
	{
		"date": "2019-06-16T16:05:46.000Z",
		"name": "Blijdorp",
		"id": "4e09edd32271dfa46bbf92e2",
		"lat": 51.92719030632324,
		"lng": 4.458713446216361,
		"city": "Rotterdam",
		"country": "Nederland",
		"categories": [
			"Neighborhood"
		]
	},
	{
		"date": "2019-06-16T20:39:32.000Z",
		"name": "Rotterdam Central Station (Station Rotterdam Centraal)",
		"id": "4ae19cc4f964a520678621e3",
		"lat": 51.92536602394011,
		"lng": 4.469021675569301,
		"address": "Stationssingel 10",
		"postalCode": "3013 HA",
		"city": "Rotterdam",
		"country": "Nederland",
		"categories": [
			"Train Station"
		]
	},
	{
		"date": "2019-06-16T21:20:42.000Z",
		"name": "Leiden Central Railway station (Station Leiden Centraal)",
		"id": "4ad44a63f964a5208be720e3",
		"lat": 52.166069721919676,
		"lng": 4.482098314771528,
		"address": "Stationsplein 3G",
		"postalCode": "2312 AJ",
		"city": "Leiden",
		"country": "Nederland",
		"categories": [
			"Train Station"
		]
	},
	{
		"date": "2019-06-18T17:13:00.000Z",
		"name": "Albert Heijn",
		"id": "4b9a4b64f964a52066aa35e3",
		"lat": 52.38445463709139,
		"lng": 4.635787640721933,
		"address": "Kruisstraat 10",
		"postalCode": "2011 PX",
		"city": "Haarlem",
		"country": "Nederland",
		"categories": [
			"Supermarket"
		]
	},
	{
		"date": "2019-06-19T18:03:47.000Z",
		"name": "Albert Heijn",
		"id": "4b9a4b64f964a52066aa35e3",
		"lat": 52.38445463709139,
		"lng": 4.635787640721933,
		"address": "Kruisstraat 10",
		"postalCode": "2011 PX",
		"city": "Haarlem",
		"country": "Nederland",
		"categories": [
			"Supermarket"
		]
	},
	{
		"date": "2019-06-21T09:52:19.000Z",
		"name": "Kamera Express",
		"id": "5be5ac9b5c68380039e77c2c",
		"lat": 52.37985,
		"lng": 4.636356,
		"address": "Anegang 32",
		"postalCode": "2011 HS",
		"city": "Haarlem",
		"country": "Nederland",
		"categories": [
			"Camera Store",
			"Photography Lab"
		]
	},
	{
		"date": "2019-06-21T09:58:13.000Z",
		"name": "SUBWAY",
		"id": "4e899f5e9a52f9bbd0e654b4",
		"lat": 52.382863727754575,
		"lng": 4.635100972590294,
		"address": "Krocht 12",
		"postalCode": "2011 PT",
		"city": "Haarlem",
		"country": "Nederland",
		"categories": [
			"Sandwich Place",
			"Fast Food Restaurant",
			"Restaurant"
		]
	},
	{
		"date": "2019-06-21T18:10:47.000Z",
		"name": "Station Haarlem",
		"id": "4a8c3036f964a5203a0d20e3",
		"lat": 52.38801057573046,
		"lng": 4.638713550666082,
		"address": "Stationsplein 11 L",
		"postalCode": "2011 LR",
		"city": "Haarlem",
		"country": "Nederland",
		"categories": [
			"Train Station"
		]
	},
	{
		"date": "2019-06-21T18:43:50.000Z",
		"name": "Bushalte Toolenburg",
		"id": "4bff607a369476b046c98d1f",
		"lat": 52.3027922325208,
		"lng": 4.669488082401088,
		"address": "Van Heuven Goedhartlaan",
		"postalCode": "2131",
		"city": "Hoofddorp",
		"country": "Nederland",
		"categories": [
			"Bus Stop"
		]
	},
	{
		"date": "2019-06-22T08:18:33.000Z",
		"name": "Albert Heijn",
		"id": "4b9a4b64f964a52066aa35e3",
		"lat": 52.38445463709139,
		"lng": 4.635787640721933,
		"address": "Kruisstraat 10",
		"postalCode": "2011 PX",
		"city": "Haarlem",
		"country": "Nederland",
		"categories": [
			"Supermarket"
		]
	},
	{
		"date": "2019-06-22T08:46:51.000Z",
		"name": "Catharijnebrug",
		"id": "4c6e3263f338236a14e8091b",
		"lat": 52.38303588153227,
		"lng": 4.642963060018276,
		"address": "Harmejansweg",
		"city": "Haarlem",
		"country": "Nederland",
		"categories": [
			"Bridge"
		]
	},
	{
		"date": "2019-06-22T09:08:31.000Z",
		"name": "Aan de (Nieuwe)Gracht",
		"id": "4dadb3a9fa8cf64d804e00af",
		"lat": 52.385038012286394,
		"lng": 4.638014586966368,
		"address": "Nieuwe Gracht",
		"postalCode": "2011NM",
		"city": "Haarlem",
		"country": "Nederland",
		"categories": [
			"Other Great Outdoors"
		]
	},
	{
		"date": "2019-06-23T12:52:45.000Z",
		"name": "Cotton Candy Residence 10",
		"id": "58cd4fe316f000799f4cf4f4",
		"lat": 52.392946926098126,
		"lng": 4.640537129468235,
		"city": "Haarlem",
		"country": "Nederland",
		"categories": [
			"Home (private)"
		]
	},
	{
		"date": "2019-06-23T16:36:28.000Z",
		"name": "Goethe Instituut",
		"id": "4ba7483ff964a520878939e3",
		"lat": 52.36523815799381,
		"lng": 4.891138930958567,
		"address": "Herengracht 470",
		"postalCode": "1017 CA",
		"city": "Amsterdam",
		"country": "Nederland",
		"categories": [
			"Language School"
		]
	},
	{
		"date": "2019-06-23T19:59:27.000Z",
		"name": "Metrostation Rokin",
		"id": "4ce01089c4f6a35d1ec6d36c",
		"lat": 52.369333,
		"lng": 4.892333,
		"address": "Rokin",
		"city": "Amsterdam",
		"country": "Nederland",
		"categories": [
			"Metro Station"
		]
	},
	{
		"date": "2019-06-23T20:08:28.000Z",
		"name": "Salsa Shop",
		"id": "574f4d9c498efc56a240b8c2",
		"lat": 52.37958465946948,
		"lng": 4.900045992389015,
		"address": "Stationsplein",
		"postalCode": "1012 AB",
		"city": "Amsterdam",
		"country": "Nederland",
		"categories": [
			"Burrito Place"
		]
	},
	{
		"date": "2019-06-26T17:48:28.000Z",
		"name": "Albert Heijn",
		"id": "4b9a4b64f964a52066aa35e3",
		"lat": 52.38445463709139,
		"lng": 4.635787640721933,
		"address": "Kruisstraat 10",
		"postalCode": "2011 PX",
		"city": "Haarlem",
		"country": "Nederland",
		"categories": [
			"Supermarket"
		]
	},
	{
		"date": "2019-06-27T17:40:37.000Z",
		"name": "Marqt",
		"id": "5c6d30ff598e64002c962760",
		"lat": 52.351063,
		"lng": 4.851869,
		"address": "Hoofddorpweg 2",
		"postalCode": "1058 PB",
		"city": "Amsterdam",
		"country": "Nederland",
		"categories": [
			"Organic Grocery"
		]
	},
	{
		"date": "2019-06-27T17:59:15.000Z",
		"name": "Aalsmeerweg",
		"id": "508047d8e4b0ac00f43485d5",
		"lat": 52.35005,
		"lng": 4.849357,
		"country": "Nederland",
		"categories": [
			"Residential Building (Apartment / Condo)"
		]
	},
	{
		"date": "2019-06-27T22:30:27.000Z",
		"name": "Bus 15 Amsterdam Zuid - Sloterdijk",
		"id": "4b7a78aff964a520c62d2fe3",
		"lat": 52.35106111714903,
		"lng": 4.8537747393306,
		"country": "Nederland",
		"categories": [
			"Bus Line"
		]
	},
	{
		"date": "2019-06-27T22:52:11.000Z",
		"name": "Amsterdam Sloterdijk Station (Station Amsterdam Sloterdijk)",
		"id": "4a56245ff964a52085b41fe3",
		"lat": 52.38899431620469,
		"lng": 4.837957990409058,
		"address": "Orlyplein 105",
		"postalCode": "1043 DT",
		"city": "Amsterdam",
		"country": "Nederland",
		"categories": [
			"Train Station"
		]
	},
	{
		"date": "2019-06-28T10:17:06.000Z",
		"name": "Burger King",
		"id": "4b3e3645f964a520939925e3",
		"lat": 52.38744848035656,
		"lng": 4.6376815692659425,
		"address": "Stationsplein 11J",
		"postalCode": "2011 LC",
		"city": "Haarlem",
		"country": "Nederland",
		"categories": [
			"Fast Food Restaurant"
		]
	},
	{
		"date": "2019-06-28T17:49:41.000Z",
		"name": "Albert Heijn",
		"id": "4b9a4b64f964a52066aa35e3",
		"lat": 52.38445463709139,
		"lng": 4.635787640721933,
		"address": "Kruisstraat 10",
		"postalCode": "2011 PX",
		"city": "Haarlem",
		"country": "Nederland",
		"categories": [
			"Supermarket"
		]
	},
	{
		"date": "2019-06-29T13:54:06.000Z",
		"name": "Station Haarlem",
		"id": "4a8c3036f964a5203a0d20e3",
		"lat": 52.38801057573046,
		"lng": 4.638713550666082,
		"address": "Stationsplein 11 L",
		"postalCode": "2011 LR",
		"city": "Haarlem",
		"country": "Nederland",
		"categories": [
			"Train Station"
		]
	},
	{
		"date": "2019-06-29T15:08:39.000Z",
		"name": "Strand Zandvoort aan Zee",
		"id": "4c2f344b3896e21e3978e390",
		"lat": 52.375486156134436,
		"lng": 4.525765926071059,
		"address": "Boulevard de Favauge",
		"city": "Zandvoort",
		"country": "Nederland",
		"categories": [
			"Beach"
		]
	},
	{
		"date": "2019-06-29T16:37:15.000Z",
		"name": "Passage, Zandvoort",
		"id": "5049ff43e4b0e6163543006d",
		"lat": 52.37494091701734,
		"lng": 4.528991312184849,
		"address": "Passage",
		"city": "Zandvoort",
		"country": "Nederland",
		"categories": [
			"Plaza"
		]
	},
	{
		"date": "2019-06-29T16:46:48.000Z",
		"name": "La Fontanella",
		"id": "4bd47c2d6798ef3bcab0618d",
		"lat": 52.37508301639062,
		"lng": 4.528903982941875,
		"address": "Passage 2-4",
		"postalCode": "2042KT",
		"city": "Zandvoort",
		"country": "Nederland",
		"categories": [
			"Italian Restaurant",
			"Pizza Place"
		]
	},
	{
		"date": "2019-06-29T18:52:00.000Z",
		"name": "Station Zandvoort aan Zee",
		"id": "4b235a53f964a5205c5524e3",
		"lat": 52.3757860855875,
		"lng": 4.531738906725922,
		"address": "Stationsplein 6",
		"postalCode": "2041AB",
		"city": "Zandvoort",
		"country": "Nederland",
		"categories": [
			"Train Station"
		]
	},
	{
		"date": "2019-06-29T19:07:22.000Z",
		"name": "Station Haarlem",
		"id": "4a8c3036f964a5203a0d20e3",
		"lat": 52.38801057573046,
		"lng": 4.638713550666082,
		"address": "Stationsplein 11 L",
		"postalCode": "2011 LR",
		"city": "Haarlem",
		"country": "Nederland",
		"categories": [
			"Train Station"
		]
	},
	{
		"date": "2019-06-29T19:45:34.000Z",
		"name": "Cotton Candy Residence 10",
		"id": "58cd4fe316f000799f4cf4f4",
		"lat": 52.392946926098126,
		"lng": 4.640537129468235,
		"city": "Haarlem",
		"country": "Nederland",
		"categories": [
			"Home (private)"
		]
	},
	{
		"date": "2019-06-30T10:16:29.000Z",
		"name": "Jansbrug",
		"id": "4e7cc07eb9934b432d065769",
		"lat": 52.38478723669128,
		"lng": 4.638563664765195,
		"country": "Nederland",
		"categories": [
			"Bridge"
		]
	},
	{
		"date": "2019-06-30T11:27:55.000Z",
		"name": "Station Haarlem",
		"id": "4a8c3036f964a5203a0d20e3",
		"lat": 52.38801057573046,
		"lng": 4.638713550666082,
		"address": "Stationsplein 11 L",
		"postalCode": "2011 LR",
		"city": "Haarlem",
		"country": "Nederland",
		"categories": [
			"Train Station"
		]
	},
	{
		"date": "2019-06-30T11:35:35.000Z",
		"name": "Station Haarlem Spaarnwoude",
		"id": "4accafdef964a52034c920e3",
		"lat": 52.38186059333917,
		"lng": 4.668725747728769,
		"address": "Woudplein 4",
		"city": "Haarlem",
		"country": "Nederland",
		"categories": [
			"Train Station"
		]
	},
	{
		"date": "2019-06-30T11:45:37.000Z",
		"name": "IKEA Restaurant",
		"id": "4d52d39e747f6dcb7372d1d4",
		"lat": 52.384716105241544,
		"lng": 4.669890708050926,
		"address": "Laan van Decima 1",
		"postalCode": "2031 CX",
		"city": "Haarlem",
		"country": "Nederland",
		"categories": [
			"Scandinavian Restaurant"
		]
	},
	{
		"date": "2019-06-30T11:57:00.000Z",
		"name": "IKEA",
		"id": "4b48d278f964a520a75826e3",
		"lat": 52.38470382072317,
		"lng": 4.669883675315246,
		"address": "Laan van Decima 1",
		"postalCode": "2031 CX",
		"city": "Haarlem",
		"country": "Nederland",
		"categories": [
			"Furniture / Home Store"
		]
	}
]