[
	{
		"date": "2019-07-01T17:40:52.000Z",
		"name": "Albert Heijn",
		"id": "4b9a4b64f964a52066aa35e3",
		"lat": 52.38445463709139,
		"lng": 4.635787640721933,
		"address": "Kruisstraat 10",
		"postalCode": "2011 PX",
		"city": "Haarlem",
		"country": "Nederland",
		"categories": [
			"Supermarket"
		]
	},
	{
		"date": "2019-07-03T18:28:45.000Z",
		"name": "Pathé Haarlem",
		"id": "4e148b7ac65bedaeefbe2709",
		"lat": 52.381759575266265,
		"lng": 4.6295865068192885,
		"address": "Zijlvest 41-43",
		"postalCode": "2011 VB",
		"city": "Haarlem",
		"country": "Nederland",
		"categories": [
			"Multiplex"
		]
	},
	{
		"date": "2019-07-04T09:51:57.000Z",
		"name": "ING Bank",
		"id": "4bbc2563e5b0d13a27fe6e7c",
		"lat": 52.37556882140811,
		"lng": 4.630967565374206,
		"address": "Houtplein 9",
		"postalCode": "2012 DD",
		"city": "Haarlem",
		"country": "Nederland",
		"categories": [
			"Bank"
		]
	},
	{
		"date": "2019-07-04T10:52:38.000Z",
		"name": "Apple Haarlem",
		"id": "529e315f11d2f188f40a235a",
		"lat": 52.378432951567824,
		"lng": 4.6329654604005555,
		"address": "Grote Houtstraat 99",
		"postalCode": "2011 SH",
		"city": "Haarlem",
		"country": "Nederland",
		"categories": [
			"Electronics Store",
			"Mobile Phone Shop"
		]
	},
	{
		"date": "2019-07-04T17:44:53.000Z",
		"name": "Albert Heijn",
		"id": "4b9a4b64f964a52066aa35e3",
		"lat": 52.38445463709139,
		"lng": 4.635787640721933,
		"address": "Kruisstraat 10",
		"postalCode": "2011 PX",
		"city": "Haarlem",
		"country": "Nederland",
		"categories": [
			"Supermarket"
		]
	},
	{
		"date": "2019-07-04T17:56:21.000Z",
		"name": "Cotton Candy Residence 10",
		"id": "58cd4fe316f000799f4cf4f4",
		"lat": 52.392946926098126,
		"lng": 4.640537129468235,
		"city": "Haarlem",
		"country": "Nederland",
		"categories": [
			"Home (private)"
		]
	},
	{
		"date": "2019-07-05T18:59:45.000Z",
		"name": "Albert Heijn to go",
		"id": "4b862ee0f964a520038231e3",
		"lat": 52.38851437453483,
		"lng": 4.639542485412089,
		"address": "Stationsplein 14",
		"postalCode": "2011 LR",
		"city": "Haarlem",
		"country": "Nederland",
		"categories": [
			"Convenience Store"
		]
	},
	{
		"date": "2019-07-06T10:42:26.000Z",
		"name": "Vomar Voordeelmarkt",
		"id": "4b72c969f964a52096882de3",
		"lat": 52.39127711020139,
		"lng": 4.649005288257338,
		"address": "Paul Krugerkade 22",
		"postalCode": "2021 BN",
		"city": "Haarlem",
		"country": "Nederland",
		"categories": [
			"Supermarket",
			"Grocery Store"
		]
	},
	{
		"date": "2019-07-07T11:26:13.000Z",
		"name": "Lijnbaansbrug (Brug 10)",
		"id": "4f6f190ce4b07fa2c72837f5",
		"lat": 52.376317192954254,
		"lng": 4.891377341370071,
		"address": "Singel",
		"city": "Amsterdam",
		"country": "Nederland",
		"categories": [
			"Bridge"
		]
	},
	{
		"date": "2019-07-07T11:30:01.000Z",
		"name": "Episode",
		"id": "5597b3bd498eff0434d92fec",
		"lat": 52.375119130115834,
		"lng": 4.891008960135177,
		"address": "Spuistraat 96",
		"city": "Amsterdam",
		"country": "Nederland",
		"categories": [
			"Thrift / Vintage Store"
		]
	},
	{
		"date": "2019-07-07T11:56:20.000Z",
		"name": "Herengracht",
		"id": "4bb0a456f964a520a8513ce3",
		"lat": 52.37161673882133,
		"lng": 4.886963367462158,
		"address": "Herengracht",
		"city": "Amsterdam",
		"country": "Nederland",
		"categories": [
			"Canal"
		]
	},
	{
		"date": "2019-07-07T12:38:04.000Z",
		"name": "Rijksmuseum",
		"id": "4a270706f964a520bd8c1fe3",
		"lat": 52.3601351663482,
		"lng": 4.885132584180236,
		"address": "Museumstraat 1",
		"postalCode": "1071 XX",
		"city": "Amsterdam",
		"country": "Nederland",
		"categories": [
			"Art Museum",
			"History Museum"
		]
	},
	{
		"date": "2019-07-07T13:16:55.000Z",
		"name": "Monte Verde",
		"id": "4a2707fdf964a520678f1fe3",
		"lat": 52.354671007198846,
		"lng": 4.887163392270472,
		"address": "Albert Cuypstraat 15-17",
		"postalCode": "1072 CK",
		"city": "Amsterdam",
		"country": "Nederland",
		"categories": [
			"Italian Restaurant",
			"Pizza Place"
		]
	},
	{
		"date": "2019-07-07T13:53:28.000Z",
		"name": "Metrostation De Pijp",
		"id": "522b57ad93cdd21f4b2b5acd",
		"lat": 52.35280732821303,
		"lng": 4.890851943182228,
		"address": "Ferdinand Bolstraat",
		"city": "Amsterdam",
		"country": "Nederland",
		"categories": [
			"Metro Station"
		]
	},
	{
		"date": "2019-07-07T14:16:37.000Z",
		"name": "Openbare Bibliotheek Amsterdam",
		"id": "4a2706eef964a520698c1fe3",
		"lat": 52.37606844281819,
		"lng": 4.908294057785158,
		"address": "Oosterdokskade 143",
		"postalCode": "1011 DL",
		"city": "Amsterdam",
		"country": "Nederland",
		"categories": [
			"Library"
		]
	},
	{
		"date": "2019-07-07T14:51:16.000Z",
		"name": "Babel",
		"id": "5b818bfae47b460039f7b30a",
		"lat": 52.376053,
		"lng": 4.9083314,
		"postalCode": "1011 DH",
		"city": "Amsterdam",
		"country": "Nederland",
		"categories": [
			"Restaurant"
		]
	},
	{
		"date": "2019-07-07T15:06:26.000Z",
		"name": "Pippers",
		"id": "558168f5498ea507a6356ac2",
		"lat": 52.376013215014396,
		"lng": 4.906819778996501,
		"address": "Harry Banninkstraat 1",
		"postalCode": "1011 TE",
		"country": "Nederland",
		"categories": [
			"Sandwich Place"
		]
	},
	{
		"date": "2019-07-07T15:25:35.000Z",
		"name": "Amsterdam Central Railway Station (Station Amsterdam Centraal)",
		"id": "4a688ba1f964a52088ca1fe3",
		"lat": 52.37878224866535,
		"lng": 4.900374412536621,
		"address": "Stationsplein 15",
		"postalCode": "1012 AB",
		"city": "Amsterdam",
		"country": "Nederland",
		"categories": [
			"Train Station"
		]
	},
	{
		"date": "2019-07-08T09:48:45.000Z",
		"name": "Kamera Express",
		"id": "5be5ac9b5c68380039e77c2c",
		"lat": 52.37985,
		"lng": 4.636356,
		"address": "Anegang 32",
		"postalCode": "2011 HS",
		"city": "Haarlem",
		"country": "Nederland",
		"categories": [
			"Camera Store",
			"Photography Lab"
		]
	},
	{
		"date": "2019-07-08T15:59:47.000Z",
		"name": "Action",
		"id": "4c1a06b66a21c9b6735dcb97",
		"lat": 52.391095588018075,
		"lng": 4.64856076516707,
		"address": "Werfstraat 11",
		"city": "Haarlem",
		"country": "Nederland",
		"categories": [
			"Discount Store"
		]
	},
	{
		"date": "2019-07-08T17:22:06.000Z",
		"name": "Albert Heijn",
		"id": "4b9a4b64f964a52066aa35e3",
		"lat": 52.38445463709139,
		"lng": 4.635787640721933,
		"address": "Kruisstraat 10",
		"postalCode": "2011 PX",
		"city": "Haarlem",
		"country": "Nederland",
		"categories": [
			"Supermarket"
		]
	},
	{
		"date": "2019-07-08T20:19:55.000Z",
		"name": "Cotton Candy Residence 10",
		"id": "58cd4fe316f000799f4cf4f4",
		"lat": 52.392946926098126,
		"lng": 4.640537129468235,
		"city": "Haarlem",
		"country": "Nederland",
		"categories": [
			"Home (private)"
		]
	},
	{
		"date": "2019-07-09T17:26:00.000Z",
		"name": "Albert Heijn",
		"id": "4b9a4b64f964a52066aa35e3",
		"lat": 52.38445463709139,
		"lng": 4.635787640721933,
		"address": "Kruisstraat 10",
		"postalCode": "2011 PX",
		"city": "Haarlem",
		"country": "Nederland",
		"categories": [
			"Supermarket"
		]
	},
	{
		"date": "2019-07-09T17:47:49.000Z",
		"name": "Stationsplein",
		"id": "4d9b27d55e52224b50293ce3",
		"lat": 52.387322505020094,
		"lng": 4.637520650266529,
		"address": "Jansweg 40",
		"city": "Haarlem",
		"country": "Nederland",
		"categories": [
			"Parking"
		]
	},
	{
		"date": "2019-07-10T17:18:08.000Z",
		"name": "Albert Heijn",
		"id": "4b9a4b64f964a52066aa35e3",
		"lat": 52.38445463709139,
		"lng": 4.635787640721933,
		"address": "Kruisstraat 10",
		"postalCode": "2011 PX",
		"city": "Haarlem",
		"country": "Nederland",
		"categories": [
			"Supermarket"
		]
	},
	{
		"date": "2019-07-11T17:43:03.000Z",
		"name": "Albert Heijn",
		"id": "4b9a4b64f964a52066aa35e3",
		"lat": 52.38445463709139,
		"lng": 4.635787640721933,
		"address": "Kruisstraat 10",
		"postalCode": "2011 PX",
		"city": "Haarlem",
		"country": "Nederland",
		"categories": [
			"Supermarket"
		]
	},
	{
		"date": "2019-07-12T09:42:08.000Z",
		"name": "Kamera Express",
		"id": "5be5ac9b5c68380039e77c2c",
		"lat": 52.37985,
		"lng": 4.636356,
		"address": "Anegang 32",
		"postalCode": "2011 HS",
		"city": "Haarlem",
		"country": "Nederland",
		"categories": [
			"Camera Store",
			"Photography Lab"
		]
	},
	{
		"date": "2019-07-12T09:50:15.000Z",
		"name": "SUBWAY",
		"id": "4e899f5e9a52f9bbd0e654b4",
		"lat": 52.382863727754575,
		"lng": 4.635100972590294,
		"address": "Krocht 12",
		"postalCode": "2011 PT",
		"city": "Haarlem",
		"country": "Nederland",
		"categories": [
			"Sandwich Place",
			"Fast Food Restaurant",
			"Restaurant"
		]
	},
	{
		"date": "2019-07-12T14:35:43.000Z",
		"name": "Station Haarlem",
		"id": "4a8c3036f964a5203a0d20e3",
		"lat": 52.38801057573046,
		"lng": 4.638713550666082,
		"address": "Stationsplein 11 L",
		"postalCode": "2011 LR",
		"city": "Haarlem",
		"country": "Nederland",
		"categories": [
			"Train Station"
		]
	},
	{
		"date": "2019-07-12T14:58:23.000Z",
		"name": "Amsterdam Central Railway Station (Station Amsterdam Centraal)",
		"id": "4a688ba1f964a52088ca1fe3",
		"lat": 52.37878224866535,
		"lng": 4.900374412536621,
		"address": "Stationsplein 15",
		"postalCode": "1012 AB",
		"city": "Amsterdam",
		"country": "Nederland",
		"categories": [
			"Train Station"
		]
	},
	{
		"date": "2019-07-12T15:20:21.000Z",
		"name": "Museumkwartier",
		"id": "51bc2aa0498e71fc1116f996",
		"lat": 52.35873579248823,
		"lng": 4.883803242646207,
		"city": "Amsterdam",
		"country": "Nederland",
		"categories": [
			"Neighborhood"
		]
	},
	{
		"date": "2019-07-12T15:31:31.000Z",
		"name": "Leica Store Amsterdam",
		"id": "59c52785d8096e53404810f3",
		"lat": 52.359537,
		"lng": 4.877369,
		"address": "Van Baerlestraat 16",
		"postalCode": "1071 AW",
		"city": "Amsterdam",
		"country": "Nederland",
		"categories": [
			"Camera Store",
			"Art Gallery"
		]
	},
	{
		"date": "2019-07-12T15:56:17.000Z",
		"name": "Leidsebrug (Brug 174)",
		"id": "4cb77c1990c9a143a3c477d6",
		"lat": 52.36319971173379,
		"lng": 4.881330144950214,
		"address": "Leidsegracht",
		"city": "Amsterdam",
		"country": "Nederland",
		"categories": [
			"Bridge"
		]
	},
	{
		"date": "2019-07-12T15:56:49.000Z",
		"name": "Leidseplein",
		"id": "4a47d9d4f964a5202faa1fe3",
		"lat": 52.36420906224259,
		"lng": 4.882840965291386,
		"address": "Leidseplein",
		"postalCode": "1017",
		"city": "Amsterdam",
		"country": "Nederland",
		"categories": [
			"Plaza"
		]
	},
	{
		"date": "2019-07-12T16:17:03.000Z",
		"name": "Salsa Shop",
		"id": "574f4d9c498efc56a240b8c2",
		"lat": 52.37958465946948,
		"lng": 4.900045992389015,
		"address": "Stationsplein",
		"postalCode": "1012 AB",
		"city": "Amsterdam",
		"country": "Nederland",
		"categories": [
			"Burrito Place"
		]
	},
	{
		"date": "2019-07-13T12:07:03.000Z",
		"name": "Albert Heijn",
		"id": "4b9a4b64f964a52066aa35e3",
		"lat": 52.38445463709139,
		"lng": 4.635787640721933,
		"address": "Kruisstraat 10",
		"postalCode": "2011 PX",
		"city": "Haarlem",
		"country": "Nederland",
		"categories": [
			"Supermarket"
		]
	},
	{
		"date": "2019-07-13T12:47:44.000Z",
		"name": "Marqt",
		"id": "4ae1d0e3f964a520aa8721e3",
		"lat": 52.3802600023814,
		"lng": 4.632357722477905,
		"address": "Gedempte Oude Gracht 66",
		"postalCode": "2011 TG",
		"city": "Haarlem",
		"country": "Nederland",
		"categories": [
			"Organic Grocery"
		]
	},
	{
		"date": "2019-07-13T13:35:47.000Z",
		"name": "Vomar Voordeelmarkt",
		"id": "4b72c969f964a52096882de3",
		"lat": 52.39127711020139,
		"lng": 4.649005288257338,
		"address": "Paul Krugerkade 22",
		"postalCode": "2021 BN",
		"city": "Haarlem",
		"country": "Nederland",
		"categories": [
			"Supermarket",
			"Grocery Store"
		]
	},
	{
		"date": "2019-07-15T08:59:08.000Z",
		"name": "ING Bank",
		"id": "4bbc2563e5b0d13a27fe6e7c",
		"lat": 52.37556882140811,
		"lng": 4.630967565374206,
		"address": "Houtplein 9",
		"postalCode": "2012 DD",
		"city": "Haarlem",
		"country": "Nederland",
		"categories": [
			"Bank"
		]
	},
	{
		"date": "2019-07-15T15:17:11.000Z",
		"name": "Cotton Candy Residence 10",
		"id": "58cd4fe316f000799f4cf4f4",
		"lat": 52.392946926098126,
		"lng": 4.640537129468235,
		"city": "Haarlem",
		"country": "Nederland",
		"categories": [
			"Home (private)"
		]
	},
	{
		"date": "2019-07-15T16:14:45.000Z",
		"name": "Albert Heijn",
		"id": "4b9a4b64f964a52066aa35e3",
		"lat": 52.38445463709139,
		"lng": 4.635787640721933,
		"address": "Kruisstraat 10",
		"postalCode": "2011 PX",
		"city": "Haarlem",
		"country": "Nederland",
		"categories": [
			"Supermarket"
		]
	},
	{
		"date": "2019-07-16T18:29:46.000Z",
		"name": "Albert Heijn",
		"id": "4b9a4b64f964a52066aa35e3",
		"lat": 52.38445463709139,
		"lng": 4.635787640721933,
		"address": "Kruisstraat 10",
		"postalCode": "2011 PX",
		"city": "Haarlem",
		"country": "Nederland",
		"categories": [
			"Supermarket"
		]
	},
	{
		"date": "2019-07-18T16:49:48.000Z",
		"name": "India Palace",
		"id": "4c5057673a6f2d7f60a06877",
		"lat": 52.38126838250037,
		"lng": 4.632222643743207,
		"address": "Gedempte Oude Gracht 29",
		"postalCode": "2011 GL",
		"city": "Haarlem",
		"country": "Nederland",
		"categories": [
			"Indian Restaurant"
		]
	},
	{
		"date": "2019-07-18T18:57:00.000Z",
		"name": "McDonald's",
		"id": "4cbf1ced021ca143a7c2590c",
		"lat": 52.379173,
		"lng": 4.633436999999958,
		"address": "Grote Houtstraat 75",
		"postalCode": "2011 SG",
		"city": "Haarlem",
		"country": "Nederland",
		"categories": [
			"Fast Food Restaurant",
			"Burger Joint"
		]
	},
	{
		"date": "2019-07-19T10:24:30.000Z",
		"name": "SUBWAY",
		"id": "4e899f5e9a52f9bbd0e654b4",
		"lat": 52.382863727754575,
		"lng": 4.635100972590294,
		"address": "Krocht 12",
		"postalCode": "2011 PT",
		"city": "Haarlem",
		"country": "Nederland",
		"categories": [
			"Sandwich Place",
			"Fast Food Restaurant",
			"Restaurant"
		]
	},
	{
		"date": "2019-07-19T14:31:49.000Z",
		"name": "Oude Groenmarkt",
		"id": "4e4a6094fa76a0c058cece75",
		"lat": 52.38072898364045,
		"lng": 4.63760107755661,
		"city": "Haarlem",
		"country": "Nederland",
		"categories": [
			"Plaza"
		]
	},
	{
		"date": "2019-07-19T14:44:30.000Z",
		"name": "Kinki kappers",
		"id": "4b978e2af964a5209d0835e3",
		"lat": 52.3790113620109,
		"lng": 4.636636460176722,
		"address": "Kleine Houtstraat",
		"city": "Haarlem",
		"country": "Nederland",
		"categories": [
			"Salon / Barbershop",
			"Cosmetics Shop"
		]
	},
	{
		"date": "2019-07-19T15:50:30.000Z",
		"name": "America Today",
		"id": "4bb5d8822ea195212dceaa2f",
		"lat": 52.38462493461905,
		"lng": 4.636135815009982,
		"address": "Kruisstraat 3-5",
		"postalCode": "2011 PV",
		"city": "Haarlem",
		"country": "Nederland",
		"categories": [
			"Clothing Store"
		]
	},
	{
		"date": "2019-07-19T18:49:56.000Z",
		"name": "Albert Heijn",
		"id": "4b9a4b64f964a52066aa35e3",
		"lat": 52.38445463709139,
		"lng": 4.635787640721933,
		"address": "Kruisstraat 10",
		"postalCode": "2011 PX",
		"city": "Haarlem",
		"country": "Nederland",
		"categories": [
			"Supermarket"
		]
	},
	{
		"date": "2019-07-20T08:36:15.000Z",
		"name": "SUBWAY",
		"id": "4e899f5e9a52f9bbd0e654b4",
		"lat": 52.382863727754575,
		"lng": 4.635100972590294,
		"address": "Krocht 12",
		"postalCode": "2011 PT",
		"city": "Haarlem",
		"country": "Nederland",
		"categories": [
			"Sandwich Place",
			"Fast Food Restaurant",
			"Restaurant"
		]
	},
	{
		"date": "2019-07-20T09:22:51.000Z",
		"name": "Albert Heijn to go",
		"id": "4b862ee0f964a520038231e3",
		"lat": 52.38851437453483,
		"lng": 4.639542485412089,
		"address": "Stationsplein 14",
		"postalCode": "2011 LR",
		"city": "Haarlem",
		"country": "Nederland",
		"categories": [
			"Convenience Store"
		]
	},
	{
		"date": "2019-07-20T12:07:27.000Z",
		"name": "Albert Heijn",
		"id": "4b9a4b64f964a52066aa35e3",
		"lat": 52.38445463709139,
		"lng": 4.635787640721933,
		"address": "Kruisstraat 10",
		"postalCode": "2011 PX",
		"city": "Haarlem",
		"country": "Nederland",
		"categories": [
			"Supermarket"
		]
	},
	{
		"date": "2019-07-20T17:43:31.000Z",
		"name": "Chocolaterie Pierre",
		"id": "599dd84f625a66012f54203e",
		"lat": 52.37958,
		"lng": 4.637172,
		"address": "Kleine Houtstraat 1",
		"postalCode": "2011 DD",
		"city": "Haarlem",
		"country": "Nederland",
		"categories": [
			"Chocolate Shop"
		]
	},
	{
		"date": "2019-07-20T18:14:53.000Z",
		"name": "Aan de (Nieuwe)Gracht",
		"id": "4dadb3a9fa8cf64d804e00af",
		"lat": 52.385038012286394,
		"lng": 4.638014586966368,
		"address": "Nieuwe Gracht",
		"postalCode": "2011NM",
		"city": "Haarlem",
		"country": "Nederland",
		"categories": [
			"Other Great Outdoors"
		]
	},
	{
		"date": "2019-07-20T18:26:26.000Z",
		"name": "Het Wachtlokaal",
		"id": "4b894492f964a520392732e3",
		"lat": 52.38751598680991,
		"lng": 4.637207637907902,
		"address": "Kruisweg 28",
		"postalCode": "2011 LC",
		"city": "Haarlem",
		"country": "Nederland",
		"categories": [
			"Café"
		]
	},
	{
		"date": "2019-07-21T08:36:55.000Z",
		"name": "Shell",
		"id": "4ba88dfaf964a520d2df39e3",
		"lat": 51.74425639,
		"lng": 4.91765094,
		"address": "A27",
		"postalCode": "4273 QQ",
		"city": "Hank",
		"country": "Nederland",
		"categories": [
			"Gas Station"
		]
	},
	{
		"date": "2019-07-21T09:25:39.000Z",
		"name": "Efteling",
		"id": "4a72b543f964a52041db1fe3",
		"lat": 51.64984217183291,
		"lng": 5.049397945404053,
		"address": "Europalaan 1",
		"postalCode": "5171 KW",
		"city": "Kaatsheuvel",
		"country": "Nederland",
		"categories": [
			"Theme Park"
		]
	},
	{
		"date": "2019-07-21T09:42:30.000Z",
		"name": "De Bazaar",
		"id": "4cb81bf290c9a14320c37cd6",
		"lat": 51.647246939491254,
		"lng": 5.045933380758207,
		"address": "Anderrijk",
		"postalCode": "5171 KW",
		"city": "Kaatsheuvel",
		"country": "Nederland",
		"categories": [
			"Gift Shop"
		]
	},
	{
		"date": "2019-07-21T09:55:55.000Z",
		"name": "Piraña",
		"id": "4bc089d7f8219c74d3acb110",
		"lat": 51.64717154184207,
		"lng": 5.048933885918814,
		"address": "Anderrijk",
		"postalCode": "5171 KW",
		"city": "Kaatsheuvel",
		"country": "Nederland",
		"categories": [
			"Theme Park Ride / Attraction"
		]
	},
	{
		"date": "2019-07-21T10:38:46.000Z",
		"name": "De Verleiding",
		"id": "553b5a71498e0272efd3982a",
		"lat": 51.64828665812472,
		"lng": 5.052327967552167,
		"address": "Europalaan 1",
		"postalCode": "5171 KW",
		"city": "Kaatsheuvel",
		"country": "Nederland",
		"categories": [
			"Candy Store"
		]
	},
	{
		"date": "2019-07-21T11:53:18.000Z",
		"name": "'t Melkhuysje",
		"id": "55941f63498e860a8b77562f",
		"lat": 51.64806473802349,
		"lng": 5.050327013142632,
		"address": "Europalaan 1",
		"postalCode": "5171 KW",
		"city": "Kaatsheuvel",
		"country": "Nederland",
		"categories": [
			"Pizza Place"
		]
	},
	{
		"date": "2019-07-21T12:50:47.000Z",
		"name": "The Flying Dutchman (De Vliegende Hollander)",
		"id": "4bc1a523abf495214e54c193",
		"lat": 51.64759270267822,
		"lng": 5.052390821628113,
		"address": "Ruigrijk",
		"postalCode": "5171 KW",
		"city": "Kaatsheuvel",
		"country": "Nederland",
		"categories": [
			"Theme Park Ride / Attraction"
		]
	},
	{
		"date": "2019-07-21T13:50:10.000Z",
		"name": "D'Oude Tuffer",
		"id": "4bf9160f8d30d13a46ac0118",
		"lat": 51.64886048420162,
		"lng": 5.053759437865355,
		"address": "Ruigrijk",
		"postalCode": "5171 KW",
		"city": "Kaatsheuvel",
		"country": "Nederland",
		"categories": [
			"Theme Park Ride / Attraction"
		]
	},
	{
		"date": "2019-07-21T14:28:17.000Z",
		"name": "Pagode",
		"id": "4be3f11ed27a20a19e4c935b",
		"lat": 51.65053883974131,
		"lng": 5.050618647540286,
		"address": "Reizenrijk",
		"postalCode": "5171 KW",
		"city": "Kaatsheuvel",
		"country": "Nederland",
		"categories": [
			"Theme Park Ride / Attraction"
		]
	},
	{
		"date": "2019-07-21T16:53:19.000Z",
		"name": "Herautenplein",
		"id": "4e2d5dfc8877b69d49f35056",
		"lat": 51.65069747299098,
		"lng": 5.045708684472384,
		"address": "Marerijk",
		"postalCode": "5171 KW",
		"city": "Kaatsheuvel",
		"country": "Nederland",
		"categories": [
			"Plaza"
		]
	},
	{
		"date": "2019-07-21T19:25:40.000Z",
		"name": "McDonald's",
		"id": "4b9be612f964a520303336e3",
		"lat": 51.899368196975104,
		"lng": 4.981154333475456,
		"address": "Energieweg 118",
		"postalCode": "4231 DJ",
		"city": "Meerkerk",
		"country": "Nederland",
		"categories": [
			"Fast Food Restaurant",
			"Burger Joint"
		]
	},
	{
		"date": "2019-07-22T10:08:37.000Z",
		"name": "Kamera Express",
		"id": "5be5ac9b5c68380039e77c2c",
		"lat": 52.37985,
		"lng": 4.636356,
		"address": "Anegang 32",
		"postalCode": "2011 HS",
		"city": "Haarlem",
		"country": "Nederland",
		"categories": [
			"Camera Store",
			"Photography Lab"
		]
	},
	{
		"date": "2019-07-22T16:57:19.000Z",
		"name": "Ahoi 19",
		"id": "55be3973498ed67b7686b997",
		"lat": 52.37810288547604,
		"lng": 4.5277368594839205,
		"country": "Nederland",
		"categories": [
			"Café"
		]
	},
	{
		"date": "2019-07-22T19:18:41.000Z",
		"name": "Station Zandvoort aan Zee",
		"id": "4b235a53f964a5205c5524e3",
		"lat": 52.3757860855875,
		"lng": 4.531738906725922,
		"address": "Stationsplein 6",
		"postalCode": "2041AB",
		"city": "Zandvoort",
		"country": "Nederland",
		"categories": [
			"Train Station"
		]
	},
	{
		"date": "2019-07-24T16:16:21.000Z",
		"name": "Albert Heijn",
		"id": "4b9a4b64f964a52066aa35e3",
		"lat": 52.38445463709139,
		"lng": 4.635787640721933,
		"address": "Kruisstraat 10",
		"postalCode": "2011 PX",
		"city": "Haarlem",
		"country": "Nederland",
		"categories": [
			"Supermarket"
		]
	},
	{
		"date": "2019-07-26T13:35:23.000Z",
		"name": "Kamera Express",
		"id": "5be5ac9b5c68380039e77c2c",
		"lat": 52.37985,
		"lng": 4.636356,
		"address": "Anegang 32",
		"postalCode": "2011 HS",
		"city": "Haarlem",
		"country": "Nederland",
		"categories": [
			"Camera Store",
			"Photography Lab"
		]
	},
	{
		"date": "2019-07-26T17:33:10.000Z",
		"name": "Parnassia aan Zee",
		"id": "4c00db479cf52d7f106914e7",
		"lat": 52.41837270860607,
		"lng": 4.554015268505989,
		"address": "Parnassiaweg 1",
		"postalCode": "2051 EA",
		"city": "Overveen",
		"country": "Nederland",
		"categories": [
			"Beach",
			"Café"
		]
	},
	{
		"date": "2019-07-26T18:31:55.000Z",
		"name": "Parnassia Strandtent",
		"id": "4b69836ef964a5205da52be3",
		"lat": 52.41835165990014,
		"lng": 4.554030992397868,
		"address": "Zeeweg",
		"postalCode": "2051 EA",
		"city": "Bloemendaal",
		"country": "Nederland",
		"categories": [
			"Bar",
			"Café"
		]
	},
	{
		"date": "2019-07-27T10:10:47.000Z",
		"name": "Station Haarlem",
		"id": "4a8c3036f964a5203a0d20e3",
		"lat": 52.38801057573046,
		"lng": 4.638713550666082,
		"address": "Stationsplein 11 L",
		"postalCode": "2011 LR",
		"city": "Haarlem",
		"country": "Nederland",
		"categories": [
			"Train Station"
		]
	},
	{
		"date": "2019-07-27T11:18:31.000Z",
		"name": "Rotterdam Central Station (Station Rotterdam Centraal)",
		"id": "4ae19cc4f964a520678621e3",
		"lat": 51.92536602394011,
		"lng": 4.469021675569301,
		"address": "Stationssingel 10",
		"postalCode": "3013 HA",
		"city": "Rotterdam",
		"country": "Nederland",
		"categories": [
			"Train Station"
		]
	},
	{
		"date": "2019-07-27T11:21:40.000Z",
		"name": "Spoor 15",
		"id": "4c60e171de6920a106289764",
		"lat": 51.925541966742095,
		"lng": 4.468420476074039,
		"address": "Station Rotterdam Centraal",
		"postalCode": "3013 HA",
		"city": "Rotterdam",
		"country": "Nederland",
		"categories": [
			"Platform"
		]
	},
	{
		"date": "2019-07-27T11:40:56.000Z",
		"name": "Station Capelle Schollevaar",
		"id": "4b5da5b6f964a520f96429e3",
		"lat": 51.95420348837987,
		"lng": 4.583949112686097,
		"address": "Stationsplein 1",
		"postalCode": "2907MJ",
		"city": "Capelle a/d IJssel",
		"country": "Nederland",
		"categories": [
			"Train Station"
		]
	},
	{
		"date": "2019-07-27T11:49:51.000Z",
		"name": "Kamera Express",
		"id": "4b39d563f964a520335f25e3",
		"lat": 51.95806953066977,
		"lng": 4.576963097179114,
		"address": "Rietbaan 5",
		"postalCode": "2908 LP",
		"city": "Capelle a/d IJssel",
		"country": "Nederland",
		"categories": [
			"Camera Store"
		]
	},
	{
		"date": "2019-07-27T12:13:31.000Z",
		"name": "Station Capelle Schollevaar",
		"id": "4b5da5b6f964a520f96429e3",
		"lat": 51.95420348837987,
		"lng": 4.583949112686097,
		"address": "Stationsplein 1",
		"postalCode": "2907MJ",
		"city": "Capelle a/d IJssel",
		"country": "Nederland",
		"categories": [
			"Train Station"
		]
	},
	{
		"date": "2019-07-27T12:33:52.000Z",
		"name": "Spoor 15",
		"id": "4c60e171de6920a106289764",
		"lat": 51.925541966742095,
		"lng": 4.468420476074039,
		"address": "Station Rotterdam Centraal",
		"postalCode": "3013 HA",
		"city": "Rotterdam",
		"country": "Nederland",
		"categories": [
			"Platform"
		]
	},
	{
		"date": "2019-07-27T12:34:05.000Z",
		"name": "Rotterdam Central Station (Station Rotterdam Centraal)",
		"id": "4ae19cc4f964a520678621e3",
		"lat": 51.92536602394011,
		"lng": 4.469021675569301,
		"address": "Stationssingel 10",
		"postalCode": "3013 HA",
		"city": "Rotterdam",
		"country": "Nederland",
		"categories": [
			"Train Station"
		]
	},
	{
		"date": "2019-07-27T12:40:50.000Z",
		"name": "Leon",
		"id": "5bc78144bcbf7a0039da66ca",
		"lat": 51.925595,
		"lng": 4.469012,
		"postalCode": "3013 AJ",
		"city": "Rotterdam",
		"country": "Nederland",
		"categories": [
			"Fast Food Restaurant"
		]
	},
	{
		"date": "2019-07-27T12:53:33.000Z",
		"name": "Spoor 9",
		"id": "4bee92bdd355a5937a020b60",
		"lat": 51.92520598289894,
		"lng": 4.469084525764355,
		"address": "Station Rotterdam Centraal",
		"city": "Rotterdam",
		"country": "Nederland",
		"categories": [
			"Platform"
		]
	},
	{
		"date": "2019-07-27T13:31:51.000Z",
		"name": "Leiden Central Railway station (Station Leiden Centraal)",
		"id": "4ad44a63f964a5208be720e3",
		"lat": 52.166069721919676,
		"lng": 4.482098314771528,
		"address": "Stationsplein 3G",
		"postalCode": "2312 AJ",
		"city": "Leiden",
		"country": "Nederland",
		"categories": [
			"Train Station"
		]
	},
	{
		"date": "2019-07-27T13:32:27.000Z",
		"name": "Spoor 4/5",
		"id": "4d85be7a61676dcbeb0b91e4",
		"lat": 52.16591145610918,
		"lng": 4.481851280477542,
		"address": "Station Leiden Centraal",
		"city": "Leiden",
		"country": "Nederland",
		"categories": [
			"Platform"
		]
	},
	{
		"date": "2019-07-28T17:47:48.000Z",
		"name": "Flamboyant",
		"id": "4bacffebf964a520f2223be3",
		"lat": 52.379538217762395,
		"lng": 4.6371162372979935,
		"address": "Kleine Houtstraat 3-ZW",
		"postalCode": "2011 DD",
		"city": "Haarlem",
		"country": "Nederland",
		"categories": [
			"Indonesian Restaurant"
		]
	},
	{
		"date": "2019-07-28T19:51:55.000Z",
		"name": "Station Haarlem",
		"id": "4a8c3036f964a5203a0d20e3",
		"lat": 52.38801057573046,
		"lng": 4.638713550666082,
		"address": "Stationsplein 11 L",
		"postalCode": "2011 LR",
		"city": "Haarlem",
		"country": "Nederland",
		"categories": [
			"Train Station"
		]
	},
	{
		"date": "2019-07-30T17:54:55.000Z",
		"name": "Charlie's",
		"id": "569e9255498eadfa439e84d0",
		"lat": 52.379872,
		"lng": 4.631469,
		"country": "Nederland",
		"categories": [
			"Hookah Bar"
		]
	},
	{
		"date": "2019-07-30T20:25:12.000Z",
		"name": "Brasserie van Beinum",
		"id": "4ad8bd23f964a520321421e3",
		"lat": 52.38113167530144,
		"lng": 4.638326765349595,
		"address": "Klokhuisplein 3",
		"postalCode": "2011 HK",
		"city": "Haarlem",
		"country": "Nederland",
		"categories": [
			"Brasserie"
		]
	},
	{
		"date": "2019-07-31T17:33:57.000Z",
		"name": "Albert Heijn",
		"id": "4b9a4b64f964a52066aa35e3",
		"lat": 52.38445463709139,
		"lng": 4.635787640721933,
		"address": "Kruisstraat 10",
		"postalCode": "2011 PX",
		"city": "Haarlem",
		"country": "Nederland",
		"categories": [
			"Supermarket"
		]
	}
]