[
	{
		"date": "2019-10-01T10:23:01.000Z",
		"name": "Cotton Candy Residence 10",
		"id": "58cd4fe316f000799f4cf4f4",
		"lat": 52.392946926098126,
		"lng": 4.640537129468235,
		"city": "Haarlem",
		"country": "Nederland",
		"categories": [
			"Home (private)"
		]
	},
	{
		"date": "2019-10-02T13:57:29.000Z",
		"name": "ING Bank",
		"id": "4bbc2563e5b0d13a27fe6e7c",
		"lat": 52.37556882140811,
		"lng": 4.630967565374206,
		"address": "Houtplein 9",
		"postalCode": "2012 DD",
		"city": "Haarlem",
		"country": "Nederland",
		"categories": [
			"Bank"
		]
	},
	{
		"date": "2019-10-02T15:58:45.000Z",
		"name": "Albert Heijn to go",
		"id": "4b862ee0f964a520038231e3",
		"lat": 52.38851437453483,
		"lng": 4.639542485412089,
		"address": "Stationsplein 14",
		"postalCode": "2011 LR",
		"city": "Haarlem",
		"country": "Nederland",
		"categories": [
			"Convenience Store"
		]
	},
	{
		"date": "2019-10-05T08:38:46.000Z",
		"name": "Albert Heijn",
		"id": "4b9a4b64f964a52066aa35e3",
		"lat": 52.38445463709139,
		"lng": 4.635787640721933,
		"address": "Kruisstraat 10",
		"postalCode": "2011 PX",
		"city": "Haarlem",
		"country": "Nederland",
		"categories": [
			"Supermarket"
		]
	},
	{
		"date": "2019-10-06T11:39:39.000Z",
		"name": "Aan de (Nieuwe)Gracht",
		"id": "4dadb3a9fa8cf64d804e00af",
		"lat": 52.385038012286394,
		"lng": 4.638014586966368,
		"address": "Nieuwe Gracht",
		"postalCode": "2011NM",
		"city": "Haarlem",
		"country": "Nederland",
		"categories": [
			"Other Great Outdoors"
		]
	},
	{
		"date": "2019-10-06T11:46:29.000Z",
		"name": "Albert Heijn",
		"id": "4b9a4b64f964a52066aa35e3",
		"lat": 52.38445463709139,
		"lng": 4.635787640721933,
		"address": "Kruisstraat 10",
		"postalCode": "2011 PX",
		"city": "Haarlem",
		"country": "Nederland",
		"categories": [
			"Supermarket"
		]
	},
	{
		"date": "2019-10-06T16:05:55.000Z",
		"name": "Station Haarlem",
		"id": "4a8c3036f964a5203a0d20e3",
		"lat": 52.38801057573046,
		"lng": 4.638713550666082,
		"address": "Stationsplein 11 L",
		"postalCode": "2011 LR",
		"city": "Haarlem",
		"country": "Nederland",
		"categories": [
			"Train Station"
		]
	},
	{
		"date": "2019-10-06T16:25:24.000Z",
		"name": "Amsterdam Sloterdijk Station (Station Amsterdam Sloterdijk)",
		"id": "4a56245ff964a52085b41fe3",
		"lat": 52.38899431620469,
		"lng": 4.837957990409058,
		"address": "Orlyplein 105",
		"postalCode": "1043 DT",
		"city": "Amsterdam",
		"country": "Nederland",
		"categories": [
			"Train Station"
		]
	},
	{
		"date": "2019-10-06T16:54:55.000Z",
		"name": "Lalibela",
		"id": "4a270890f964a5201a911fe3",
		"lat": 52.36104759300509,
		"lng": 4.865448216006593,
		"address": "Eerste Helmersstraat 249HS",
		"postalCode": "1054 DX",
		"city": "Amsterdam",
		"country": "Nederland",
		"categories": [
			"Ethiopian Restaurant"
		]
	},
	{
		"date": "2019-10-07T16:35:42.000Z",
		"name": "Albert Heijn",
		"id": "4b9a4b64f964a52066aa35e3",
		"lat": 52.38445463709139,
		"lng": 4.635787640721933,
		"address": "Kruisstraat 10",
		"postalCode": "2011 PX",
		"city": "Haarlem",
		"country": "Nederland",
		"categories": [
			"Supermarket"
		]
	},
	{
		"date": "2019-10-08T16:51:16.000Z",
		"name": "Albert Heijn",
		"id": "4b9a4b64f964a52066aa35e3",
		"lat": 52.38445463709139,
		"lng": 4.635787640721933,
		"address": "Kruisstraat 10",
		"postalCode": "2011 PX",
		"city": "Haarlem",
		"country": "Nederland",
		"categories": [
			"Supermarket"
		]
	},
	{
		"date": "2019-10-09T10:48:45.000Z",
		"name": "Domino's Pizza Haarlem 3 - Station",
		"id": "5c266634b9b37b002cd9d5fb",
		"lat": 52.3884359,
		"lng": 4.6393777,
		"address": "Kennemerplein 12",
		"postalCode": "2011 MJ",
		"city": "Haarlem",
		"country": "Nederland",
		"categories": [
			"Pizza Place",
			"Restaurant"
		]
	},
	{
		"date": "2019-10-09T12:36:02.000Z",
		"name": "Cotton Candy Residence 10",
		"id": "58cd4fe316f000799f4cf4f4",
		"lat": 52.392946926098126,
		"lng": 4.640537129468235,
		"city": "Haarlem",
		"country": "Nederland",
		"categories": [
			"Home (private)"
		]
	},
	{
		"date": "2019-10-09T17:24:14.000Z",
		"name": "Albert Heijn",
		"id": "4b9a4b64f964a52066aa35e3",
		"lat": 52.38445463709139,
		"lng": 4.635787640721933,
		"address": "Kruisstraat 10",
		"postalCode": "2011 PX",
		"city": "Haarlem",
		"country": "Nederland",
		"categories": [
			"Supermarket"
		]
	},
	{
		"date": "2019-10-10T18:18:32.000Z",
		"name": "Ramen Brothers Noodle Bar",
		"id": "5b4e2b63a42362002c42fc59",
		"lat": 52.384228,
		"lng": 4.6355,
		"address": "Nassaustraat 13",
		"postalCode": "2011 PH",
		"city": "Haarlem",
		"country": "Nederland",
		"categories": [
			"Noodle House"
		]
	},
	{
		"date": "2019-10-10T19:13:42.000Z",
		"name": "Cotton Candy Residence 10",
		"id": "58cd4fe316f000799f4cf4f4",
		"lat": 52.392946926098126,
		"lng": 4.640537129468235,
		"city": "Haarlem",
		"country": "Nederland",
		"categories": [
			"Home (private)"
		]
	},
	{
		"date": "2019-10-11T16:15:14.000Z",
		"name": "Station Haarlem",
		"id": "4a8c3036f964a5203a0d20e3",
		"lat": 52.38801057573046,
		"lng": 4.638713550666082,
		"address": "Stationsplein 11 L",
		"postalCode": "2011 LR",
		"city": "Haarlem",
		"country": "Nederland",
		"categories": [
			"Train Station"
		]
	},
	{
		"date": "2019-10-11T16:32:21.000Z",
		"name": "Amsterdam Sloterdijk Station (Station Amsterdam Sloterdijk)",
		"id": "4a56245ff964a52085b41fe3",
		"lat": 52.38899431620469,
		"lng": 4.837957990409058,
		"address": "Orlyplein 105",
		"postalCode": "1043 DT",
		"city": "Amsterdam",
		"country": "Nederland",
		"categories": [
			"Train Station"
		]
	},
	{
		"date": "2019-10-11T16:45:35.000Z",
		"name": "Station Amsterdam Lelylaan",
		"id": "4a5623d8f964a52082b41fe3",
		"lat": 52.3576430497755,
		"lng": 4.834193002208261,
		"address": "Cornelis Lelylaan 35",
		"postalCode": "1062 AD",
		"city": "Amsterdam",
		"country": "Nederland",
		"categories": [
			"Train Station"
		]
	},
	{
		"date": "2019-10-11T16:48:08.000Z",
		"name": "Tramhalte Station Lelylaan",
		"id": "4d5419e4bdbea1cdeb37e392",
		"lat": 52.35785291349149,
		"lng": 4.834460632711669,
		"address": "Cornelis Lelylaan 37",
		"city": "Amsterdam",
		"country": "Nederland",
		"categories": [
			"Tram Station"
		]
	},
	{
		"date": "2019-10-11T19:02:18.000Z",
		"name": "Abyssinia Afrikaans Eetcafe",
		"id": "4a27005bf964a52030831fe3",
		"lat": 52.36047107099556,
		"lng": 4.865475138383872,
		"address": "Jan Pieter Heijestraat 190HS",
		"postalCode": "1054 MN",
		"city": "Amsterdam",
		"country": "Nederland",
		"categories": [
			"Ethiopian Restaurant",
			"African Restaurant"
		]
	},
	{
		"date": "2019-10-11T20:01:33.000Z",
		"name": "Plan B",
		"id": "4b71ac86f964a5203e552de3",
		"lat": 52.360921572544086,
		"lng": 4.870144860688213,
		"address": "Overtoom 209",
		"postalCode": "1054 HT",
		"city": "Amsterdam",
		"country": "Nederland",
		"categories": [
			"Pool Hall",
			"Sports Bar"
		]
	},
	{
		"date": "2019-10-11T20:10:15.000Z",
		"name": "Gollem's Proeflokaal",
		"id": "4a26ff5bf964a520407f1fe3",
		"lat": 52.362205713069194,
		"lng": 4.873079719694746,
		"address": "Overtoom 160-162",
		"postalCode": "1054 HP",
		"city": "Amsterdam",
		"country": "Nederland",
		"categories": [
			"Bar",
			"Café",
			"Beer Garden"
		]
	},
	{
		"date": "2019-10-12T10:00:49.000Z",
		"name": "Lukx",
		"id": "4da6c6341e725f1229741168",
		"lat": 52.38080105849728,
		"lng": 4.636287000757343,
		"address": "Spekstraat 2",
		"city": "Haarlem",
		"country": "Nederland",
		"categories": [
			"Optical Shop"
		]
	},
	{
		"date": "2019-10-12T10:44:05.000Z",
		"name": "Grote Markt",
		"id": "4b33f1aef964a520842225e3",
		"lat": 52.381433191163424,
		"lng": 4.6357020650218494,
		"address": "Grote Markt",
		"postalCode": "2011",
		"city": "Haarlem",
		"country": "Nederland",
		"categories": [
			"Plaza",
			"Event Space"
		]
	},
	{
		"date": "2019-10-13T17:28:22.000Z",
		"name": "Albert Heijn",
		"id": "4b9a4b64f964a52066aa35e3",
		"lat": 52.38445463709139,
		"lng": 4.635787640721933,
		"address": "Kruisstraat 10",
		"postalCode": "2011 PX",
		"city": "Haarlem",
		"country": "Nederland",
		"categories": [
			"Supermarket"
		]
	},
	{
		"date": "2019-10-14T17:36:21.000Z",
		"name": "Albert Heijn",
		"id": "4b9a4b64f964a52066aa35e3",
		"lat": 52.38445463709139,
		"lng": 4.635787640721933,
		"address": "Kruisstraat 10",
		"postalCode": "2011 PX",
		"city": "Haarlem",
		"country": "Nederland",
		"categories": [
			"Supermarket"
		]
	},
	{
		"date": "2019-10-15T19:22:13.000Z",
		"name": "Pathé Haarlem - Zaal 6",
		"id": "59ac3109d8fe7a0d131046a4",
		"lat": 52.381668,
		"lng": 4.629689,
		"address": "Zijlvest 41-43",
		"postalCode": "2011 VB",
		"city": "Haarlem",
		"country": "Nederland",
		"categories": [
			"Multiplex"
		]
	},
	{
		"date": "2019-10-17T17:09:01.000Z",
		"name": "Karwei",
		"id": "4b5b027ff964a520a9de28e3",
		"lat": 52.39005961436961,
		"lng": 4.626503810720334,
		"address": "Verspronckweg 63",
		"city": "Haarlem",
		"country": "Nederland",
		"categories": [
			"Hardware Store"
		]
	},
	{
		"date": "2019-10-18T15:40:25.000Z",
		"name": "Station Haarlem",
		"id": "4a8c3036f964a5203a0d20e3",
		"lat": 52.38801057573046,
		"lng": 4.638713550666082,
		"address": "Stationsplein 11 L",
		"postalCode": "2011 LR",
		"city": "Haarlem",
		"country": "Nederland",
		"categories": [
			"Train Station"
		]
	},
	{
		"date": "2019-10-18T15:50:19.000Z",
		"name": "Amsterdam Sloterdijk Station (Station Amsterdam Sloterdijk)",
		"id": "4a56245ff964a52085b41fe3",
		"lat": 52.38899431620469,
		"lng": 4.837957990409058,
		"address": "Orlyplein 105",
		"postalCode": "1043 DT",
		"city": "Amsterdam",
		"country": "Nederland",
		"categories": [
			"Train Station"
		]
	},
	{
		"date": "2019-10-18T16:16:31.000Z",
		"name": "Marmaris Grill & Pizza",
		"id": "5a847611b9a5a81dc7a625f7",
		"lat": 52.388104915528814,
		"lng": 4.837224520943182,
		"address": "Orlyplein 159",
		"postalCode": "1043 DV",
		"city": "Amsterdam",
		"country": "Nederland",
		"categories": [
			"Pizza Place"
		]
	},
	{
		"date": "2019-10-18T19:15:13.000Z",
		"name": "Groningen",
		"id": "4d30517b5f806dcb81f217ac",
		"lat": 53.219422079498706,
		"lng": 6.567935943603516,
		"country": "Nederland",
		"categories": [
			"City"
		]
	},
	{
		"date": "2019-10-18T19:34:56.000Z",
		"name": "Miss Blanche",
		"id": "4f35622de4b03ada5a6e79b7",
		"lat": 53.21667651366004,
		"lng": 6.5598524435154175,
		"address": "Hoge der A 4",
		"city": "Groningen",
		"country": "Nederland",
		"categories": [
			"Hotel",
			"Coffee Shop",
			"Bed & Breakfast"
		]
	},
	{
		"date": "2019-10-19T08:01:14.000Z",
		"name": "Bakkerij Blanche",
		"id": "5566492b498e3a0847de1ac4",
		"lat": 53.216517,
		"lng": 6.55991,
		"address": "Brugstraat 28",
		"postalCode": "9711 HZ",
		"city": "Groningen",
		"country": "Nederland",
		"categories": [
			"Bakery",
			"Café"
		]
	},
	{
		"date": "2019-10-19T10:26:51.000Z",
		"name": "Groningen Railway Station (Station Groningen)",
		"id": "4a6cce14f964a520b4d11fe3",
		"lat": 53.210843506953296,
		"lng": 6.565852878849464,
		"address": "Stationsplein 26",
		"postalCode": "9726 AE",
		"city": "Groningen",
		"country": "Nederland",
		"categories": [
			"Train Station"
		]
	},
	{
		"date": "2019-10-19T11:31:05.000Z",
		"name": "Station Eemshaven",
		"id": "5abb6f80cad1b651e7c36b05",
		"lat": 53.45873,
		"lng": 6.829964,
		"address": "Borkumkade 5",
		"postalCode": "9979XX",
		"city": "Eemshaven",
		"country": "Nederland",
		"categories": [
			"Train Station"
		]
	},
	{
		"date": "2019-10-19T11:49:27.000Z",
		"name": "Veerboot Eemshaven-Borkum",
		"id": "4c4a8ced9c8d2d7fbd1bb269",
		"lat": 53.45667170979227,
		"lng": 6.832034863353447,
		"address": "Borkumkade 1",
		"city": "Eemshaven",
		"country": "Nederland",
		"categories": [
			"Boat or Ferry"
		]
	},
	{
		"date": "2019-10-19T12:49:46.000Z",
		"name": "Hafen Reede",
		"id": "4db568f793a017099dea8afd",
		"lat": 53.56358022169605,
		"lng": 6.757113432491507,
		"city": "Borkum",
		"country": "Deutschland",
		"categories": [
			"Harbor / Marina"
		]
	},
	{
		"date": "2019-10-19T12:50:10.000Z",
		"name": "Inselbahn Borkum Reede",
		"id": "4e5a3607091a1023bdfe5cb3",
		"lat": 53.56352781082187,
		"lng": 6.756924287255318,
		"address": "Reedestr.",
		"postalCode": "26757",
		"city": "Borkum",
		"country": "Deutschland",
		"categories": [
			"Light Rail Station"
		]
	},
	{
		"date": "2019-10-19T13:17:12.000Z",
		"name": "H Bahnhof",
		"id": "4e5cb63252b1421c1fc35a55",
		"lat": 53.58769042336928,
		"lng": 6.663281034344009,
		"city": "Borkum",
		"country": "Deutschland",
		"categories": [
			"Train Station"
		]
	},
	{
		"date": "2019-10-19T13:46:06.000Z",
		"name": "Neuer Leuchtturm",
		"id": "4db48cc0a86e8d270787477e",
		"lat": 53.58819001632285,
		"lng": 6.6621017804227876,
		"city": "Borkum",
		"country": "Deutschland",
		"categories": [
			"Lighthouse"
		]
	},
	{
		"date": "2019-10-19T14:29:22.000Z",
		"name": "Elektrischer Leuchtturm",
		"id": "4db2fcf4fa8c350240c24a87",
		"lat": 53.57870029708332,
		"lng": 6.66696310043335,
		"city": "Borkum",
		"country": "Deutschland",
		"categories": [
			"Lighthouse"
		]
	},
	{
		"date": "2019-10-19T14:29:35.000Z",
		"name": "Restaurant Südhauk",
		"id": "599b0df4419a9e32cdaef1b0",
		"lat": 53.58098,
		"lng": 6.667349,
		"address": "Süderstrasse 69",
		"postalCode": "26757",
		"city": "Borkum",
		"country": "Deutschland",
		"categories": [
			"Restaurant"
		]
	},
	{
		"date": "2019-10-19T15:46:04.000Z",
		"name": "Haltestelle Jakob-van-Dyken Weg",
		"id": "55e5b70e498ebe456bfae26b",
		"lat": 53.579391,
		"lng": 6.68305,
		"country": "Deutschland",
		"categories": [
			"Light Rail Station"
		]
	},
	{
		"date": "2019-10-19T15:59:42.000Z",
		"name": "Inselbahn Borkum Reede",
		"id": "4e5a3607091a1023bdfe5cb3",
		"lat": 53.56352781082187,
		"lng": 6.756924287255318,
		"address": "Reedestr.",
		"postalCode": "26757",
		"city": "Borkum",
		"country": "Deutschland",
		"categories": [
			"Light Rail Station"
		]
	},
	{
		"date": "2019-10-19T16:00:04.000Z",
		"name": "Hafen Reede",
		"id": "4db568f793a017099dea8afd",
		"lat": 53.56358022169605,
		"lng": 6.757113432491507,
		"city": "Borkum",
		"country": "Deutschland",
		"categories": [
			"Harbor / Marina"
		]
	},
	{
		"date": "2019-10-19T17:01:29.000Z",
		"name": "Eemshaven",
		"id": "4bac9810f964a5201ffd3ae3",
		"lat": 53.45498316542059,
		"lng": 6.821282025299331,
		"address": "Westlob",
		"city": "Eemshaven",
		"country": "Nederland",
		"categories": [
			"Harbor / Marina"
		]
	},
	{
		"date": "2019-10-19T18:13:16.000Z",
		"name": "Groningen Railway Station (Station Groningen)",
		"id": "4a6cce14f964a520b4d11fe3",
		"lat": 53.210843506953296,
		"lng": 6.565852878849464,
		"address": "Stationsplein 26",
		"postalCode": "9726 AE",
		"city": "Groningen",
		"country": "Nederland",
		"categories": [
			"Train Station"
		]
	},
	{
		"date": "2019-10-19T18:18:03.000Z",
		"name": "Groningen",
		"id": "4d30517b5f806dcb81f217ac",
		"lat": 53.219422079498706,
		"lng": 6.567935943603516,
		"country": "Nederland",
		"categories": [
			"City"
		]
	},
	{
		"date": "2019-10-19T18:33:31.000Z",
		"name": "Tekinev",
		"id": "527e73c311d2a63967af932b",
		"lat": 53.217484,
		"lng": 6.5685043,
		"address": "Gelkingestraat 24",
		"postalCode": "9711 NC",
		"city": "Groningen",
		"country": "Nederland",
		"categories": [
			"Turkish Restaurant"
		]
	},
	{
		"date": "2019-10-19T20:20:31.000Z",
		"name": "Miss Blanche",
		"id": "4f35622de4b03ada5a6e79b7",
		"lat": 53.21667651366004,
		"lng": 6.5598524435154175,
		"address": "Hoge der A 4",
		"city": "Groningen",
		"country": "Nederland",
		"categories": [
			"Hotel",
			"Coffee Shop",
			"Bed & Breakfast"
		]
	},
	{
		"date": "2019-10-20T09:03:58.000Z",
		"name": "Croissanterie Pigalle",
		"id": "4c515c1c3940be9a4aafb708",
		"lat": 53.21761692354348,
		"lng": 6.563481896624966,
		"address": "Stoeldraaierstraat 17",
		"postalCode": "9712 BT",
		"city": "Groningen",
		"country": "Nederland",
		"categories": [
			"Bakery",
			"Sandwich Place"
		]
	},
	{
		"date": "2019-10-20T09:58:36.000Z",
		"name": "Groningen Railway Station (Station Groningen)",
		"id": "4a6cce14f964a520b4d11fe3",
		"lat": 53.210843506953296,
		"lng": 6.565852878849464,
		"address": "Stationsplein 26",
		"postalCode": "9726 AE",
		"city": "Groningen",
		"country": "Nederland",
		"categories": [
			"Train Station"
		]
	},
	{
		"date": "2019-10-20T10:15:52.000Z",
		"name": "Groningen Railway Station (Station Groningen)",
		"id": "4a6cce14f964a520b4d11fe3",
		"lat": 53.210843506953296,
		"lng": 6.565852878849464,
		"address": "Stationsplein 26",
		"postalCode": "9726 AE",
		"city": "Groningen",
		"country": "Nederland",
		"categories": [
			"Train Station"
		]
	},
	{
		"date": "2019-10-20T12:40:02.000Z",
		"name": "Amsterdam Sloterdijk Station (Station Amsterdam Sloterdijk)",
		"id": "4a56245ff964a52085b41fe3",
		"lat": 52.38899431620469,
		"lng": 4.837957990409058,
		"address": "Orlyplein 105",
		"postalCode": "1043 DT",
		"city": "Amsterdam",
		"country": "Nederland",
		"categories": [
			"Train Station"
		]
	},
	{
		"date": "2019-10-20T13:06:25.000Z",
		"name": "Station Haarlem",
		"id": "4a8c3036f964a5203a0d20e3",
		"lat": 52.38801057573046,
		"lng": 4.638713550666082,
		"address": "Stationsplein 11 L",
		"postalCode": "2011 LR",
		"city": "Haarlem",
		"country": "Nederland",
		"categories": [
			"Train Station"
		]
	},
	{
		"date": "2019-10-20T13:35:54.000Z",
		"name": "Albert Heijn",
		"id": "4b9a4b64f964a52066aa35e3",
		"lat": 52.38445463709139,
		"lng": 4.635787640721933,
		"address": "Kruisstraat 10",
		"postalCode": "2011 PX",
		"city": "Haarlem",
		"country": "Nederland",
		"categories": [
			"Supermarket"
		]
	},
	{
		"date": "2019-10-20T13:39:28.000Z",
		"name": "America Today",
		"id": "4bb5d8822ea195212dceaa2f",
		"lat": 52.38462493461905,
		"lng": 4.636135815009982,
		"address": "Kruisstraat 3-5",
		"postalCode": "2011 PV",
		"city": "Haarlem",
		"country": "Nederland",
		"categories": [
			"Clothing Store"
		]
	},
	{
		"date": "2019-10-21T04:13:34.000Z",
		"name": "Station Haarlem",
		"id": "4a8c3036f964a5203a0d20e3",
		"lat": 52.38801057573046,
		"lng": 4.638713550666082,
		"address": "Stationsplein 11 L",
		"postalCode": "2011 LR",
		"city": "Haarlem",
		"country": "Nederland",
		"categories": [
			"Train Station"
		]
	},
	{
		"date": "2019-10-21T04:25:01.000Z",
		"name": "Amsterdam Sloterdijk Station (Station Amsterdam Sloterdijk)",
		"id": "4a56245ff964a52085b41fe3",
		"lat": 52.38899431620469,
		"lng": 4.837957990409058,
		"address": "Orlyplein 105",
		"postalCode": "1043 DT",
		"city": "Amsterdam",
		"country": "Nederland",
		"categories": [
			"Train Station"
		]
	},
	{
		"date": "2019-10-21T04:51:43.000Z",
		"name": "Schiphol Airport Railway Station (Station Schiphol Airport)",
		"id": "4b14bf25f964a5203fa623e3",
		"lat": 52.30920799537486,
		"lng": 4.761746493019994,
		"address": "Aankomstpassage 18",
		"postalCode": "1118 AX",
		"city": "Hoofddorp",
		"country": "Nederland",
		"categories": [
			"Train Station"
		]
	},
	{
		"date": "2019-10-21T04:52:07.000Z",
		"name": "Amsterdam Airport Schiphol (AMS)",
		"id": "4a84e798f964a520defd1fe3",
		"lat": 52.3085704596075,
		"lng": 4.762122631072998,
		"address": "Aankomstpassage",
		"postalCode": "1118 CP",
		"city": "Schiphol",
		"country": "Nederland",
		"categories": [
			"Airport"
		]
	},
	{
		"date": "2019-10-21T05:28:32.000Z",
		"name": "Leon",
		"id": "59c1e488d8096e1f2b366ea6",
		"lat": 52.307600656706875,
		"lng": 4.765158167210229,
		"address": "Schiphol",
		"postalCode": "1118 AP",
		"city": "Schiphol",
		"country": "Nederland",
		"categories": [
			"Fast Food Restaurant",
			"Coffee Shop",
			"Breakfast Spot"
		]
	},
	{
		"date": "2019-10-21T05:51:17.000Z",
		"name": "Concourse B",
		"id": "4f58b3fae4b0db2050e0a11d",
		"lat": 52.30465621747054,
		"lng": 4.762043045940551,
		"address": "AMS Airport",
		"city": "Schiphol",
		"country": "Nederland",
		"categories": [
			"Airport Terminal"
		]
	},
	{
		"date": "2019-10-21T06:29:24.000Z",
		"name": "Gate B13",
		"id": "4bde7c1fffdec92894d7e8a1",
		"lat": 52.30507646024628,
		"lng": 4.761698140831336,
		"address": "Concourse B",
		"city": "Schiphol",
		"country": "Nederland",
		"categories": [
			"Airport Gate"
		]
	},
	{
		"date": "2019-10-21T09:08:20.000Z",
		"name": "Budapest Liszt Ferenc International Airport (BUD) (Budapest Liszt Ferenc nemzetközi repülőtér)",
		"id": "4b61c2daf964a5200f212ae3",
		"lat": 47.43090022934757,
		"lng": 19.260798463708202,
		"address": "Budapest Airport",
		"postalCode": "1185",
		"city": "Budapest",
		"country": "Magyarország",
		"categories": [
			"Airport"
		]
	},
	{
		"date": "2019-10-21T09:08:39.000Z",
		"name": "Gate A8",
		"id": "4e48a11ea809fb2fa4086583",
		"lat": 47.4339025004646,
		"lng": 19.26240215651171,
		"address": "Terminal 2A",
		"city": "Budapest",
		"country": "Magyarország",
		"categories": [
			"Airport Gate"
		]
	},
	{
		"date": "2019-10-21T09:54:12.000Z",
		"name": "Docler Holding Irodaház",
		"id": "4b503f8af964a520171f27e3",
		"lat": 47.49694118099851,
		"lng": 19.117601577085395,
		"address": "Expó tér 5-7.",
		"postalCode": "1101",
		"city": "Budapest",
		"country": "Magyarország",
		"categories": [
			"Office"
		]
	},
	{
		"date": "2019-10-21T15:57:50.000Z",
		"name": "Expo Congress Hotel Budapest",
		"id": "4bd1a6f95e0cce72efc8a184",
		"lat": 47.4933973371665,
		"lng": 19.1217436917344,
		"address": "Expo tér 2.",
		"postalCode": "1101",
		"city": "Budapest",
		"country": "Magyarország",
		"categories": [
			"Hotel"
		]
	},
	{
		"date": "2019-10-21T16:52:59.000Z",
		"name": "F8 Shop",
		"id": "5cb764f3178a2a002c5eb4be",
		"lat": 47.502872,
		"lng": 19.056295,
		"address": "Ó u. 9",
		"postalCode": "1066",
		"city": "Budapest",
		"country": "Magyarország",
		"categories": [
			"Photography Lab"
		]
	},
	{
		"date": "2019-10-21T17:18:07.000Z",
		"name": "MOST Kortárs Bisztró",
		"id": "4b75a34bf964a520f7182ee3",
		"lat": 47.503784839594765,
		"lng": 19.057223319062963,
		"address": "Zichy Jenő u. 17.",
		"postalCode": "1062",
		"city": "Budapest",
		"country": "Magyarország",
		"categories": [
			"Bistro",
			"Pub",
			"Bar"
		]
	},
	{
		"date": "2019-10-21T18:18:47.000Z",
		"name": "CBA Príma",
		"id": "4b6b0695f964a52073ed2be3",
		"lat": 47.49777917220175,
		"lng": 19.0554872497619,
		"address": "Anker köz 1-3.",
		"postalCode": "1061",
		"city": "Budapest",
		"country": "Magyarország",
		"categories": [
			"Grocery Store",
			"Supermarket"
		]
	},
	{
		"date": "2019-10-21T20:12:07.000Z",
		"name": "Expo Congress Hotel Budapest",
		"id": "4bd1a6f95e0cce72efc8a184",
		"lat": 47.4933973371665,
		"lng": 19.1217436917344,
		"address": "Expo tér 2.",
		"postalCode": "1101",
		"city": "Budapest",
		"country": "Magyarország",
		"categories": [
			"Hotel"
		]
	},
	{
		"date": "2019-10-22T06:21:32.000Z",
		"name": "Docler Holding Irodaház",
		"id": "4b503f8af964a520171f27e3",
		"lat": 47.49694118099851,
		"lng": 19.117601577085395,
		"address": "Expó tér 5-7.",
		"postalCode": "1101",
		"city": "Budapest",
		"country": "Magyarország",
		"categories": [
			"Office"
		]
	},
	{
		"date": "2019-10-22T15:25:35.000Z",
		"name": "Expo Congress Hotel Budapest",
		"id": "4bd1a6f95e0cce72efc8a184",
		"lat": 47.4933973371665,
		"lng": 19.1217436917344,
		"address": "Expo tér 2.",
		"postalCode": "1101",
		"city": "Budapest",
		"country": "Magyarország",
		"categories": [
			"Hotel"
		]
	},
	{
		"date": "2019-10-22T15:58:15.000Z",
		"name": "Expo Congress Hotel Budapest",
		"id": "4bd1a6f95e0cce72efc8a184",
		"lat": 47.4933973371665,
		"lng": 19.1217436917344,
		"address": "Expo tér 2.",
		"postalCode": "1101",
		"city": "Budapest",
		"country": "Magyarország",
		"categories": [
			"Hotel"
		]
	},
	{
		"date": "2019-10-22T20:47:51.000Z",
		"name": "Lámpás",
		"id": "4b90213af964a520707733e3",
		"lat": 47.49765836473369,
		"lng": 19.060687566050863,
		"address": "Dob u. 15.",
		"postalCode": "1074",
		"city": "Budapest",
		"country": "Magyarország",
		"categories": [
			"Bar"
		]
	},
	{
		"date": "2019-10-22T23:19:11.000Z",
		"name": "Liquid Rock",
		"id": "544279ef498ef5d7f4b00c06",
		"lat": 47.49515123388366,
		"lng": 19.062830064522675,
		"address": "Rákóczi út 10.",
		"postalCode": "1074",
		"city": "Budapest",
		"country": "Magyarország",
		"categories": [
			"Pub"
		]
	},
	{
		"date": "2019-10-23T00:08:01.000Z",
		"name": "Expo Congress Hotel Budapest",
		"id": "4bd1a6f95e0cce72efc8a184",
		"lat": 47.4933973371665,
		"lng": 19.1217436917344,
		"address": "Expo tér 2.",
		"postalCode": "1101",
		"city": "Budapest",
		"country": "Magyarország",
		"categories": [
			"Hotel"
		]
	},
	{
		"date": "2019-10-23T09:07:47.000Z",
		"name": "Docler Holding Irodaház",
		"id": "4b503f8af964a520171f27e3",
		"lat": 47.49694118099851,
		"lng": 19.117601577085395,
		"address": "Expó tér 5-7.",
		"postalCode": "1101",
		"city": "Budapest",
		"country": "Magyarország",
		"categories": [
			"Office"
		]
	},
	{
		"date": "2019-10-23T15:45:32.000Z",
		"name": "Várna utca (80, 80A, 130)",
		"id": "4ec3eab829c2f92bf618eb8c",
		"lat": 47.501797936567016,
		"lng": 19.115563342516253,
		"country": "Magyarország",
		"categories": [
			"Bus Stop"
		]
	},
	{
		"date": "2019-10-23T15:53:38.000Z",
		"name": "Arena Mall",
		"id": "4b86a275f964a520649331e3",
		"lat": 47.49844483059031,
		"lng": 19.09249868486114,
		"address": "Kerepesi út 9.",
		"postalCode": "1087",
		"city": "Budapest",
		"country": "Magyarország",
		"categories": [
			"Shopping Mall"
		]
	},
	{
		"date": "2019-10-23T16:01:37.000Z",
		"name": "Okay Italia",
		"id": "4eae71a4be7bd46a7bdd1b7a",
		"lat": 47.49808508145381,
		"lng": 19.090947682272198,
		"address": "Aréna Plaza",
		"postalCode": "1087",
		"city": "Budapest",
		"country": "Magyarország",
		"categories": [
			"Italian Restaurant"
		]
	},
	{
		"date": "2019-10-23T16:49:52.000Z",
		"name": "Várna utca (80, 80A, 130)",
		"id": "4ec3eab829c2f92bf618eb8c",
		"lat": 47.501797936567016,
		"lng": 19.115563342516253,
		"country": "Magyarország",
		"categories": [
			"Bus Stop"
		]
	},
	{
		"date": "2019-10-23T16:59:56.000Z",
		"name": "Docler Holding Irodaház",
		"id": "4b503f8af964a520171f27e3",
		"lat": 47.49694118099851,
		"lng": 19.117601577085395,
		"address": "Expó tér 5-7.",
		"postalCode": "1101",
		"city": "Budapest",
		"country": "Magyarország",
		"categories": [
			"Office"
		]
	},
	{
		"date": "2019-10-23T18:34:25.000Z",
		"name": "Expo Congress Hotel Budapest",
		"id": "4bd1a6f95e0cce72efc8a184",
		"lat": 47.4933973371665,
		"lng": 19.1217436917344,
		"address": "Expo tér 2.",
		"postalCode": "1101",
		"city": "Budapest",
		"country": "Magyarország",
		"categories": [
			"Hotel"
		]
	},
	{
		"date": "2019-10-24T06:22:59.000Z",
		"name": "Docler Holding Irodaház",
		"id": "4b503f8af964a520171f27e3",
		"lat": 47.49694118099851,
		"lng": 19.117601577085395,
		"address": "Expó tér 5-7.",
		"postalCode": "1101",
		"city": "Budapest",
		"country": "Magyarország",
		"categories": [
			"Office"
		]
	},
	{
		"date": "2019-10-24T10:11:08.000Z",
		"name": "Docler Cafeteria",
		"id": "505847b7e4b0b9424ea6a1cf",
		"lat": 47.49688493788501,
		"lng": 19.11765951368387,
		"address": "Expo tér 5-7.",
		"postalCode": "1101",
		"city": "Budapest",
		"country": "Magyarország",
		"categories": [
			"Cafeteria"
		]
	},
	{
		"date": "2019-10-24T16:27:16.000Z",
		"name": "Arena Mall",
		"id": "4b86a275f964a520649331e3",
		"lat": 47.49844483059031,
		"lng": 19.09249868486114,
		"address": "Kerepesi út 9.",
		"postalCode": "1087",
		"city": "Budapest",
		"country": "Magyarország",
		"categories": [
			"Shopping Mall"
		]
	},
	{
		"date": "2019-10-24T16:30:11.000Z",
		"name": "Media Markt",
		"id": "4e9d2996a17cfea2994f92a0",
		"lat": 47.49847562122631,
		"lng": 19.094242278437232,
		"address": "Kerepesi út 9.",
		"postalCode": "1087",
		"city": "Budapest",
		"country": "Magyarország",
		"categories": [
			"Electronics Store"
		]
	},
	{
		"date": "2019-10-24T16:41:43.000Z",
		"name": "TESCO Hipermarket",
		"id": "4d7143ca722ef04d9fb10e9c",
		"lat": 47.49847499000863,
		"lng": 19.09417747870573,
		"address": "Aréna Pláza földszint",
		"postalCode": "1087",
		"city": "Budapest",
		"country": "Magyarország",
		"categories": [
			"Supermarket"
		]
	},
	{
		"date": "2019-10-24T17:13:02.000Z",
		"name": "Buddha Original Wok Bar",
		"id": "5a229fe56fd6263a36733ed0",
		"lat": 47.49825376040429,
		"lng": 19.091190414717868,
		"address": "Arena plaza",
		"postalCode": "1087",
		"city": "Budapest",
		"country": "Magyarország",
		"categories": [
			"Sushi Restaurant"
		]
	},
	{
		"date": "2019-10-24T17:48:14.000Z",
		"name": "Cinema City",
		"id": "4cb635e07abcbfb78763a61f",
		"lat": 47.498032736536516,
		"lng": 19.090006479739582,
		"address": "Aréna Plaza",
		"postalCode": "1087",
		"city": "Budapest",
		"country": "Magyarország",
		"categories": [
			"Multiplex"
		]
	},
	{
		"date": "2019-10-25T06:51:19.000Z",
		"name": "Docler Holding Irodaház",
		"id": "4b503f8af964a520171f27e3",
		"lat": 47.49694118099851,
		"lng": 19.117601577085395,
		"address": "Expó tér 5-7.",
		"postalCode": "1101",
		"city": "Budapest",
		"country": "Magyarország",
		"categories": [
			"Office"
		]
	},
	{
		"date": "2019-10-25T16:54:00.000Z",
		"name": "Expo Congress Hotel Budapest",
		"id": "4bd1a6f95e0cce72efc8a184",
		"lat": 47.4933973371665,
		"lng": 19.1217436917344,
		"address": "Expo tér 2.",
		"postalCode": "1101",
		"city": "Budapest",
		"country": "Magyarország",
		"categories": [
			"Hotel"
		]
	},
	{
		"date": "2019-10-25T17:21:11.000Z",
		"name": "F8 Shop",
		"id": "5cb764f3178a2a002c5eb4be",
		"lat": 47.502872,
		"lng": 19.056295,
		"address": "Ó u. 9",
		"postalCode": "1066",
		"city": "Budapest",
		"country": "Magyarország",
		"categories": [
			"Photography Lab"
		]
	},
	{
		"date": "2019-10-25T17:36:12.000Z",
		"name": "Oktogon M (4, 6)",
		"id": "4d54e68e143ca093235fa9fc",
		"lat": 47.5058173109262,
		"lng": 19.062614255153175,
		"address": "Oktogon",
		"postalCode": "1066",
		"city": "Budapest",
		"country": "Magyarország",
		"categories": [
			"Tram Station"
		]
	},
	{
		"date": "2019-10-25T18:40:58.000Z",
		"name": "Biang Bistro",
		"id": "5aba7eaf826444616158db03",
		"lat": 47.50589384882062,
		"lng": 19.062419180386243,
		"address": "Teréz körút 20.",
		"postalCode": "1066",
		"city": "Budapest",
		"country": "Magyarország",
		"categories": [
			"Chinese Restaurant"
		]
	},
	{
		"date": "2019-10-25T19:20:00.000Z",
		"name": "Klub Vittula",
		"id": "4bc5c89d41cb76b025c73e6f",
		"lat": 47.498752132422084,
		"lng": 19.069264043103214,
		"address": "Kertész u. 4.",
		"postalCode": "1073",
		"city": "Budapest",
		"country": "Magyarország",
		"categories": [
			"Dive Bar"
		]
	},
	{
		"date": "2019-10-25T21:21:00.000Z",
		"name": "Gozsdu Udvar",
		"id": "4bddd19289ca76b073825d5e",
		"lat": 47.49850288983981,
		"lng": 19.05925154685974,
		"address": "Király u. 13.",
		"postalCode": "1075",
		"city": "Budapest",
		"country": "Magyarország",
		"categories": [
			"Plaza"
		]
	},
	{
		"date": "2019-10-25T21:42:49.000Z",
		"name": "Erzsébet tér",
		"id": "4bb1a92af964a520ff9d3ce3",
		"lat": 47.49843040475713,
		"lng": 19.053243398666382,
		"address": "Erzsébet tér",
		"postalCode": "1053",
		"city": "Budapest",
		"country": "Magyarország",
		"categories": [
			"Park",
			"Plaza",
			"Playground"
		]
	},
	{
		"date": "2019-10-25T22:38:51.000Z",
		"name": "Expo Congress Hotel Budapest",
		"id": "4bd1a6f95e0cce72efc8a184",
		"lat": 47.4933973371665,
		"lng": 19.1217436917344,
		"address": "Expo tér 2.",
		"postalCode": "1101",
		"city": "Budapest",
		"country": "Magyarország",
		"categories": [
			"Hotel"
		]
	},
	{
		"date": "2019-10-26T08:40:26.000Z",
		"name": "Bubbles",
		"id": "548c421c498e12525065f0e6",
		"lat": 47.49901991850588,
		"lng": 19.05609369303837,
		"address": "Paulay Ede u. 3.",
		"postalCode": "1061",
		"city": "Budapest",
		"country": "Magyarország",
		"categories": [
			"Laundromat",
			"Laundry Service"
		]
	},
	{
		"date": "2019-10-26T08:46:44.000Z",
		"name": "Central Passage",
		"id": "5757fb61498ef115d53b7e5c",
		"lat": 47.49840620709598,
		"lng": 19.056677675551366,
		"address": "Király u. 8-10.",
		"postalCode": "1061",
		"city": "Budapest",
		"country": "Magyarország",
		"categories": [
			"Shopping Mall"
		]
	},
	{
		"date": "2019-10-26T09:10:38.000Z",
		"name": "Gozsdu Udvar",
		"id": "4bddd19289ca76b073825d5e",
		"lat": 47.49850288983981,
		"lng": 19.05925154685974,
		"address": "Király u. 13.",
		"postalCode": "1075",
		"city": "Budapest",
		"country": "Magyarország",
		"categories": [
			"Plaza"
		]
	},
	{
		"date": "2019-10-26T09:20:33.000Z",
		"name": "Bubbles",
		"id": "548c421c498e12525065f0e6",
		"lat": 47.49901991850588,
		"lng": 19.05609369303837,
		"address": "Paulay Ede u. 3.",
		"postalCode": "1061",
		"city": "Budapest",
		"country": "Magyarország",
		"categories": [
			"Laundromat",
			"Laundry Service"
		]
	},
	{
		"date": "2019-10-26T10:12:39.000Z",
		"name": "Hunyadi tér",
		"id": "4d94524474c8236a58f1b9fc",
		"lat": 47.50577930854618,
		"lng": 19.066991320123357,
		"address": "Hunyadi tér",
		"postalCode": "1066",
		"city": "Budapest",
		"country": "Magyarország",
		"categories": [
			"Park"
		]
	},
	{
		"date": "2019-10-26T11:03:53.000Z",
		"name": "Kozmosz Vegán Étterem",
		"id": "5355603b498e79f744f1b54a",
		"lat": 47.506365165471045,
		"lng": 19.06706084321121,
		"address": "Hunyadi tér 11.",
		"postalCode": "1067",
		"city": "Budapest",
		"country": "Magyarország",
		"categories": [
			"Vegetarian / Vegan Restaurant"
		]
	},
	{
		"date": "2019-10-26T17:50:29.000Z",
		"name": "Béla. bár, étterem, lakás, arborétum",
		"id": "5a75e232e1f228139d789ffe",
		"lat": 47.48031868206501,
		"lng": 19.051669430125337,
		"address": "Bartók Béla út 23.",
		"postalCode": "1114",
		"city": "Budapest",
		"country": "Magyarország",
		"categories": [
			"Gastropub",
			"Bar"
		]
	},
	{
		"date": "2019-10-27T07:12:16.000Z",
		"name": "Docler Holding Irodaház",
		"id": "4b503f8af964a520171f27e3",
		"lat": 47.49694118099851,
		"lng": 19.117601577085395,
		"address": "Expó tér 5-7.",
		"postalCode": "1101",
		"city": "Budapest",
		"country": "Magyarország",
		"categories": [
			"Office"
		]
	},
	{
		"date": "2019-10-27T07:41:45.000Z",
		"name": "Expo Congress Hotel Budapest",
		"id": "4bd1a6f95e0cce72efc8a184",
		"lat": 47.4933973371665,
		"lng": 19.1217436917344,
		"address": "Expo tér 2.",
		"postalCode": "1101",
		"city": "Budapest",
		"country": "Magyarország",
		"categories": [
			"Hotel"
		]
	},
	{
		"date": "2019-10-27T08:22:06.000Z",
		"name": "Docler Holding Irodaház",
		"id": "4b503f8af964a520171f27e3",
		"lat": 47.49694118099851,
		"lng": 19.117601577085395,
		"address": "Expó tér 5-7.",
		"postalCode": "1101",
		"city": "Budapest",
		"country": "Magyarország",
		"categories": [
			"Office"
		]
	},
	{
		"date": "2019-10-27T16:13:46.000Z",
		"name": "Expo Congress Hotel Budapest",
		"id": "4bd1a6f95e0cce72efc8a184",
		"lat": 47.4933973371665,
		"lng": 19.1217436917344,
		"address": "Expo tér 2.",
		"postalCode": "1101",
		"city": "Budapest",
		"country": "Magyarország",
		"categories": [
			"Hotel"
		]
	},
	{
		"date": "2019-10-27T20:08:14.000Z",
		"name": "Angyalföld",
		"id": "4e7238b51520cc03b4d62c8f",
		"lat": 47.52952456282538,
		"lng": 19.08202886581421,
		"city": "Budapest",
		"country": "Magyarország",
		"categories": [
			"Neighborhood"
		]
	},
	{
		"date": "2019-10-28T13:36:54.000Z",
		"name": "Docler Holding Irodaház",
		"id": "4b503f8af964a520171f27e3",
		"lat": 47.49694118099851,
		"lng": 19.117601577085395,
		"address": "Expó tér 5-7.",
		"postalCode": "1101",
		"city": "Budapest",
		"country": "Magyarország",
		"categories": [
			"Office"
		]
	},
	{
		"date": "2019-10-28T17:32:16.000Z",
		"name": "Erzsébet tér",
		"id": "4bb1a92af964a520ff9d3ce3",
		"lat": 47.49843040475713,
		"lng": 19.053243398666382,
		"address": "Erzsébet tér",
		"postalCode": "1053",
		"city": "Budapest",
		"country": "Magyarország",
		"categories": [
			"Park",
			"Plaza",
			"Playground"
		]
	},
	{
		"date": "2019-10-28T17:58:48.000Z",
		"name": "F8 Shop",
		"id": "5cb764f3178a2a002c5eb4be",
		"lat": 47.502872,
		"lng": 19.056295,
		"address": "Ó u. 9",
		"postalCode": "1066",
		"city": "Budapest",
		"country": "Magyarország",
		"categories": [
			"Photography Lab"
		]
	},
	{
		"date": "2019-10-28T18:29:24.000Z",
		"name": "Soul Food Budapest",
		"id": "52b6c98f498e2f8cd536c243",
		"lat": 47.498287246424816,
		"lng": 19.062373638153076,
		"address": "Kazinczy u. 32.",
		"postalCode": "1075",
		"city": "Budapest",
		"country": "Magyarország",
		"categories": [
			"Southern / Soul Food Restaurant",
			"Cajun / Creole Restaurant",
			"Caribbean Restaurant"
		]
	},
	{
		"date": "2019-10-28T19:04:02.000Z",
		"name": "Jewish Quarter (Történelmi zsidónegyed)",
		"id": "4fd47d7be4b0f4325d0aeb5d",
		"lat": 47.502686715549736,
		"lng": 19.065552870184234,
		"city": "Budapest",
		"country": "Magyarország",
		"categories": [
			"Neighborhood"
		]
	},
	{
		"date": "2019-10-28T19:20:08.000Z",
		"name": "Expo Congress Hotel Budapest",
		"id": "4bd1a6f95e0cce72efc8a184",
		"lat": 47.4933973371665,
		"lng": 19.1217436917344,
		"address": "Expo tér 2.",
		"postalCode": "1101",
		"city": "Budapest",
		"country": "Magyarország",
		"categories": [
			"Hotel"
		]
	},
	{
		"date": "2019-10-29T07:29:16.000Z",
		"name": "Docler Holding Irodaház",
		"id": "4b503f8af964a520171f27e3",
		"lat": 47.49694118099851,
		"lng": 19.117601577085395,
		"address": "Expó tér 5-7.",
		"postalCode": "1101",
		"city": "Budapest",
		"country": "Magyarország",
		"categories": [
			"Office"
		]
	},
	{
		"date": "2019-10-29T10:27:48.000Z",
		"name": "Burger King",
		"id": "4cb20e52c5e6a1cd78a1e2f6",
		"lat": 47.501047052843504,
		"lng": 19.113029837608337,
		"address": "Kerepesi út 42-46.",
		"postalCode": "1148",
		"city": "Budapest",
		"country": "Magyarország",
		"categories": [
			"Fast Food Restaurant"
		]
	},
	{
		"date": "2019-10-29T17:28:40.000Z",
		"name": "Expo Congress Hotel Budapest",
		"id": "4bd1a6f95e0cce72efc8a184",
		"lat": 47.4933973371665,
		"lng": 19.1217436917344,
		"address": "Expo tér 2.",
		"postalCode": "1101",
		"city": "Budapest",
		"country": "Magyarország",
		"categories": [
			"Hotel"
		]
	},
	{
		"date": "2019-10-29T22:26:37.000Z",
		"name": "Bubbles",
		"id": "548c421c498e12525065f0e6",
		"lat": 47.49901991850588,
		"lng": 19.05609369303837,
		"address": "Paulay Ede u. 3.",
		"postalCode": "1061",
		"city": "Budapest",
		"country": "Magyarország",
		"categories": [
			"Laundromat",
			"Laundry Service"
		]
	},
	{
		"date": "2019-10-29T22:42:31.000Z",
		"name": "Pizza Me #1 / La Pizza di Mamma Sophia",
		"id": "520baad811d2408df19f9f59",
		"lat": 47.49917850605831,
		"lng": 19.05816914734231,
		"address": "Király u. 20.",
		"postalCode": "1061",
		"city": "Budapest",
		"country": "Magyarország",
		"categories": [
			"Pizza Place"
		]
	},
	{
		"date": "2019-10-29T22:52:37.000Z",
		"name": "Roni ABC",
		"id": "4ba52e07f964a52064e838e3",
		"lat": 47.49833408982269,
		"lng": 19.05682633110364,
		"address": "Király u. 5.",
		"postalCode": "1075",
		"city": "Budapest",
		"country": "Magyarország",
		"categories": [
			"Grocery Store"
		]
	},
	{
		"date": "2019-10-29T23:00:01.000Z",
		"name": "Central Passage",
		"id": "5757fb61498ef115d53b7e5c",
		"lat": 47.49840620709598,
		"lng": 19.056677675551366,
		"address": "Király u. 8-10.",
		"postalCode": "1061",
		"city": "Budapest",
		"country": "Magyarország",
		"categories": [
			"Shopping Mall"
		]
	},
	{
		"date": "2019-10-29T23:57:34.000Z",
		"name": "Expo Congress Hotel Budapest",
		"id": "4bd1a6f95e0cce72efc8a184",
		"lat": 47.4933973371665,
		"lng": 19.1217436917344,
		"address": "Expo tér 2.",
		"postalCode": "1101",
		"city": "Budapest",
		"country": "Magyarország",
		"categories": [
			"Hotel"
		]
	},
	{
		"date": "2019-10-30T08:07:05.000Z",
		"name": "Docler Holding Irodaház",
		"id": "4b503f8af964a520171f27e3",
		"lat": 47.49694118099851,
		"lng": 19.117601577085395,
		"address": "Expó tér 5-7.",
		"postalCode": "1101",
		"city": "Budapest",
		"country": "Magyarország",
		"categories": [
			"Office"
		]
	},
	{
		"date": "2019-10-30T10:30:08.000Z",
		"name": "Árkád",
		"id": "4b633a37f964a520076c2ae3",
		"lat": 47.502778918320374,
		"lng": 19.138653558212173,
		"address": "Örs vezér tere 25.",
		"postalCode": "1106",
		"city": "Budapest",
		"country": "Magyarország",
		"categories": [
			"Shopping Mall"
		]
	},
	{
		"date": "2019-10-30T10:35:13.000Z",
		"name": "Tsuru",
		"id": "5d79e35e6b5901000817b1d1",
		"lat": 47.502787385858305,
		"lng": 19.139621257781982,
		"address": "Árkád Foodloft",
		"country": "Magyarország",
		"categories": [
			"Japanese Restaurant"
		]
	},
	{
		"date": "2019-10-30T11:12:31.000Z",
		"name": "Starbucks",
		"id": "51cbcca7498ed6ec754da71e",
		"lat": 47.50283731586872,
		"lng": 19.140758514404297,
		"address": "Árkád",
		"postalCode": "1106",
		"city": "Budapest",
		"country": "Magyarország",
		"categories": [
			"Coffee Shop"
		]
	},
	{
		"date": "2019-10-30T12:35:41.000Z",
		"name": "Docler Holding Irodaház",
		"id": "4b503f8af964a520171f27e3",
		"lat": 47.49694118099851,
		"lng": 19.117601577085395,
		"address": "Expó tér 5-7.",
		"postalCode": "1101",
		"city": "Budapest",
		"country": "Magyarország",
		"categories": [
			"Office"
		]
	},
	{
		"date": "2019-10-30T22:37:10.000Z",
		"name": "Expo Congress Hotel Budapest",
		"id": "4bd1a6f95e0cce72efc8a184",
		"lat": 47.4933973371665,
		"lng": 19.1217436917344,
		"address": "Expo tér 2.",
		"postalCode": "1101",
		"city": "Budapest",
		"country": "Magyarország",
		"categories": [
			"Hotel"
		]
	},
	{
		"date": "2019-10-30T22:37:21.000Z",
		"name": "Sky Bar",
		"id": "51916349498e273e45276c0a",
		"lat": 47.49344775855198,
		"lng": 19.121729013477633,
		"address": "Expo tér 2.",
		"postalCode": "1101",
		"city": "Budapest",
		"country": "Magyarország",
		"categories": [
			"Hotel Bar"
		]
	},
	{
		"date": "2019-10-31T07:27:56.000Z",
		"name": "Expo Congress Hotel Budapest",
		"id": "4bd1a6f95e0cce72efc8a184",
		"lat": 47.4933973371665,
		"lng": 19.1217436917344,
		"address": "Expo tér 2.",
		"postalCode": "1101",
		"city": "Budapest",
		"country": "Magyarország",
		"categories": [
			"Hotel"
		]
	},
	{
		"date": "2019-10-31T08:12:06.000Z",
		"name": "Docler Holding Irodaház",
		"id": "4b503f8af964a520171f27e3",
		"lat": 47.49694118099851,
		"lng": 19.117601577085395,
		"address": "Expó tér 5-7.",
		"postalCode": "1101",
		"city": "Budapest",
		"country": "Magyarország",
		"categories": [
			"Office"
		]
	},
	{
		"date": "2019-10-31T08:58:09.000Z",
		"name": "Los Angeles",
		"id": "5dbaa21ad250890007c4396f",
		"lat": 47.496128,
		"lng": 19.117985,
		"postalCode": "1101",
		"city": "Budapest X. kerület",
		"country": "Magyarország",
		"categories": [
			"Meeting Room"
		]
	},
	{
		"date": "2019-10-31T11:48:29.000Z",
		"name": "Árkád Parkoló",
		"id": "4eabdfd14690ef1f6c77c459",
		"lat": 47.50309063596389,
		"lng": 19.141011842504106,
		"address": "Árkád",
		"city": "Budapest",
		"country": "Magyarország",
		"categories": [
			"Parking"
		]
	},
	{
		"date": "2019-10-31T11:54:06.000Z",
		"name": "Árkád",
		"id": "4b633a37f964a520076c2ae3",
		"lat": 47.502778918320374,
		"lng": 19.138653558212173,
		"address": "Örs vezér tere 25.",
		"postalCode": "1106",
		"city": "Budapest",
		"country": "Magyarország",
		"categories": [
			"Shopping Mall"
		]
	},
	{
		"date": "2019-10-31T11:54:24.000Z",
		"name": "Árkád Foodloft",
		"id": "5d7e6ef1b173160007634978",
		"lat": 47.502686,
		"lng": 19.140158,
		"postalCode": "1106",
		"city": "Budapest",
		"country": "Magyarország",
		"categories": [
			"Food Court"
		]
	},
	{
		"date": "2019-10-31T11:54:55.000Z",
		"name": "Burger Market",
		"id": "5d84aa1036e5fa0008c76e6c",
		"lat": 47.502649,
		"lng": 19.140412,
		"postalCode": "1106",
		"city": "Budapest X. kerület",
		"country": "Magyarország",
		"categories": [
			"Burger Joint"
		]
	},
	{
		"date": "2019-10-31T18:25:00.000Z",
		"name": "MediaMarkt",
		"id": "4be59fe3910020a10e35d314",
		"lat": 47.45353910697303,
		"lng": 18.955675872050584,
		"address": "Petőfi Sándor u. 64.",
		"postalCode": "2040",
		"city": "Budaörs",
		"country": "Magyarország",
		"categories": [
			"Electronics Store"
		]
	},
	{
		"date": "2019-10-31T20:50:55.000Z",
		"name": "Kis-Tómalom",
		"id": "4f857e8be4b05ea63f7a168f",
		"lat": 47.71016582127449,
		"lng": 16.625447273254395,
		"country": "Magyarország",
		"categories": [
			"Lake"
		]
	}
]