[
	{
		"date": "2019-03-01T06:46:01.000Z",
		"name": "Barcelona–El Prat Josep Tarradellas Airport (BCN) (Aeropuerto Josep Tarradellas Barcelona-El Prat)",
		"id": "4b7980a2f964a5202bfd2ee3",
		"lat": 41.29560699312263,
		"lng": 2.0762228965759277,
		"address": "Ctra. de El Prat de Llobregat",
		"postalCode": "08820",
		"city": "El Prat de Llobregat",
		"country": "España",
		"categories": [
			"Airport"
		]
	},
	{
		"date": "2019-03-01T07:03:04.000Z",
		"name": "Terminal 1",
		"id": "4b80be31f964a5209a8930e3",
		"lat": 41.28872077404488,
		"lng": 2.073105227523144,
		"address": "Aeroport de Barcelona-El Prat",
		"postalCode": "08820",
		"city": "El Prat de Llobregat",
		"country": "España",
		"categories": [
			"Airport Terminal"
		]
	},
	{
		"date": "2019-03-01T07:14:19.000Z",
		"name": "Vueling Check-in",
		"id": "4f6f2c86e4b08a0bbbbc397e",
		"lat": 41.28854540914935,
		"lng": 2.0733046531677246,
		"address": "Terminal 1",
		"city": "El Prat de Llobregat",
		"country": "España",
		"categories": [
			"Airport Service"
		]
	},
	{
		"date": "2019-03-01T07:14:43.000Z",
		"name": "Security Control",
		"id": "523011de11d258a05fabb772",
		"lat": 41.28860405218914,
		"lng": 2.0743118339411395,
		"address": "Terminal 1",
		"postalCode": "08820",
		"city": "El Prat de Llobregat",
		"country": "España",
		"categories": [
			"Airport Service"
		]
	},
	{
		"date": "2019-03-01T07:37:36.000Z",
		"name": "Gates B",
		"id": "59ff06c618d43b6ac7df68eb",
		"lat": 41.290037920830216,
		"lng": 2.077196556817654,
		"address": "Terminal 1",
		"postalCode": "08820",
		"city": "El Prat de Llobregat",
		"country": "España",
		"categories": [
			"Airport Terminal"
		]
	},
	{
		"date": "2019-03-01T08:02:34.000Z",
		"name": "BREADWAY",
		"id": "5747ec48498e7542e3c7ab8e",
		"lat": 41.28972630436096,
		"lng": 2.0763115669218344,
		"address": "Terminal 1",
		"postalCode": "08820",
		"city": "El Prat de Llobregat",
		"country": "España",
		"categories": [
			"Café"
		]
	},
	{
		"date": "2019-03-01T08:47:44.000Z",
		"name": "Gate B40",
		"id": "4c440ae1429a0f477434481e",
		"lat": 41.290736766189035,
		"lng": 2.079412485672924,
		"address": "Terminal 1",
		"postalCode": "08820",
		"city": "El Prat de Llobregat",
		"country": "España",
		"categories": [
			"Airport Gate"
		]
	},
	{
		"date": "2019-03-01T11:45:36.000Z",
		"name": "Amsterdam Airport Schiphol (AMS)",
		"id": "4a84e798f964a520defd1fe3",
		"lat": 52.3085704596075,
		"lng": 4.762122631072998,
		"address": "Aankomstpassage",
		"postalCode": "1118 CP",
		"city": "Schiphol",
		"country": "Nederland",
		"categories": [
			"Airport"
		]
	},
	{
		"date": "2019-03-01T12:05:07.000Z",
		"name": "Arrivals 1",
		"id": "4bee5a363686c9b63371246e",
		"lat": 52.30855482689688,
		"lng": 4.763492744708398,
		"address": "AMS Airport",
		"city": "Schiphol",
		"country": "Nederland",
		"categories": [
			"Airport Terminal"
		]
	},
	{
		"date": "2019-03-01T12:22:47.000Z",
		"name": "Baggage Belts",
		"id": "4cadb1a50e7bbfb737705b83",
		"lat": 52.30881082020925,
		"lng": 4.764053471569788,
		"address": "AMS Airport",
		"postalCode": "1118 CP",
		"city": "Amsterdam",
		"country": "Nederland",
		"categories": [
			"Baggage Claim"
		]
	},
	{
		"date": "2019-03-01T13:21:25.000Z",
		"name": "Haarlem",
		"id": "4e6f9dc61838a9b627ba7ccf",
		"lat": 52.389220590621235,
		"lng": 4.638376235961914,
		"country": "Nederland",
		"categories": [
			"City"
		]
	},
	{
		"date": "2019-03-01T18:06:12.000Z",
		"name": "Ricardoz",
		"id": "5a451ceeacc5f57ca9060d1b",
		"lat": 52.396056,
		"lng": 4.642705,
		"postalCode": "2021 JN",
		"city": "Haarlem",
		"country": "Nederland",
		"categories": [
			"Spanish Restaurant"
		]
	},
	{
		"date": "2019-03-02T10:25:26.000Z",
		"name": "Grote Markt",
		"id": "4b33f1aef964a520842225e3",
		"lat": 52.381433191163424,
		"lng": 4.6357020650218494,
		"address": "Grote Markt",
		"postalCode": "2011",
		"city": "Haarlem",
		"country": "Nederland",
		"categories": [
			"Plaza",
			"Event Space"
		]
	},
	{
		"date": "2019-03-02T11:00:17.000Z",
		"name": "Albert Heijn",
		"id": "4b9a4b64f964a52066aa35e3",
		"lat": 52.38445463709139,
		"lng": 4.635787640721933,
		"address": "Kruisstraat 10",
		"postalCode": "2011 PX",
		"city": "Haarlem",
		"country": "Nederland",
		"categories": [
			"Supermarket"
		]
	},
	{
		"date": "2019-03-02T14:27:25.000Z",
		"name": "Cotton Candy Residence 10",
		"id": "58cd4fe316f000799f4cf4f4",
		"lat": 52.392946926098126,
		"lng": 4.640537129468235,
		"city": "Haarlem",
		"country": "Nederland",
		"categories": [
			"Home (private)"
		]
	},
	{
		"date": "2019-03-05T17:49:12.000Z",
		"name": "Nolita Pizzabar",
		"id": "5792926c498e85cfb4c350d7",
		"lat": 52.380319729422766,
		"lng": 4.637940239378353,
		"address": "Lange Veerstraat 17",
		"postalCode": "2011 DA",
		"city": "Haarlem",
		"country": "Nederland",
		"categories": [
			"Italian Restaurant"
		]
	},
	{
		"date": "2019-03-05T19:13:29.000Z",
		"name": "Albert Heijn",
		"id": "4b9a4b64f964a52066aa35e3",
		"lat": 52.38445463709139,
		"lng": 4.635787640721933,
		"address": "Kruisstraat 10",
		"postalCode": "2011 PX",
		"city": "Haarlem",
		"country": "Nederland",
		"categories": [
			"Supermarket"
		]
	},
	{
		"date": "2019-03-08T16:34:19.000Z",
		"name": "CIGO",
		"id": "4da04ae8bb206ea8fafed7fd",
		"lat": 52.38698266012458,
		"lng": 4.636698269208286,
		"address": "Kruisweg 37",
		"postalCode": "2011 LA",
		"city": "Haarlem",
		"country": "Nederland",
		"categories": [
			"Bookstore",
			"Smoke Shop"
		]
	},
	{
		"date": "2019-03-09T13:17:24.000Z",
		"name": "Station Haarlem",
		"id": "4a8c3036f964a5203a0d20e3",
		"lat": 52.38801057573046,
		"lng": 4.638713550666082,
		"address": "Stationsplein 11 L",
		"postalCode": "2011 LR",
		"city": "Haarlem",
		"country": "Nederland",
		"categories": [
			"Train Station"
		]
	},
	{
		"date": "2019-03-09T13:44:42.000Z",
		"name": "Leiden Central Railway station (Station Leiden Centraal)",
		"id": "4ad44a63f964a5208be720e3",
		"lat": 52.166069721919676,
		"lng": 4.482098314771528,
		"address": "Stationsplein 3G",
		"postalCode": "2312 AJ",
		"city": "Leiden",
		"country": "Nederland",
		"categories": [
			"Train Station"
		]
	},
	{
		"date": "2019-03-09T14:18:17.000Z",
		"name": "Rotterdam Central Station (Station Rotterdam Centraal)",
		"id": "4ae19cc4f964a520678621e3",
		"lat": 51.92536602394011,
		"lng": 4.469021675569301,
		"address": "Stationssingel 10",
		"postalCode": "3013 HA",
		"city": "Rotterdam",
		"country": "Nederland",
		"categories": [
			"Train Station"
		]
	},
	{
		"date": "2019-03-09T14:45:14.000Z",
		"name": "Albert Heijn",
		"id": "4b71a19cf964a52053522de3",
		"lat": 51.945252323344484,
		"lng": 4.481532586428251,
		"address": "Kleiweg 64",
		"postalCode": "3051 GT",
		"city": "Rotterdam",
		"country": "Nederland",
		"categories": [
			"Supermarket"
		]
	},
	{
		"date": "2019-03-09T15:10:48.000Z",
		"name": "Station Rotterdam Noord",
		"id": "4ad8967ef964a520921221e3",
		"lat": 51.94233703498336,
		"lng": 4.481945200148037,
		"address": "Bergweg 8",
		"postalCode": "3036 BA",
		"city": "Rotterdam",
		"country": "Nederland",
		"categories": [
			"Train Station"
		]
	},
	{
		"date": "2019-03-10T10:21:39.000Z",
		"name": "Leiden Central Railway station (Station Leiden Centraal)",
		"id": "4ad44a63f964a5208be720e3",
		"lat": 52.166069721919676,
		"lng": 4.482098314771528,
		"address": "Stationsplein 3G",
		"postalCode": "2312 AJ",
		"city": "Leiden",
		"country": "Nederland",
		"categories": [
			"Train Station"
		]
	},
	{
		"date": "2019-03-10T10:42:10.000Z",
		"name": "Station Haarlem",
		"id": "4a8c3036f964a5203a0d20e3",
		"lat": 52.38801057573046,
		"lng": 4.638713550666082,
		"address": "Stationsplein 11 L",
		"postalCode": "2011 LR",
		"city": "Haarlem",
		"country": "Nederland",
		"categories": [
			"Train Station"
		]
	},
	{
		"date": "2019-03-10T10:43:01.000Z",
		"name": "The Döner Company",
		"id": "4d790928a56e37040e5d7567",
		"lat": 52.38817372624091,
		"lng": 4.63927902305991,
		"address": "Station Haarlem",
		"postalCode": "2011 LR",
		"city": "Haarlem",
		"country": "Nederland",
		"categories": [
			"Doner Restaurant",
			"Falafel Restaurant",
			"Kebab Restaurant"
		]
	},
	{
		"date": "2019-03-10T11:06:47.000Z",
		"name": "Cotton Candy Residence 10",
		"id": "58cd4fe316f000799f4cf4f4",
		"lat": 52.392946926098126,
		"lng": 4.640537129468235,
		"city": "Haarlem",
		"country": "Nederland",
		"categories": [
			"Home (private)"
		]
	},
	{
		"date": "2019-03-10T18:31:20.000Z",
		"name": "Bushalte Holterbergweg",
		"id": "4fbfb198e4b02db73d7dfaa0",
		"lat": 52.30891009878424,
		"lng": 4.9396354839718795,
		"address": "Holterbergweg",
		"city": "Amsterdam",
		"country": "Nederland",
		"categories": [
			"Bus Stop"
		]
	},
	{
		"date": "2019-03-10T19:16:57.000Z",
		"name": "Indiaport Aan De Amstel",
		"id": "5afc62196dcf04002c13568d",
		"lat": 52.29744,
		"lng": 4.899524,
		"address": "53 Amstelzijde",
		"postalCode": "1184 TZ",
		"city": "Amstelveen",
		"country": "Nederland",
		"categories": [
			"Indian Restaurant"
		]
	},
	{
		"date": "2019-03-10T21:43:17.000Z",
		"name": "Ouderkerk aan de Amstel",
		"id": "4db5cb6bfa8c3502410256be",
		"lat": 52.295173518500256,
		"lng": 4.913806915283203,
		"country": "Nederland",
		"categories": [
			"City"
		]
	},
	{
		"date": "2019-03-10T21:56:53.000Z",
		"name": "Amsterdam Zuidoost",
		"id": "52ab789411d272af9af50e90",
		"lat": 52.310441799070844,
		"lng": 4.947826106352723,
		"postalCode": "1100",
		"country": "Nederland",
		"categories": [
			"Neighborhood"
		]
	},
	{
		"date": "2019-03-10T21:57:05.000Z",
		"name": "ArenA Boulevard",
		"id": "4bfb81f9f214a593774aaf0e",
		"lat": 52.312726957233366,
		"lng": 4.944250529549545,
		"address": "Arena Boulevard",
		"city": "Amsterdam",
		"country": "Nederland",
		"categories": [
			"Plaza"
		]
	},
	{
		"date": "2019-03-10T22:07:04.000Z",
		"name": "JinSo",
		"id": "4a26ffbff964a520d6801fe3",
		"lat": 52.31272656245809,
		"lng": 4.944886692039194,
		"address": "Arena boulevard 155",
		"postalCode": "1101 EJ",
		"city": "Amsterdam",
		"country": "Nederland",
		"categories": [
			"Asian Restaurant",
			"Café",
			"Bar"
		]
	},
	{
		"date": "2019-03-11T08:03:16.000Z",
		"name": "Medidental",
		"id": "4c73c3504bc4236af3a5ce7a",
		"lat": 52.38542273425579,
		"lng": 4.620555639266968,
		"address": "Zijlweg 148C",
		"postalCode": "2015 BJ",
		"city": "Haarlem",
		"country": "Nederland",
		"categories": [
			"Dentist's Office"
		]
	},
	{
		"date": "2019-03-11T08:43:15.000Z",
		"name": "Albert Heijn",
		"id": "4b9a4b64f964a52066aa35e3",
		"lat": 52.38445463709139,
		"lng": 4.635787640721933,
		"address": "Kruisstraat 10",
		"postalCode": "2011 PX",
		"city": "Haarlem",
		"country": "Nederland",
		"categories": [
			"Supermarket"
		]
	},
	{
		"date": "2019-03-14T09:37:41.000Z",
		"name": "Publiekshal Gemeente Haarlem",
		"id": "4e8ad5779adf8878b56baf5f",
		"lat": 52.38199587158337,
		"lng": 4.629498653312739,
		"city": "Haarlem",
		"country": "Nederland",
		"categories": [
			"City Hall"
		]
	},
	{
		"date": "2019-03-14T18:06:25.000Z",
		"name": "Albert Heijn",
		"id": "4b9a4b64f964a52066aa35e3",
		"lat": 52.38445463709139,
		"lng": 4.635787640721933,
		"address": "Kruisstraat 10",
		"postalCode": "2011 PX",
		"city": "Haarlem",
		"country": "Nederland",
		"categories": [
			"Supermarket"
		]
	},
	{
		"date": "2019-03-14T18:22:36.000Z",
		"name": "Cotton Candy Residence 10",
		"id": "58cd4fe316f000799f4cf4f4",
		"lat": 52.392946926098126,
		"lng": 4.640537129468235,
		"city": "Haarlem",
		"country": "Nederland",
		"categories": [
			"Home (private)"
		]
	},
	{
		"date": "2019-03-15T16:52:25.000Z",
		"name": "Albert Heijn",
		"id": "4b9a4b64f964a52066aa35e3",
		"lat": 52.38445463709139,
		"lng": 4.635787640721933,
		"address": "Kruisstraat 10",
		"postalCode": "2011 PX",
		"city": "Haarlem",
		"country": "Nederland",
		"categories": [
			"Supermarket"
		]
	},
	{
		"date": "2019-03-16T13:18:41.000Z",
		"name": "Karwei",
		"id": "4b5b027ff964a520a9de28e3",
		"lat": 52.39005961436961,
		"lng": 4.626503810720334,
		"address": "Verspronckweg 63",
		"city": "Haarlem",
		"country": "Nederland",
		"categories": [
			"Hardware Store"
		]
	},
	{
		"date": "2019-03-16T13:56:20.000Z",
		"name": "Vomar Voordeelmarkt",
		"id": "4b72c969f964a52096882de3",
		"lat": 52.39127711020139,
		"lng": 4.649005288257338,
		"address": "Paul Krugerkade 22",
		"postalCode": "2021 BN",
		"city": "Haarlem",
		"country": "Nederland",
		"categories": [
			"Supermarket",
			"Grocery Store"
		]
	},
	{
		"date": "2019-03-16T14:12:55.000Z",
		"name": "Action",
		"id": "4c1a06b66a21c9b6735dcb97",
		"lat": 52.391095588018075,
		"lng": 4.64856076516707,
		"address": "Werfstraat 11",
		"city": "Haarlem",
		"country": "Nederland",
		"categories": [
			"Discount Store"
		]
	},
	{
		"date": "2019-03-17T11:12:13.000Z",
		"name": "Cotton Candy Residence 10",
		"id": "58cd4fe316f000799f4cf4f4",
		"lat": 52.392946926098126,
		"lng": 4.640537129468235,
		"city": "Haarlem",
		"country": "Nederland",
		"categories": [
			"Home (private)"
		]
	},
	{
		"date": "2019-03-17T13:28:59.000Z",
		"name": "Karwei",
		"id": "4b5b027ff964a520a9de28e3",
		"lat": 52.39005961436961,
		"lng": 4.626503810720334,
		"address": "Verspronckweg 63",
		"city": "Haarlem",
		"country": "Nederland",
		"categories": [
			"Hardware Store"
		]
	},
	{
		"date": "2019-03-17T14:22:59.000Z",
		"name": "Albert Heijn",
		"id": "4b9a4b64f964a52066aa35e3",
		"lat": 52.38445463709139,
		"lng": 4.635787640721933,
		"address": "Kruisstraat 10",
		"postalCode": "2011 PX",
		"city": "Haarlem",
		"country": "Nederland",
		"categories": [
			"Supermarket"
		]
	},
	{
		"date": "2019-03-18T17:43:05.000Z",
		"name": "Albert Heijn",
		"id": "4b9a4b64f964a52066aa35e3",
		"lat": 52.38445463709139,
		"lng": 4.635787640721933,
		"address": "Kruisstraat 10",
		"postalCode": "2011 PX",
		"city": "Haarlem",
		"country": "Nederland",
		"categories": [
			"Supermarket"
		]
	},
	{
		"date": "2019-03-19T17:53:27.000Z",
		"name": "Albert Heijn",
		"id": "4b9a4b64f964a52066aa35e3",
		"lat": 52.38445463709139,
		"lng": 4.635787640721933,
		"address": "Kruisstraat 10",
		"postalCode": "2011 PX",
		"city": "Haarlem",
		"country": "Nederland",
		"categories": [
			"Supermarket"
		]
	},
	{
		"date": "2019-03-19T20:09:59.000Z",
		"name": "Cotton Candy Residence 10",
		"id": "58cd4fe316f000799f4cf4f4",
		"lat": 52.392946926098126,
		"lng": 4.640537129468235,
		"city": "Haarlem",
		"country": "Nederland",
		"categories": [
			"Home (private)"
		]
	},
	{
		"date": "2019-03-20T06:56:29.000Z",
		"name": "Leiden Central Railway station (Station Leiden Centraal)",
		"id": "4ad44a63f964a5208be720e3",
		"lat": 52.166069721919676,
		"lng": 4.482098314771528,
		"address": "Stationsplein 3G",
		"postalCode": "2312 AJ",
		"city": "Leiden",
		"country": "Nederland",
		"categories": [
			"Train Station"
		]
	},
	{
		"date": "2019-03-20T07:23:21.000Z",
		"name": "Station Den Haag HS",
		"id": "4b4cb4cef964a52010bb26e3",
		"lat": 52.069526465311064,
		"lng": 4.321969398518046,
		"address": "Stationsplein 41",
		"postalCode": "2515 BV",
		"city": "Den Haag",
		"country": "Nederland",
		"categories": [
			"Train Station"
		]
	},
	{
		"date": "2019-03-20T07:32:10.000Z",
		"name": "Chinese Visa Application Service Center",
		"id": "4dc3971afa76d685cdb1b8c9",
		"lat": 52.07064064596745,
		"lng": 4.326183701198794,
		"address": "Rijswijkseweg 60",
		"city": "Den Haag",
		"country": "Nederland",
		"categories": [
			"Building"
		]
	},
	{
		"date": "2019-03-20T08:33:40.000Z",
		"name": "De Overkant",
		"id": "4b54bd89f964a520dec927e3",
		"lat": 52.07342384895624,
		"lng": 4.318696637026344,
		"address": "Stationsweg 32",
		"postalCode": "2515 BN",
		"city": "Den Haag",
		"country": "Nederland",
		"categories": [
			"Café",
			"Sandwich Place",
			"Breakfast Spot"
		]
	},
	{
		"date": "2019-03-20T09:30:19.000Z",
		"name": "Station Den Haag HS",
		"id": "4b4cb4cef964a52010bb26e3",
		"lat": 52.069526465311064,
		"lng": 4.321969398518046,
		"address": "Stationsplein 41",
		"postalCode": "2515 BV",
		"city": "Den Haag",
		"country": "Nederland",
		"categories": [
			"Train Station"
		]
	},
	{
		"date": "2019-03-20T10:25:59.000Z",
		"name": "Cotton Candy Residence 10",
		"id": "58cd4fe316f000799f4cf4f4",
		"lat": 52.392946926098126,
		"lng": 4.640537129468235,
		"city": "Haarlem",
		"country": "Nederland",
		"categories": [
			"Home (private)"
		]
	},
	{
		"date": "2019-03-22T15:39:27.000Z",
		"name": "Station Haarlem",
		"id": "4a8c3036f964a5203a0d20e3",
		"lat": 52.38801057573046,
		"lng": 4.638713550666082,
		"address": "Stationsplein 11 L",
		"postalCode": "2011 LR",
		"city": "Haarlem",
		"country": "Nederland",
		"categories": [
			"Train Station"
		]
	},
	{
		"date": "2019-03-22T16:39:01.000Z",
		"name": "Strand Bloemendaal",
		"id": "4bc9aea0511f95211009aec7",
		"lat": 52.40155918662464,
		"lng": 4.542601808013764,
		"address": "Zeeweg",
		"city": "Bloemendaal",
		"country": "Nederland",
		"categories": [
			"Beach",
			"Surf Spot"
		]
	},
	{
		"date": "2019-03-22T16:39:50.000Z",
		"name": "'t Eindpunt",
		"id": "4b794b5bf964a520adf22ee3",
		"lat": 52.402216964139726,
		"lng": 4.54426436490761,
		"address": "Zeeweg 82",
		"city": "Bloemendaal aan zee",
		"country": "Nederland",
		"categories": [
			"Diner"
		]
	},
	{
		"date": "2019-03-22T18:25:16.000Z",
		"name": "Station Haarlem",
		"id": "4a8c3036f964a5203a0d20e3",
		"lat": 52.38801057573046,
		"lng": 4.638713550666082,
		"address": "Stationsplein 11 L",
		"postalCode": "2011 LR",
		"city": "Haarlem",
		"country": "Nederland",
		"categories": [
			"Train Station"
		]
	},
	{
		"date": "2019-03-23T12:09:10.000Z",
		"name": "Action",
		"id": "4c1a06b66a21c9b6735dcb97",
		"lat": 52.391095588018075,
		"lng": 4.64856076516707,
		"address": "Werfstraat 11",
		"city": "Haarlem",
		"country": "Nederland",
		"categories": [
			"Discount Store"
		]
	},
	{
		"date": "2019-03-23T16:37:26.000Z",
		"name": "Albert Heijn",
		"id": "4b9a4b64f964a52066aa35e3",
		"lat": 52.38445463709139,
		"lng": 4.635787640721933,
		"address": "Kruisstraat 10",
		"postalCode": "2011 PX",
		"city": "Haarlem",
		"country": "Nederland",
		"categories": [
			"Supermarket"
		]
	},
	{
		"date": "2019-03-23T16:59:19.000Z",
		"name": "Cotton Candy Residence 10",
		"id": "58cd4fe316f000799f4cf4f4",
		"lat": 52.392946926098126,
		"lng": 4.640537129468235,
		"city": "Haarlem",
		"country": "Nederland",
		"categories": [
			"Home (private)"
		]
	},
	{
		"date": "2019-03-23T17:12:58.000Z",
		"name": "Station Haarlem",
		"id": "4a8c3036f964a5203a0d20e3",
		"lat": 52.38801057573046,
		"lng": 4.638713550666082,
		"address": "Stationsplein 11 L",
		"postalCode": "2011 LR",
		"city": "Haarlem",
		"country": "Nederland",
		"categories": [
			"Train Station"
		]
	},
	{
		"date": "2019-03-23T18:11:08.000Z",
		"name": "Strand Zandvoort aan Zee",
		"id": "4c2f344b3896e21e3978e390",
		"lat": 52.375486156134436,
		"lng": 4.525765926071059,
		"address": "Boulevard de Favauge",
		"city": "Zandvoort",
		"country": "Nederland",
		"categories": [
			"Beach"
		]
	},
	{
		"date": "2019-03-23T18:11:20.000Z",
		"name": "Passage, Zandvoort",
		"id": "5049ff43e4b0e6163543006d",
		"lat": 52.37494091701734,
		"lng": 4.528991312184849,
		"address": "Passage",
		"city": "Zandvoort",
		"country": "Nederland",
		"categories": [
			"Plaza"
		]
	},
	{
		"date": "2019-03-23T18:21:59.000Z",
		"name": "Station Zandvoort aan Zee",
		"id": "4b235a53f964a5205c5524e3",
		"lat": 52.3757860855875,
		"lng": 4.531738906725922,
		"address": "Stationsplein 6",
		"postalCode": "2041AB",
		"city": "Zandvoort",
		"country": "Nederland",
		"categories": [
			"Train Station"
		]
	},
	{
		"date": "2019-03-24T06:40:39.000Z",
		"name": "Shell",
		"id": "4b8d465ff964a52059f132e3",
		"lat": 52.162643528255856,
		"lng": 4.555212475122647,
		"address": "Rijksweg A4",
		"postalCode": "2351",
		"city": "Leiderdorp",
		"country": "Nederland",
		"categories": [
			"Gas Station"
		]
	},
	{
		"date": "2019-03-24T09:16:07.000Z",
		"name": "Worldhotel Wings",
		"id": "55158cd1498eedf961db39c8",
		"lat": 51.94769560090008,
		"lng": 4.435011405568085,
		"address": "Rotterdam Airportplein 55",
		"postalCode": "3045 AP",
		"city": "Rotterdam",
		"country": "Nederland",
		"categories": [
			"Hotel"
		]
	},
	{
		"date": "2019-03-24T09:29:18.000Z",
		"name": "restaurant wings",
		"id": "58c43f3fd32b4460ba7b0eb1",
		"lat": 51.947896,
		"lng": 4.434707,
		"country": "Nederland",
		"categories": [
			"Dutch Restaurant"
		]
	},
	{
		"date": "2019-03-24T14:19:45.000Z",
		"name": "Zestienhoven",
		"id": "5314b053e4b0d805d372e1f3",
		"lat": 51.94889574876543,
		"lng": 4.436604182898278,
		"country": "Nederland",
		"categories": [
			"Neighborhood"
		]
	},
	{
		"date": "2019-03-24T16:39:38.000Z",
		"name": "McDonald's",
		"id": "4e60a76c18a8ce02fc0cbed0",
		"lat": 51.98179096263478,
		"lng": 4.451136374400716,
		"address": "Celsiusstraat 20",
		"postalCode": "2652 XT",
		"city": "Berkel en Rodenrijs",
		"country": "Nederland",
		"categories": [
			"Fast Food Restaurant",
			"Burger Joint"
		]
	},
	{
		"date": "2019-03-25T13:08:08.000Z",
		"name": "Prinsen Bolwerk Park",
		"id": "4e04bb19e4cd92cb899e6705",
		"lat": 52.389006563359246,
		"lng": 4.639282269040078,
		"city": "Haarlem",
		"country": "Nederland",
		"categories": [
			"Park"
		]
	},
	{
		"date": "2019-03-25T13:21:19.000Z",
		"name": "Medidental",
		"id": "4c73c3504bc4236af3a5ce7a",
		"lat": 52.38542273425579,
		"lng": 4.620555639266968,
		"address": "Zijlweg 148C",
		"postalCode": "2015 BJ",
		"city": "Haarlem",
		"country": "Nederland",
		"categories": [
			"Dentist's Office"
		]
	},
	{
		"date": "2019-03-25T19:47:34.000Z",
		"name": "Aan de (Nieuwe)Gracht",
		"id": "4dadb3a9fa8cf64d804e00af",
		"lat": 52.385038012286394,
		"lng": 4.638014586966368,
		"address": "Nieuwe Gracht",
		"postalCode": "2011NM",
		"city": "Haarlem",
		"country": "Nederland",
		"categories": [
			"Other Great Outdoors"
		]
	},
	{
		"date": "2019-03-26T07:18:15.000Z",
		"name": "Den Haag Centraal Railway Station (Station Den Haag Centraal)",
		"id": "4aeff0e3f964a52060da21e3",
		"lat": 52.08121937964098,
		"lng": 4.32461878275475,
		"address": "Koningin Julianaplein 10",
		"postalCode": "2595 AA",
		"city": "Den Haag",
		"country": "Nederland",
		"categories": [
			"Train Station"
		]
	},
	{
		"date": "2019-03-26T07:38:46.000Z",
		"name": "Chinese Visa Application Service Center",
		"id": "4dc3971afa76d685cdb1b8c9",
		"lat": 52.07064064596745,
		"lng": 4.326183701198794,
		"address": "Rijswijkseweg 60",
		"city": "Den Haag",
		"country": "Nederland",
		"categories": [
			"Building"
		]
	},
	{
		"date": "2019-03-26T08:27:21.000Z",
		"name": "Station Den Haag HS",
		"id": "4b4cb4cef964a52010bb26e3",
		"lat": 52.069526465311064,
		"lng": 4.321969398518046,
		"address": "Stationsplein 41",
		"postalCode": "2515 BV",
		"city": "Den Haag",
		"country": "Nederland",
		"categories": [
			"Train Station"
		]
	},
	{
		"date": "2019-03-26T08:43:10.000Z",
		"name": "Den Haag Centraal Railway Station (Station Den Haag Centraal)",
		"id": "4aeff0e3f964a52060da21e3",
		"lat": 52.08121937964098,
		"lng": 4.32461878275475,
		"address": "Koningin Julianaplein 10",
		"postalCode": "2595 AA",
		"city": "Den Haag",
		"country": "Nederland",
		"categories": [
			"Train Station"
		]
	},
	{
		"date": "2019-03-26T17:37:49.000Z",
		"name": "Smaczek Supermarkt",
		"id": "51a8ce66498e2a3950a1f59a",
		"lat": 52.38538961759218,
		"lng": 4.623798493293825,
		"address": "Zijlweg 97",
		"city": "Haarlem",
		"country": "Nederland",
		"categories": [
			"Grocery Store"
		]
	},
	{
		"date": "2019-03-28T20:06:23.000Z",
		"name": "Ramen Brothers Noodle Bar",
		"id": "5b4e2b63a42362002c42fc59",
		"lat": 52.384228,
		"lng": 4.6355,
		"address": "Nassaustraat 13",
		"postalCode": "2011 PH",
		"city": "Haarlem",
		"country": "Nederland",
		"categories": [
			"Noodle House"
		]
	},
	{
		"date": "2019-03-29T17:08:48.000Z",
		"name": "Albert Heijn",
		"id": "4b9a4b64f964a52066aa35e3",
		"lat": 52.38445463709139,
		"lng": 4.635787640721933,
		"address": "Kruisstraat 10",
		"postalCode": "2011 PX",
		"city": "Haarlem",
		"country": "Nederland",
		"categories": [
			"Supermarket"
		]
	},
	{
		"date": "2019-03-29T17:40:31.000Z",
		"name": "India Palace",
		"id": "4c5057673a6f2d7f60a06877",
		"lat": 52.38126838250037,
		"lng": 4.632222643743207,
		"address": "Gedempte Oude Gracht 29",
		"postalCode": "2011 GL",
		"city": "Haarlem",
		"country": "Nederland",
		"categories": [
			"Indian Restaurant"
		]
	},
	{
		"date": "2019-03-29T19:22:23.000Z",
		"name": "Charlie's",
		"id": "569e9255498eadfa439e84d0",
		"lat": 52.379872,
		"lng": 4.631469,
		"country": "Nederland",
		"categories": [
			"Hookah Bar"
		]
	},
	{
		"date": "2019-03-30T10:56:24.000Z",
		"name": "Albert Heijn to go",
		"id": "4b862ee0f964a520038231e3",
		"lat": 52.38851437453483,
		"lng": 4.639542485412089,
		"address": "Stationsplein 14",
		"postalCode": "2011 LR",
		"city": "Haarlem",
		"country": "Nederland",
		"categories": [
			"Convenience Store"
		]
	},
	{
		"date": "2019-03-30T12:22:41.000Z",
		"name": "Cotton Candy Residence 10",
		"id": "58cd4fe316f000799f4cf4f4",
		"lat": 52.392946926098126,
		"lng": 4.640537129468235,
		"city": "Haarlem",
		"country": "Nederland",
		"categories": [
			"Home (private)"
		]
	},
	{
		"date": "2019-03-30T14:36:47.000Z",
		"name": "Stationsplein",
		"id": "4d9b27d55e52224b50293ce3",
		"lat": 52.387322505020094,
		"lng": 4.637520650266529,
		"address": "Jansweg 40",
		"city": "Haarlem",
		"country": "Nederland",
		"categories": [
			"Parking"
		]
	},
	{
		"date": "2019-03-30T15:12:30.000Z",
		"name": "Vogelenzang",
		"id": "4e0decdd22711665f60f4b1e",
		"lat": 52.31980245736436,
		"lng": 4.576973901886137,
		"country": "Nederland",
		"categories": [
			"City"
		]
	},
	{
		"date": "2019-03-30T15:19:24.000Z",
		"name": "Annemiekes Pluktuin",
		"id": "4db53f514df05e5aaaedfd95",
		"lat": 52.311834209018876,
		"lng": 4.5877020434336835,
		"city": "Hillegom",
		"country": "Nederland",
		"categories": [
			"Garden"
		]
	},
	{
		"date": "2019-03-30T16:31:42.000Z",
		"name": "Mesdaglaan",
		"id": "5956040cb37e2b6d59ea5665",
		"lat": 52.282493,
		"lng": 4.579516,
		"postalCode": "2182 SX",
		"city": "Hillegom",
		"country": "Nederland",
		"categories": [
			"Neighborhood"
		]
	},
	{
		"date": "2019-03-30T17:12:28.000Z",
		"name": "Tuincentrum Overvecht",
		"id": "4c22254d13c00f4740fa86de",
		"lat": 52.2500735556037,
		"lng": 4.543672110624951,
		"address": "Heereweg 350",
		"postalCode": "2161 CC",
		"city": "Lisse",
		"country": "Nederland",
		"categories": [
			"Flower Shop"
		]
	},
	{
		"date": "2019-03-30T17:12:47.000Z",
		"name": "Huys Dever",
		"id": "4c9a08f478ffa09306c36875",
		"lat": 52.25410676467183,
		"lng": 4.549322451617476,
		"address": "Heereweg",
		"city": "Lisse",
		"country": "Nederland",
		"categories": [
			"History Museum"
		]
	},
	{
		"date": "2019-03-30T17:34:07.000Z",
		"name": "De Tulperij",
		"id": "57230bf3498e3ca50df34e37",
		"lat": 52.239443,
		"lng": 4.524977,
		"address": "Oude Herenweg 16B",
		"city": "Voorhout",
		"country": "Nederland",
		"categories": [
			"Flower Shop",
			"Other Great Outdoors",
			"Field"
		]
	},
	{
		"date": "2019-03-30T18:21:23.000Z",
		"name": "McDonald's",
		"id": "4b78064ef964a52081b22ee3",
		"lat": 52.35751194490133,
		"lng": 4.653410657795234,
		"address": "Rivièraplein 9",
		"postalCode": "2037 AS",
		"city": "Haarlem",
		"country": "Nederland",
		"categories": [
			"Fast Food Restaurant",
			"Burger Joint",
			"Restaurant"
		]
	},
	{
		"date": "2019-03-30T19:09:06.000Z",
		"name": "Aan de (Nieuwe)Gracht",
		"id": "4dadb3a9fa8cf64d804e00af",
		"lat": 52.385038012286394,
		"lng": 4.638014586966368,
		"address": "Nieuwe Gracht",
		"postalCode": "2011NM",
		"city": "Haarlem",
		"country": "Nederland",
		"categories": [
			"Other Great Outdoors"
		]
	},
	{
		"date": "2019-03-31T05:14:04.000Z",
		"name": "Amsterdam Airport Schiphol (AMS)",
		"id": "4a84e798f964a520defd1fe3",
		"lat": 52.3085704596075,
		"lng": 4.762122631072998,
		"address": "Aankomstpassage",
		"postalCode": "1118 CP",
		"city": "Schiphol",
		"country": "Nederland",
		"categories": [
			"Airport"
		]
	},
	{
		"date": "2019-03-31T05:29:42.000Z",
		"name": "Juicy Details",
		"id": "4dc017f96e8124d25dc4ac0a",
		"lat": 52.30655820626184,
		"lng": 4.765211678250373,
		"address": "Lounge 1",
		"city": "1117 ZN  Schiphol The Netherla",
		"country": "Nederland",
		"categories": [
			"Juice Bar"
		]
	},
	{
		"date": "2019-03-31T06:12:42.000Z",
		"name": "Grand Café Het Paleis",
		"id": "4c9bb4d29975a143f3a22bcf",
		"lat": 52.308210946733915,
		"lng": 4.765472099761802,
		"address": "Lounge 1",
		"postalCode": "1117 ZN",
		"city": "Schiphol",
		"country": "Nederland",
		"categories": [
			"Café",
			"Restaurant"
		]
	},
	{
		"date": "2019-03-31T06:24:51.000Z",
		"name": "Gate C8",
		"id": "4b7ba9edf964a5203e6a2fe3",
		"lat": 52.305717128188235,
		"lng": 4.765924064172704,
		"address": "Concourse C",
		"city": "Schiphol",
		"country": "Nederland",
		"categories": [
			"Airport Gate"
		]
	},
	{
		"date": "2019-03-31T06:25:19.000Z",
		"name": "Concourse C (Pier C)",
		"id": "4f285964e4b0c67a18fb8f80",
		"lat": 52.30612139312824,
		"lng": 4.765459151165231,
		"address": "AMS Airport",
		"city": "Hoofddorp",
		"country": "Nederland",
		"categories": [
			"Airport Terminal"
		]
	},
	{
		"date": "2019-03-31T08:53:52.000Z",
		"name": "Budapest Liszt Ferenc International Airport (BUD) (Budapest Liszt Ferenc nemzetközi repülőtér)",
		"id": "4b61c2daf964a5200f212ae3",
		"lat": 47.43090022934757,
		"lng": 19.260798463708202,
		"address": "Budapest Airport",
		"postalCode": "1185",
		"city": "Budapest",
		"country": "Magyarország",
		"categories": [
			"Airport"
		]
	},
	{
		"date": "2019-03-31T08:54:27.000Z",
		"name": "Gate A8",
		"id": "4e48a11ea809fb2fa4086583",
		"lat": 47.4339025004646,
		"lng": 19.26240215651171,
		"address": "Terminal 2A",
		"city": "Budapest",
		"country": "Magyarország",
		"categories": [
			"Airport Gate"
		]
	},
	{
		"date": "2019-03-31T09:04:31.000Z",
		"name": "Terminal 2A",
		"id": "4c25aa535c5ca59357e044fe",
		"lat": 47.433124251820495,
		"lng": 19.262262161509078,
		"address": "BUD Nemzetközi Repülőtér",
		"postalCode": "1185",
		"city": "Budapest",
		"country": "Magyarország",
		"categories": [
			"Airport Terminal"
		]
	},
	{
		"date": "2019-03-31T09:35:16.000Z",
		"name": "Ferenciek tere",
		"id": "4bddaa1d0ee3a593ee212eb0",
		"lat": 47.49305898169077,
		"lng": 19.055346250534054,
		"address": "Ferenciek tere",
		"postalCode": "1051",
		"city": "Budapest",
		"country": "Magyarország",
		"categories": [
			"Plaza"
		]
	},
	{
		"date": "2019-03-31T09:52:28.000Z",
		"name": "Tipton Showroom: Vinylize, Cinematiq, NVSBL",
		"id": "59cd1e7ef5e9d71c43e24b09",
		"lat": 47.491867,
		"lng": 19.056314,
		"address": "Irányi utca 20.",
		"postalCode": "1056",
		"city": "Budapest",
		"country": "Magyarország",
		"categories": [
			"Accessories Store",
			"Optical Shop"
		]
	},
	{
		"date": "2019-03-31T10:07:56.000Z",
		"name": "Napfényes Étterem és Cukrászda",
		"id": "55170a79498eeca2fd28cd41",
		"lat": 47.492317,
		"lng": 19.055124,
		"address": "Ferenciek tere 2.",
		"postalCode": "1053",
		"city": "Budapest",
		"country": "Magyarország",
		"categories": [
			"Vegetarian / Vegan Restaurant",
			"Hungarian Restaurant"
		]
	},
	{
		"date": "2019-03-31T10:54:26.000Z",
		"name": "Astoria",
		"id": "4bd4c6e9cfa7b71372d924da",
		"lat": 47.49432382237377,
		"lng": 19.060097205975598,
		"address": "Astoria",
		"postalCode": "1088",
		"city": "Budapest",
		"country": "Magyarország",
		"categories": [
			"Plaza"
		]
	},
	{
		"date": "2019-03-31T10:54:34.000Z",
		"name": "Astoria (M2)",
		"id": "4c687ba67963be9a44b6cdbc",
		"lat": 47.49450881263456,
		"lng": 19.060184955596924,
		"address": "Astoria",
		"postalCode": "1072",
		"city": "Budapest",
		"country": "Magyarország",
		"categories": [
			"Metro Station"
		]
	},
	{
		"date": "2019-03-31T11:27:34.000Z",
		"name": "Expo Congress Hotel Budapest",
		"id": "4bd1a6f95e0cce72efc8a184",
		"lat": 47.4933973371665,
		"lng": 19.1217436917344,
		"address": "Expo tér 2.",
		"postalCode": "1101",
		"city": "Budapest",
		"country": "Magyarország",
		"categories": [
			"Hotel"
		]
	},
	{
		"date": "2019-03-31T13:33:52.000Z",
		"name": "Kincsem Park",
		"id": "4bcfef2fa8b3a5931326635f",
		"lat": 47.499227735163,
		"lng": 19.12144660949707,
		"address": "Albertirsai út 2-4.",
		"postalCode": "1101",
		"city": "Budapest",
		"country": "Magyarország",
		"categories": [
			"Track Stadium"
		]
	},
	{
		"date": "2019-03-31T14:16:19.000Z",
		"name": "Southern Railway Station (Déli pályaudvar)",
		"id": "4b669af9f964a52056252be3",
		"lat": 47.499764114259754,
		"lng": 19.024876356124878,
		"address": "Krisztina körút 37.",
		"postalCode": "1013",
		"city": "Budapest",
		"country": "Magyarország",
		"categories": [
			"Train Station"
		]
	},
	{
		"date": "2019-03-31T14:19:32.000Z",
		"name": "12. vágány",
		"id": "52457cf711d2fc5b247bf929",
		"lat": 47.49915791087615,
		"lng": 19.024191328776194,
		"address": "Déli pályaudvar",
		"city": "Budapest",
		"country": "Magyarország",
		"categories": [
			"Platform"
		]
	},
	{
		"date": "2019-03-31T14:56:24.000Z",
		"name": "Bicske vasútállomás",
		"id": "4d5971671d4a8cfa4f868ced",
		"lat": 47.48415800008105,
		"lng": 18.618451785857097,
		"address": "Móricz Zsigmond u.",
		"city": "Bicske",
		"country": "Magyarország",
		"categories": [
			"Train Station"
		]
	},
	{
		"date": "2019-03-31T15:38:49.000Z",
		"name": "Családok parkja",
		"id": "4e3c0ca6c65b4ec275cee904",
		"lat": 47.48993768448823,
		"lng": 18.61881590842718,
		"address": "Tatai út",
		"postalCode": "2060",
		"city": "Bicske",
		"country": "Magyarország",
		"categories": [
			"Park"
		]
	},
	{
		"date": "2019-03-31T16:25:17.000Z",
		"name": "Felcsút",
		"id": "4e86eb35d22d46fdf13d1426",
		"lat": 47.4626166142017,
		"lng": 18.584716986352326,
		"postalCode": "8086",
		"country": "Magyarország",
		"categories": [
			"City"
		]
	},
	{
		"date": "2019-03-31T16:35:33.000Z",
		"name": "Pancho Aréna",
		"id": "5353d763498eb5c7148f3b43",
		"lat": 47.46398391144527,
		"lng": 18.586660397816566,
		"address": "Fő u. 176.",
		"postalCode": "8086",
		"city": "Felcsút",
		"country": "Magyarország",
		"categories": [
			"Soccer Stadium"
		]
	},
	{
		"date": "2019-03-31T18:08:14.000Z",
		"name": "Baracska megállóhely",
		"id": "4d44081414aa8cfa209f613d",
		"lat": 47.2982180322799,
		"lng": 18.755243626146257,
		"city": "Baracska",
		"country": "Magyarország",
		"categories": [
			"Train Station"
		]
	},
	{
		"date": "2019-03-31T18:09:15.000Z",
		"name": "Baracska",
		"id": "4d946fa10f604eb917f85539",
		"lat": 47.286417162823554,
		"lng": 18.75591991065491,
		"postalCode": "2471",
		"country": "Magyarország",
		"categories": [
			"City"
		]
	},
	{
		"date": "2019-03-31T22:11:00.000Z",
		"name": "Expo Congress Hotel Budapest",
		"id": "4bd1a6f95e0cce72efc8a184",
		"lat": 47.4933973371665,
		"lng": 19.1217436917344,
		"address": "Expo tér 2.",
		"postalCode": "1101",
		"city": "Budapest",
		"country": "Magyarország",
		"categories": [
			"Hotel"
		]
	}
]