[
	{
		"date": "2018-02-28T12:16+0100",
		"name": "Albert Heijn to go",
		"id": "4b862ee0f964a520038231e3",
		"lat": 52.38851437453483,
		"lng": 4.639542485412089,
		"address": "Stationsplein 14",
		"postalCode": "2011 LR",
		"city": "Haarlem",
		"country": "Nederland",
		"categories": ["Convenience Store"]
	},
	{
		"date": "2018-02-26T23:12+0100",
		"name": "Station Amsterdam Centraal",
		"id": "4a688ba1f964a52088ca1fe3",
		"lat": 52.37878224866535,
		"lng": 4.900374412536621,
		"address": "Stationsplein 15",
		"postalCode": "1012 AB",
		"city": "Amsterdam",
		"country": "Nederland",
		"categories": ["Train Station"]
	},
	{
		"date": "2018-02-26T22:50+0100",
		"name": "Wok to Walk",
		"id": "4a2707e2f964a5201a8f1fe3",
		"lat": 52.36467652071543,
		"lng": 4.883655931845822,
		"address": "Leidsestraat 96",
		"postalCode": "1017 PE",
		"city": "Amsterdam",
		"country": "Nederland",
		"categories": ["Noodle House", "Asian Restaurant"]
	},
	{
		"date": "2018-02-26T22:08+0100",
		"name": "Paradiso",
		"id": "4a27db90f964a5208e941fe3",
		"lat": 52.362211976479415,
		"lng": 4.883990787800385,
		"address": "Weteringschans 6-8",
		"postalCode": "1017 SG",
		"city": "Amsterdam",
		"country": "Nederland",
		"categories": ["Music Venue", "Nightclub", "Rock Club"]
	},
	{
		"date": "2018-02-25T01:10+0100",
		"name": "Station Amsterdam Centraal",
		"id": "4a688ba1f964a52088ca1fe3",
		"lat": 52.37878224866535,
		"lng": 4.900374412536621,
		"address": "Stationsplein 15",
		"postalCode": "1012 AB",
		"city": "Amsterdam",
		"country": "Nederland",
		"categories": ["Train Station"]
	},
	{
		"date": "2018-02-24T23:18+0100",
		"name": "Paradiso",
		"id": "4a27db90f964a5208e941fe3",
		"lat": 52.362211976479415,
		"lng": 4.883990787800385,
		"address": "Weteringschans 6-8",
		"postalCode": "1017 SG",
		"city": "Amsterdam",
		"country": "Nederland",
		"categories": ["Music Venue", "Nightclub", "Rock Club"]
	},
	{
		"date": "2018-02-24T23:05+0100",
		"name": "Leidseplein",
		"id": "4a47d9d4f964a5202faa1fe3",
		"lat": 52.36418991839732,
		"lng": 4.882776670500653,
		"address": "Leidseplein",
		"postalCode": "1017",
		"city": "Amsterdam",
		"country": "Nederland",
		"categories": ["Plaza"]
	},
	{
		"date": "2018-02-24T22:44+0100",
		"name": "Station Amsterdam Centraal",
		"id": "4a688ba1f964a52088ca1fe3",
		"lat": 52.37878224866535,
		"lng": 4.900374412536621,
		"address": "Stationsplein 15",
		"postalCode": "1012 AB",
		"city": "Amsterdam",
		"country": "Nederland",
		"categories": ["Train Station"]
	},
	{
		"date": "2018-02-24T22:22+0100",
		"name": "Station Haarlem",
		"id": "4a8c3036f964a5203a0d20e3",
		"lat": 52.387919728928985,
		"lng": 4.638276517449355,
		"address": "Stationsplein 11 L",
		"postalCode": "2011 LR",
		"city": "Haarlem",
		"country": "Nederland",
		"categories": ["Train Station"]
	},
	{
		"date": "2018-02-23T12:44+0100",
		"name": "The Döner Company",
		"id": "4d790928a56e37040e5d7567",
		"lat": 52.38817372624091,
		"lng": 4.63927902305991,
		"address": "Station Haarlem",
		"postalCode": "2011 LR",
		"city": "Haarlem",
		"country": "Nederland",
		"categories": [
			"Doner Restaurant",
			"Falafel Restaurant",
			"Kebab Restaurant"
		]
	},
	{
		"date": "2018-02-22T12:16+0100",
		"name": "The Döner Company",
		"id": "4d790928a56e37040e5d7567",
		"lat": 52.38817372624091,
		"lng": 4.63927902305991,
		"address": "Station Haarlem",
		"postalCode": "2011 LR",
		"city": "Haarlem",
		"country": "Nederland",
		"categories": [
			"Doner Restaurant",
			"Falafel Restaurant",
			"Kebab Restaurant"
		]
	},
	{
		"date": "2018-02-21T18:53+0100",
		"name": "Karwei",
		"id": "4b5b027ff964a520a9de28e3",
		"lat": 52.39005961436961,
		"lng": 4.626503810720334,
		"address": "Verspronckweg 63",
		"city": "Haarlem",
		"country": "Nederland",
		"categories": ["Hardware Store"]
	},
	{
		"date": "2018-02-18T02:03+0100",
		"name": "Busstation Schiphol",
		"id": "4b753feff964a520c4022ee3",
		"lat": 52.30917651298784,
		"lng": 4.761191874205899,
		"address": "Aankomstpassage",
		"postalCode": "1118 CP",
		"city": "Schiphol",
		"country": "Nederland",
		"categories": ["Bus Station"]
	},
	{
		"date": "2018-02-18T00:43+0100",
		"name": "Station Rotterdam Centraal",
		"id": "4ae19cc4f964a520678621e3",
		"lat": 51.9245095560998,
		"lng": 4.469324085531787,
		"address": "Stationssingel 10",
		"postalCode": "3013 HA",
		"city": "Rotterdam",
		"country": "Nederland",
		"categories": ["Train Station"]
	},
	{
		"date": "2018-02-17T23:19+0100",
		"name": "Cool",
		"id": "512330a5e4b0c9ac9e0ae242",
		"lat": 51.920853660040706,
		"lng": 4.476729870226323,
		"city": "Rotterdam",
		"country": "Nederland",
		"categories": ["Neighborhood"]
	},
	{
		"date": "2018-02-17T22:07+0100",
		"name": "Wunderbar",
		"id": "53564f67498e506aae882ca9",
		"lat": 51.91553100760962,
		"lng": 4.476518613422043,
		"address": "Boomgaardstraat 71",
		"postalCode": "3012 XE",
		"city": "Rotterdam",
		"country": "Nederland",
		"categories": ["Bar"]
	},
	{
		"date": "2018-02-17T22:07+0100",
		"name": "WORM",
		"id": "4c30915aed37a593ae046903",
		"lat": 51.91564622542384,
		"lng": 4.476397066924331,
		"address": "Boomgaardsstraat 71",
		"postalCode": "3012 XA",
		"city": "Rotterdam",
		"country": "Nederland",
		"categories": ["Music Venue", "Movie Theater", "Performing Arts Venue"]
	},
	{
		"date": "2018-02-17T21:28+0100",
		"name": "Station Schiedam Centrum",
		"id": "4b050003f964a520015722e3",
		"lat": 51.92158807767311,
		"lng": 4.4089405535975414,
		"address": "Horvathweg 1",
		"postalCode": "3112 HB",
		"city": "Schiedam",
		"country": "Nederland",
		"categories": ["Train Station"]
	},
	{
		"date": "2018-02-17T20:56+0100",
		"name": "Station Leiden Centraal",
		"id": "4ad44a63f964a5208be720e3",
		"lat": 52.16595875536465,
		"lng": 4.481879882685885,
		"address": "Stationsplein 3G",
		"postalCode": "2312 AJ",
		"city": "Leiden",
		"country": "Nederland",
		"categories": ["Train Station"]
	},
	{
		"date": "2018-02-17T20:37+0100",
		"name": "Station Haarlem",
		"id": "4a8c3036f964a5203a0d20e3",
		"lat": 52.387919728928985,
		"lng": 4.638276517449355,
		"address": "Stationsplein 11 L",
		"postalCode": "2011 LR",
		"city": "Haarlem",
		"country": "Nederland",
		"categories": ["Train Station"]
	},
	{
		"date": "2018-02-16T19:07+0100",
		"name": "Station Amsterdam Sloterdijk",
		"id": "4a56245ff964a52085b41fe3",
		"lat": 52.389038517725574,
		"lng": 4.838510921333843,
		"address": "Orlyplein 105",
		"postalCode": "1043 DT",
		"city": "Amsterdam",
		"country": "Nederland",
		"categories": ["Train Station"]
	},
	{
		"date": "2018-02-16T18:47+0100",
		"name": "Station Haarlem",
		"id": "4a8c3036f964a5203a0d20e3",
		"lat": 52.387919728928985,
		"lng": 4.638276517449355,
		"address": "Stationsplein 11 L",
		"postalCode": "2011 LR",
		"city": "Haarlem",
		"country": "Nederland",
		"categories": ["Train Station"]
	},
	{
		"date": "2018-02-15T23:13+0100",
		"name": "Burger King",
		"id": "4b3e3645f964a520939925e3",
		"lat": 52.38744848035656,
		"lng": 4.6376815692659425,
		"address": "Stationsplein 11J",
		"postalCode": "2011 LC",
		"city": "Haarlem",
		"country": "Nederland",
		"categories": ["Fast Food Restaurant"]
	},
	{
		"date": "2018-02-15T21:32+0100",
		"name": "Proeflokaal in den Uiver",
		"id": "4b13b8e7f964a520af9823e3",
		"lat": 52.3811345300534,
		"lng": 4.638170726115867,
		"address": "Riviervismarkt 13",
		"postalCode": "2011HJ",
		"city": "Haarlem",
		"country": "Nederland",
		"categories": ["Bar"]
	},
	{
		"date": "2018-02-14T09:59+0100",
		"name": "CIGO",
		"id": "4da04ae8bb206ea8fafed7fd",
		"lat": 52.38698266012458,
		"lng": 4.636698269208286,
		"address": "Kruisweg 37",
		"postalCode": "2011 LA",
		"city": "Haarlem",
		"country": "Nederland",
		"categories": ["Bookstore", "Smoke Shop"]
	},
	{
		"date": "2018-02-11T11:48+0100",
		"name": "Vomar Voordeelmarkt",
		"id": "4b72c969f964a52096882de3",
		"lat": 52.39127711020139,
		"lng": 4.649005288257338,
		"address": "Paul Krugerkade 22",
		"postalCode": "2021 BN",
		"city": "Haarlem",
		"country": "Nederland",
		"categories": ["Supermarket", "Grocery Store"]
	},
	{
		"date": "2018-02-11T11:28+0100",
		"name": "Noorder Buiten Spaarne",
		"id": "4d97172b0caaa1435e4088b3",
		"lat": 52.39058197589543,
		"lng": 4.649724404148142,
		"country": "Nederland",
		"categories": ["River"]
	},
	{
		"date": "2018-02-10T20:37+0100",
		"name": "Jai Bharat",
		"id": "4b86cc59f964a520189e31e3",
		"lat": 52.38078821895973,
		"lng": 4.637955013398734,
		"address": "Gedempte Oudegracht 21-23",
		"postalCode": "2011 GK",
		"city": "Haarlem",
		"country": "Nederland",
		"categories": ["Indian Restaurant"]
	},
	{
		"date": "2018-02-09T19:40+0100",
		"name": "MEZRAB",
		"id": "5228c35111d28e388537597a",
		"lat": 52.376035360650555,
		"lng": 4.927711955476004,
		"address": "Veemkade 576",
		"postalCode": "1019 BL",
		"city": "Amsterdam",
		"country": "Nederland",
		"categories": ["Performing Arts Venue", "Cultural Center"]
	},
	{
		"date": "2018-02-09T19:16+0100",
		"name": "Station Amsterdam Centraal",
		"id": "4a688ba1f964a52088ca1fe3",
		"lat": 52.37878224866535,
		"lng": 4.900374412536621,
		"address": "Stationsplein 15",
		"postalCode": "1012 AB",
		"city": "Amsterdam",
		"country": "Nederland",
		"categories": ["Train Station"]
	},
	{
		"date": "2018-02-09T12:34+0100",
		"name": "Station Haarlem",
		"id": "4a8c3036f964a5203a0d20e3",
		"lat": 52.387919728928985,
		"lng": 4.638276517449355,
		"address": "Stationsplein 11 L",
		"postalCode": "2011 LR",
		"city": "Haarlem",
		"country": "Nederland",
		"categories": ["Train Station"]
	},
	{
		"date": "2018-02-07T19:04+0100",
		"name": "Albert Heijn",
		"id": "4b9a4b64f964a52066aa35e3",
		"lat": 52.38445463709139,
		"lng": 4.635787640721933,
		"address": "Kruisstraat 10",
		"postalCode": "2011 PX",
		"city": "Haarlem",
		"country": "Nederland",
		"categories": ["Supermarket"]
	},
	{
		"date": "2018-02-04T20:14+0100",
		"name": "Sumo",
		"id": "50a7ba98e4b0740a17dedff7",
		"lat": 52.38125846452132,
		"lng": 4.638113814869877,
		"address": "Riviervismarkt 11",
		"postalCode": "2011 HJ",
		"city": "Haarlem",
		"country": "Nederland",
		"categories": ["Sushi Restaurant"]
	},
	{
		"date": "2018-02-04T13:55+0100",
		"name": "Vomar Voordeelmarkt",
		"id": "4b72c969f964a52096882de3",
		"lat": 52.39127711020139,
		"lng": 4.649005288257338,
		"address": "Paul Krugerkade 22",
		"postalCode": "2021 BN",
		"city": "Haarlem",
		"country": "Nederland",
		"categories": ["Supermarket", "Grocery Store"]
	},
	{
		"date": "2018-02-04T13:20+0100",
		"name": "Schatkamer CityLife",
		"id": "552fb6db498e5f41b0be73bf",
		"lat": 52.37975448488789,
		"lng": 4.637396023506427,
		"address": "Anegang 39",
		"postalCode": "2011HR",
		"city": "Haarlem",
		"country": "Nederland",
		"categories": ["Furniture / Home Store"]
	},
	{
		"date": "2018-02-04T12:40+0100",
		"name": "Home Stock",
		"id": "5479de1e498ecfcbffe5b573",
		"lat": 52.38154299620425,
		"lng": 4.631030875896852,
		"country": "Nederland",
		"categories": ["Furniture / Home Store"]
	},
	{
		"date": "2018-02-02T18:59+0100",
		"name": "The Döner Company",
		"id": "4d790928a56e37040e5d7567",
		"lat": 52.38817372624091,
		"lng": 4.63927902305991,
		"address": "Station Haarlem",
		"postalCode": "2011 LR",
		"city": "Haarlem",
		"country": "Nederland",
		"categories": [
			"Doner Restaurant",
			"Falafel Restaurant",
			"Kebab Restaurant"
		]
	},
	{
		"date": "2018-02-02T18:49+0100",
		"name": "Station Haarlem",
		"id": "4a8c3036f964a5203a0d20e3",
		"lat": 52.387919728928985,
		"lng": 4.638276517449355,
		"address": "Stationsplein 11 L",
		"postalCode": "2011 LR",
		"city": "Haarlem",
		"country": "Nederland",
		"categories": ["Train Station"]
	},
	{
		"date": "2018-02-02T17:45+0100",
		"name": "Action",
		"id": "4c1a06b66a21c9b6735dcb97",
		"lat": 52.391095588018075,
		"lng": 4.64856076516707,
		"address": "Werfstraat 11",
		"city": "Haarlem",
		"country": "Nederland",
		"categories": ["Discount Store"]
	},
	{
		"date": "2018-02-01T22:55+0100",
		"name": "Station Amsterdam Centraal",
		"id": "4a688ba1f964a52088ca1fe3",
		"lat": 52.37878224866535,
		"lng": 4.900374412536621,
		"address": "Stationsplein 15",
		"postalCode": "1012 AB",
		"city": "Amsterdam",
		"country": "Nederland",
		"categories": ["Train Station"]
	},
	{
		"date": "2018-02-01T18:31+0100",
		"name": "Paradiso",
		"id": "4a27db90f964a5208e941fe3",
		"lat": 52.362211976479415,
		"lng": 4.883990787800385,
		"address": "Weteringschans 6-8",
		"postalCode": "1017 SG",
		"city": "Amsterdam",
		"country": "Nederland",
		"categories": ["Music Venue", "Nightclub", "Rock Club"]
	},
	{
		"date": "2018-02-01T18:02+0100",
		"name": "Station Amsterdam Centraal",
		"id": "4a688ba1f964a52088ca1fe3",
		"lat": 52.37878224866535,
		"lng": 4.900374412536621,
		"address": "Stationsplein 15",
		"postalCode": "1012 AB",
		"city": "Amsterdam",
		"country": "Nederland",
		"categories": ["Train Station"]
	},
	{
		"date": "2018-02-01T17:39+0100",
		"name": "Station Haarlem",
		"id": "4a8c3036f964a5203a0d20e3",
		"lat": 52.387919728928985,
		"lng": 4.638276517449355,
		"address": "Stationsplein 11 L",
		"postalCode": "2011 LR",
		"city": "Haarlem",
		"country": "Nederland",
		"categories": ["Train Station"]
	}
]
