[
	{
		"date": "2018-09-30T23:12+0200",
		"name": "Budapest Liszt Ferenc 13L/31R Runway",
		"id": "58a74179297c163b9452ffb1",
		"lat": 47.43971,
		"lng": 19.2671,
		"city": "Budapest",
		"country": "Magyarország",
		"categories": ["Airport Service"]
	},
	{
		"date": "2018-09-30T23:12+0200",
		"name": "Budapest Liszt Ferenc International Airport (BUD) (Budapest Liszt Ferenc nemzetközi repülőtér)",
		"id": "4b61c2daf964a5200f212ae3",
		"lat": 47.4331855826648,
		"lng": 19.261276141427583,
		"address": "Budapest Airport",
		"postalCode": "1185",
		"city": "Budapest",
		"country": "Magyarország",
		"categories": ["Airport"]
	},
	{
		"date": "2018-09-30T20:35+0200",
		"name": "Gate D49",
		"id": "50460c62e4b0118370eafdc8",
		"lat": 52.30971514586294,
		"lng": 4.770983082685976,
		"address": "Concourse D",
		"city": "Schiphol",
		"country": "Nederland",
		"categories": ["Airport Gate"]
	},
	{
		"date": "2018-09-30T20:00+0200",
		"name": "Departures 1",
		"id": "4ba43205f964a520fa8a38e3",
		"lat": 52.30862885793512,
		"lng": 4.763721275893073,
		"address": "AMS Airport",
		"city": "Schiphol",
		"country": "Nederland",
		"categories": ["Airport Terminal"]
	},
	{
		"date": "2018-09-30T20:00+0200",
		"name": "Amsterdam Airport Schiphol (AMS) (Amsterdam Airport Schiphol)",
		"id": "4a84e798f964a520defd1fe3",
		"lat": 52.3085704596075,
		"lng": 4.762122631072998,
		"address": "Aankomstpassage",
		"postalCode": "1118 CP",
		"city": "Schiphol",
		"country": "Nederland",
		"categories": ["Airport"]
	},
	{
		"date": "2018-09-30T19:17+0200",
		"name": "Station Haarlem",
		"id": "4a8c3036f964a5203a0d20e3",
		"lat": 52.387919728928985,
		"lng": 4.638276517449355,
		"address": "Stationsplein 11 L",
		"postalCode": "2011 LR",
		"city": "Haarlem",
		"country": "Nederland",
		"categories": ["Train Station"]
	},
	{
		"date": "2018-09-29T23:01+0200",
		"name": "Station Leiden Centraal",
		"id": "4ad44a63f964a5208be720e3",
		"lat": 52.16620866818938,
		"lng": 4.481953051598592,
		"address": "Stationsplein 3G",
		"postalCode": "2312 AJ",
		"city": "Leiden",
		"country": "Nederland",
		"categories": ["Train Station"]
	},
	{
		"date": "2018-09-29T22:11+0200",
		"name": "Station Den Haag Centraal",
		"id": "4aeff0e3f964a52060da21e3",
		"lat": 52.08091606380144,
		"lng": 4.324436820886615,
		"address": "Koningin Julianaplein 10",
		"postalCode": "2595 AA",
		"city": "Den Haag",
		"country": "Nederland",
		"categories": ["Train Station"]
	},
	{
		"date": "2018-09-29T20:51+0200",
		"name": "Kompaan Beer Bar",
		"id": "55d50069498edddedca40343",
		"lat": 52.06703060180698,
		"lng": 4.346280706227858,
		"address": "Saturnusstraat 55",
		"postalCode": "2516 AE",
		"city": "Den Haag",
		"country": "Nederland",
		"categories": ["Beer Garden", "Brewery", "Beer Bar"]
	},
	{
		"date": "2018-09-29T16:07+0200",
		"name": "Stichting De Besturing",
		"id": "4c285fd7fe6e2d7f9926533c",
		"lat": 52.066250700748704,
		"lng": 4.3452835590560035,
		"address": "Saturnusstraat 91",
		"city": "Den Haag",
		"country": "Nederland",
		"categories": ["Other Nightlife"]
	},
	{
		"date": "2018-09-29T15:34+0200",
		"name": "Station Den Haag Centraal",
		"id": "4aeff0e3f964a52060da21e3",
		"lat": 52.08091606380144,
		"lng": 4.324436820886615,
		"address": "Koningin Julianaplein 10",
		"postalCode": "2595 AA",
		"city": "Den Haag",
		"country": "Nederland",
		"categories": ["Train Station"]
	},
	{
		"date": "2018-09-29T15:14+0200",
		"name": "Salsa Shop",
		"id": "5a8834020d173f4c23e4ec76",
		"lat": 52.078992,
		"lng": 4.315534,
		"postalCode": "2511 CM",
		"city": "Den Haag",
		"country": "Nederland",
		"categories": ["Mexican Restaurant"]
	},
	{
		"date": "2018-09-29T15:04+0200",
		"name": "Hometown Coffee",
		"id": "5184d1e0498e495edd2097af",
		"lat": 52.07862532126274,
		"lng": 4.310432408854872,
		"address": "Buitenhof 4",
		"postalCode": "2513 AG",
		"city": "Den Haag",
		"country": "Nederland",
		"categories": ["Coffee Shop"]
	},
	{
		"date": "2018-09-29T12:45+0200",
		"name": "Buitenhof",
		"id": "4bd9d6c23f01c9b6f15653a5",
		"lat": 52.07887960807143,
		"lng": 4.310503005981445,
		"address": "Buitenhof",
		"postalCode": "2513 AA",
		"city": "Den Haag",
		"country": "Nederland",
		"categories": ["Plaza", "Scenic Lookout"]
	},
	{
		"date": "2018-09-29T12:15+0200",
		"name": "Stichting De Besturing",
		"id": "4c285fd7fe6e2d7f9926533c",
		"lat": 52.066250700748704,
		"lng": 4.3452835590560035,
		"address": "Saturnusstraat 91",
		"city": "Den Haag",
		"country": "Nederland",
		"categories": ["Other Nightlife"]
	},
	{
		"date": "2018-09-29T10:41+0200",
		"name": "Station Heemstede-Aerdenhout",
		"id": "4b1bb7a6f964a520dcfc23e3",
		"lat": 52.3596148535635,
		"lng": 4.606833457946777,
		"address": "Zandvoortselaan 153",
		"postalCode": "2106 AM",
		"city": "Heemstede",
		"country": "Nederland",
		"categories": ["Train Station"]
	},
	{
		"date": "2018-09-28T17:48+0200",
		"name": "HEMA",
		"id": "4b210645f964a520213624e3",
		"lat": 52.383033153121,
		"lng": 4.635406049613837,
		"address": "Kruisstraat 51",
		"postalCode": "2011 PW",
		"city": "Haarlem",
		"country": "Nederland",
		"categories": ["Department Store"]
	},
	{
		"date": "2018-09-28T16:51+0200",
		"name": "America Today",
		"id": "4bb5d8822ea195212dceaa2f",
		"lat": 52.38462493461905,
		"lng": 4.636135815009982,
		"address": "Kruisstraat 3-5",
		"postalCode": "2011 PV",
		"city": "Haarlem",
		"country": "Nederland",
		"categories": ["Clothing Store"]
	},
	{
		"date": "2018-09-27T19:42+0200",
		"name": "Zara",
		"id": "520a45ba11d25973ec7d9563",
		"lat": 52.37882571647906,
		"lng": 4.633192845197722,
		"country": "Nederland",
		"categories": ["Clothing Store"]
	},
	{
		"date": "2018-09-27T19:05+0200",
		"name": "America Today",
		"id": "4bb5d8822ea195212dceaa2f",
		"lat": 52.38462493461905,
		"lng": 4.636135815009982,
		"address": "Kruisstraat 3-5",
		"postalCode": "2011 PV",
		"city": "Haarlem",
		"country": "Nederland",
		"categories": ["Clothing Store"]
	},
	{
		"date": "2018-09-26T19:45+0200",
		"name": "Albert Heijn",
		"id": "4b9a4b64f964a52066aa35e3",
		"lat": 52.38445463709139,
		"lng": 4.635787640721933,
		"address": "Kruisstraat 10",
		"postalCode": "2011 PX",
		"city": "Haarlem",
		"country": "Nederland",
		"categories": ["Supermarket"]
	},
	{
		"date": "2018-09-26T12:23+0200",
		"name": "SUBWAY",
		"id": "4e899f5e9a52f9bbd0e654b4",
		"lat": 52.38297200404556,
		"lng": 4.6351964166808415,
		"address": "Krocht 12",
		"postalCode": "2011 PT",
		"city": "Haarlem",
		"country": "Nederland",
		"categories": ["Sandwich Place"]
	},
	{
		"date": "2018-09-25T19:55+0200",
		"name": "Albert Heijn",
		"id": "4b9a4b64f964a52066aa35e3",
		"lat": 52.38445463709139,
		"lng": 4.635787640721933,
		"address": "Kruisstraat 10",
		"postalCode": "2011 PX",
		"city": "Haarlem",
		"country": "Nederland",
		"categories": ["Supermarket"]
	},
	{
		"date": "2018-09-22T20:55+0200",
		"name": "wagamama",
		"id": "556f298b498eedd7a7f6d003",
		"lat": 52.38018271645732,
		"lng": 4.899809676645096,
		"address": "De Ruijterkade 36b",
		"postalCode": "1012 AA",
		"city": "Amsterdam",
		"country": "Nederland",
		"categories": [
			"Asian Restaurant",
			"Japanese Restaurant",
			"Noodle House"
		]
	},
	{
		"date": "2018-09-22T18:04+0200",
		"name": "A Lab",
		"id": "5146ca8839506e11693208c9",
		"lat": 52.38412942410828,
		"lng": 4.902976155281067,
		"address": "Overhoeksplein 2",
		"postalCode": "1031 KS",
		"city": "Amsterdam",
		"country": "Nederland",
		"categories": ["Coworking Space"]
	},
	{
		"date": "2018-09-22T17:34+0200",
		"name": "EXKi",
		"id": "55bcab58498e40dc86611d61",
		"lat": 52.38012820199767,
		"lng": 4.900088066696967,
		"address": "De Ruiterkade 48",
		"postalCode": "1012 AA",
		"city": "Amsterdam",
		"country": "Nederland",
		"categories": ["Vegetarian / Vegan Restaurant"]
	},
	{
		"date": "2018-09-22T17:23+0200",
		"name": "Station Amsterdam Centraal",
		"id": "4a688ba1f964a52088ca1fe3",
		"lat": 52.37878224866535,
		"lng": 4.900374412536621,
		"address": "Stationsplein 15",
		"postalCode": "1012 AB",
		"city": "Amsterdam",
		"country": "Nederland",
		"categories": ["Train Station"]
	},
	{
		"date": "2018-09-21T23:23+0200",
		"name": "Station Amsterdam Centraal",
		"id": "4a688ba1f964a52088ca1fe3",
		"lat": 52.37878224866535,
		"lng": 4.900374412536621,
		"address": "Stationsplein 15",
		"postalCode": "1012 AB",
		"city": "Amsterdam",
		"country": "Nederland",
		"categories": ["Train Station"]
	},
	{
		"date": "2018-09-21T22:37+0200",
		"name": "Salsa Shop",
		"id": "53c3ca66498ea876ac0e1349",
		"lat": 52.36622550874323,
		"lng": 4.899968972243181,
		"address": "Amstelstraat 32A",
		"postalCode": "1017 DA",
		"city": "Amsterdam",
		"country": "Nederland",
		"categories": ["Mexican Restaurant"]
	},
	{
		"date": "2018-09-21T19:11+0200",
		"name": "Café Koosje",
		"id": "4a26ff58f964a520307f1fe3",
		"lat": 52.3665257935973,
		"lng": 4.911678308070091,
		"address": "Plantage Middenlaan 37",
		"postalCode": "1018 DB",
		"city": "Amsterdam",
		"country": "Nederland",
		"categories": ["Bar", "Café"]
	},
	{
		"date": "2018-09-21T19:01+0200",
		"name": "J.W. Van Overloopplantsoen",
		"id": "4db69aa943a1369cb5e8c74e",
		"lat": 52.36586849714364,
		"lng": 4.909063003877886,
		"city": "Amsterdam",
		"country": "Nederland",
		"categories": ["Park"]
	},
	{
		"date": "2018-09-21T18:23+0200",
		"name": "Station Haarlem",
		"id": "4a8c3036f964a5203a0d20e3",
		"lat": 52.387919728928985,
		"lng": 4.638276517449355,
		"address": "Stationsplein 11 L",
		"postalCode": "2011 LR",
		"city": "Haarlem",
		"country": "Nederland",
		"categories": ["Train Station"]
	},
	{
		"date": "2018-09-20T19:23+0200",
		"name": "Alphenaar Muziekhandel",
		"id": "4c2b6b74b34ad13aa0b6e9ce",
		"lat": 52.38624381240507,
		"lng": 4.636521633397345,
		"address": "Kruisweg 47-49",
		"postalCode": "2011 LA",
		"city": "Haarlem",
		"country": "Nederland",
		"categories": ["Music Store"]
	},
	{
		"date": "2018-09-19T19:35+0200",
		"name": "Vomar Voordeelmarkt",
		"id": "4b72c969f964a52096882de3",
		"lat": 52.39127711020139,
		"lng": 4.649005288257338,
		"address": "Paul Krugerkade 22",
		"postalCode": "2021 BN",
		"city": "Haarlem",
		"country": "Nederland",
		"categories": ["Supermarket", "Grocery Store"]
	},
	{
		"date": "2018-09-18T21:06+0200",
		"name": "Pathé Haarlem",
		"id": "4e148b7ac65bedaeefbe2709",
		"lat": 52.381759575266265,
		"lng": 4.6295865068192885,
		"address": "Zijlvest 41-43",
		"postalCode": "2011 VB",
		"city": "Haarlem",
		"country": "Nederland",
		"categories": ["Multiplex"]
	},
	{
		"date": "2018-09-18T21:00+0200",
		"name": "De Pizzabakkers",
		"id": "4f9c63b3e4b0d04dc0988477",
		"lat": 52.38560498361445,
		"lng": 4.636240446645177,
		"address": "Kruisweg 70D, 2011 Oude Stad",
		"city": "Haarlem",
		"country": "Nederland",
		"categories": ["Italian Restaurant", "Pizza Place"]
	},
	{
		"date": "2018-09-16T19:42+0200",
		"name": "Station Amsterdam Sloterdijk",
		"id": "4a56245ff964a52085b41fe3",
		"lat": 52.389038517725574,
		"lng": 4.838510921333843,
		"address": "Orlyplein 105",
		"postalCode": "1043 DT",
		"city": "Amsterdam",
		"country": "Nederland",
		"categories": ["Train Station"]
	},
	{
		"date": "2018-09-16T18:50+0200",
		"name": "Amsterdam Airport Schiphol (AMS) (Amsterdam Airport Schiphol)",
		"id": "4a84e798f964a520defd1fe3",
		"lat": 52.3085704596075,
		"lng": 4.762122631072998,
		"address": "Aankomstpassage",
		"postalCode": "1118 CP",
		"city": "Schiphol",
		"country": "Nederland",
		"categories": ["Airport"]
	},
	{
		"date": "2018-09-16T16:27+0200",
		"name": "Gate C34",
		"id": "4dbd0af06e810768bf6e3502",
		"lat": 48.12031335340878,
		"lng": 16.55758938903731,
		"address": "Terminal 1",
		"postalCode": "1300",
		"city": "Schwechat",
		"country": "Österreich",
		"categories": ["Airport Gate"]
	},
	{
		"date": "2018-09-16T15:28+0200",
		"name": "Vienna International Airport (VIE) (Flughafen Wien-Schwechat)",
		"id": "4b05889af964a520e5cf22e3",
		"lat": 48.119328926702686,
		"lng": 16.56236894679551,
		"address": "Abflugstr.",
		"postalCode": "1300",
		"city": "Schwechat",
		"country": "Österreich",
		"categories": ["Airport"]
	},
	{
		"date": "2018-09-16T13:52+0200",
		"name": "Kis-Tómalom",
		"id": "4f857e8be4b05ea63f7a168f",
		"lat": 47.71016582127449,
		"lng": 16.625447273254395,
		"country": "Magyarország",
		"categories": ["Lake"]
	},
	{
		"date": "2018-09-16T11:50+0200",
		"name": "Széchenyi tér",
		"id": "4dc924f11f6e936efe52ac05",
		"lat": 47.68289779925098,
		"lng": 16.589524032040796,
		"address": "Széchenyi tér",
		"postalCode": "9400",
		"city": "Sopron",
		"country": "Magyarország",
		"categories": ["Park", "Plaza"]
	},
	{
		"date": "2018-09-15T23:34+0200",
		"name": "Kis-Tómalom",
		"id": "4f857e8be4b05ea63f7a168f",
		"lat": 47.71016582127449,
		"lng": 16.625447273254395,
		"country": "Magyarország",
		"categories": ["Lake"]
	},
	{
		"date": "2018-09-15T23:11+0200",
		"name": "Gázfröccs",
		"id": "4e1c132e922e66c066417ce3",
		"lat": 47.680832103433204,
		"lng": 16.585444490141782,
		"address": "Deák tér 28.",
		"postalCode": "9400",
		"city": "Sopron",
		"country": "Magyarország",
		"categories": ["Beer Garden", "Bar"]
	},
	{
		"date": "2018-09-15T22:28+0200",
		"name": "Casino Sopron @ Mediterrano",
		"id": "5297316c11d2d6648fbb89e1",
		"lat": 47.694798,
		"lng": 16.581414,
		"address": "Lackner Kristóf u. 33/A",
		"postalCode": "H-9400",
		"city": "Sopron",
		"country": "Magyarország",
		"categories": ["Other Nightlife"]
	},
	{
		"date": "2018-09-15T21:54+0200",
		"name": "Deák tér",
		"id": "4d7cceeb34f7721e4f0acc25",
		"lat": 47.68042933030541,
		"lng": 16.587352485307203,
		"address": "Deák tér",
		"postalCode": "9400",
		"city": "Sopron",
		"country": "Magyarország",
		"categories": ["Park", "Plaza"]
	},
	{
		"date": "2018-09-15T21:40+0200",
		"name": "Fő tér",
		"id": "4cc1918e21a4f04d87be6455",
		"lat": 47.68634925040153,
		"lng": 16.590835505738625,
		"address": "Fő tér",
		"postalCode": "9400",
		"city": "Sopron",
		"country": "Magyarország",
		"categories": ["Plaza"]
	},
	{
		"date": "2018-09-15T20:54+0200",
		"name": "Erhardt Étterem és Borpince",
		"id": "4cc2be15bc239521fa8dbb33",
		"lat": 47.686641481972956,
		"lng": 16.594845917870828,
		"address": "Balfi u. 10.",
		"postalCode": "9400",
		"city": "Sopron",
		"country": "Magyarország",
		"categories": [
			"Modern European Restaurant",
			"Eastern European Restaurant"
		]
	},
	{
		"date": "2018-09-15T18:25+0200",
		"name": "Tómalom",
		"id": "4e29ab8352b1c37d35cea4b7",
		"lat": 47.71554211831894,
		"lng": 16.621489894444487,
		"city": "Sopron",
		"country": "Magyarország",
		"categories": ["Neighborhood"]
	},
	{
		"date": "2018-09-14T22:15+0200",
		"name": "Tómalom",
		"id": "4e29ab8352b1c37d35cea4b7",
		"lat": 47.71554211831894,
		"lng": 16.621489894444487,
		"city": "Sopron",
		"country": "Magyarország",
		"categories": ["Neighborhood"]
	},
	{
		"date": "2018-09-14T16:08+0200",
		"name": "Vienna International Airport (VIE) (Flughafen Wien-Schwechat)",
		"id": "4b05889af964a520e5cf22e3",
		"lat": 48.119328926702686,
		"lng": 16.56236894679551,
		"address": "Abflugstr.",
		"postalCode": "1300",
		"city": "Schwechat",
		"country": "Österreich",
		"categories": ["Airport"]
	},
	{
		"date": "2018-09-14T13:33+0200",
		"name": "Gate M4",
		"id": "4c77ec22566db60cd1cb3f0e",
		"lat": 52.31000522093994,
		"lng": 4.754354643140674,
		"address": "Concourse M",
		"city": "Schiphol",
		"country": "Nederland",
		"categories": ["Airport Gate"]
	},
	{
		"date": "2018-09-14T12:26+0200",
		"name": "Amsterdam Airport Schiphol (AMS) (Amsterdam Airport Schiphol)",
		"id": "4a84e798f964a520defd1fe3",
		"lat": 52.3085704596075,
		"lng": 4.762122631072998,
		"address": "Aankomstpassage",
		"postalCode": "1118 CP",
		"city": "Schiphol",
		"country": "Nederland",
		"categories": ["Airport"]
	},
	{
		"date": "2018-09-14T11:52+0200",
		"name": "Station Amsterdam Sloterdijk",
		"id": "4a56245ff964a52085b41fe3",
		"lat": 52.389038517725574,
		"lng": 4.838510921333843,
		"address": "Orlyplein 105",
		"postalCode": "1043 DT",
		"city": "Amsterdam",
		"country": "Nederland",
		"categories": ["Train Station"]
	},
	{
		"date": "2018-09-14T11:38+0200",
		"name": "Station Haarlem",
		"id": "4a8c3036f964a5203a0d20e3",
		"lat": 52.387919728928985,
		"lng": 4.638276517449355,
		"address": "Stationsplein 11 L",
		"postalCode": "2011 LR",
		"city": "Haarlem",
		"country": "Nederland",
		"categories": ["Train Station"]
	},
	{
		"date": "2018-09-14T00:19+0200",
		"name": "Sultan shoarma",
		"id": "573362de498e4009791e56a8",
		"lat": 52.386933,
		"lng": 4.636699,
		"country": "Nederland",
		"categories": ["Snack Place"]
	},
	{
		"date": "2018-09-13T23:55+0200",
		"name": "Station Amsterdam Sloterdijk",
		"id": "4a56245ff964a52085b41fe3",
		"lat": 52.389038517725574,
		"lng": 4.838510921333843,
		"address": "Orlyplein 105",
		"postalCode": "1043 DT",
		"city": "Amsterdam",
		"country": "Nederland",
		"categories": ["Train Station"]
	},
	{
		"date": "2018-09-13T23:40+0200",
		"name": "Station Schiphol Airport",
		"id": "4b14bf25f964a5203fa623e3",
		"lat": 52.309421352795255,
		"lng": 4.762016504847906,
		"address": "Aankomstpassage 18",
		"postalCode": "1118 AX",
		"city": "Schiphol",
		"country": "Nederland",
		"categories": ["Train Station"]
	},
	{
		"date": "2018-09-13T23:08+0200",
		"name": "Amsterdam Airport Schiphol (AMS) (Amsterdam Airport Schiphol)",
		"id": "4a84e798f964a520defd1fe3",
		"lat": 52.3085704596075,
		"lng": 4.762122631072998,
		"address": "Aankomstpassage",
		"postalCode": "1118 CP",
		"city": "Schiphol",
		"country": "Nederland",
		"categories": ["Airport"]
	},
	{
		"date": "2018-09-13T19:49+0200",
		"name": "Aéroport de Paris-Orly (ORY) (Aéroport de Paris-Orly)",
		"id": "4bba20081261d13ace41ea98",
		"lat": 48.72799478629688,
		"lng": 2.364325198754431,
		"address": "Aéroport de Paris-Orly",
		"postalCode": "94390",
		"city": "Paray-Vieille-Poste",
		"country": "France",
		"categories": ["Airport"]
	},
	{
		"date": "2018-09-13T19:32+0200",
		"name": "Orlyval Orly-Ouest",
		"id": "4bd92e730115c9b659ae7680",
		"lat": 48.729636247703894,
		"lng": 2.360043525695801,
		"address": "Terminal Ouest",
		"postalCode": "94390",
		"city": "Paray-Vieille-Poste",
		"country": "France",
		"categories": ["Airport Tram"]
	},
	{
		"date": "2018-09-13T19:32+0200",
		"name": "Terminal Ouest",
		"id": "4dee42dc52b13dda25f3a0af",
		"lat": 48.72863839777758,
		"lng": 2.358986735343933,
		"address": "Aéroport de Paris-Orly (ORY)",
		"postalCode": "94390",
		"city": "Paray-Vieille-Poste",
		"country": "France",
		"categories": ["Airport Terminal"]
	},
	{
		"date": "2018-09-13T19:02+0200",
		"name": "RER Pont de Rungis — Aéroport d'Orly [C]",
		"id": "4bc5ffea424195211066031d",
		"lat": 48.74816364249205,
		"lng": 2.3727571964263916,
		"address": "Rue des Hauts Flouviers",
		"postalCode": "94320",
		"city": "Thiais",
		"country": "France",
		"categories": ["Train Station"]
	},
	{
		"date": "2018-09-13T18:09+0200",
		"name": "RER Champ de Mars – Tour Eiffel [C]",
		"id": "4b81a0b7f964a520c1b330e3",
		"lat": 48.85671758009865,
		"lng": 2.289748191833496,
		"address": "Quai Branly",
		"postalCode": "75015",
		"city": "Paris",
		"country": "France",
		"categories": ["Train Station"]
	},
	{
		"date": "2018-09-13T17:31+0200",
		"name": "Le Fils du Boulanger - Frédéric Sicard Boulangerie",
		"id": "4fc75390e4b045e8f393cfd1",
		"lat": 48.854859,
		"lng": 2.294786,
		"address": "34 avenue de Suffren",
		"postalCode": "75015",
		"city": "Paris",
		"country": "France",
		"categories": ["Bakery"]
	},
	{
		"date": "2018-09-13T16:27+0200",
		"name": "Le Campanella",
		"id": "4adcda14f964a5203b3721e3",
		"lat": 48.85878026182484,
		"lng": 2.303410883782829,
		"address": "18 avenue Bosquet",
		"postalCode": "75007",
		"city": "Paris",
		"country": "France",
		"categories": ["Brasserie"]
	},
	{
		"date": "2018-09-13T15:26+0200",
		"name": "Pont d'Iéna",
		"id": "4c3f6eeece54e21eb60b081a",
		"lat": 48.85974578950385,
		"lng": 2.2921085357666016,
		"address": "Pont d'Iéna",
		"postalCode": "75016",
		"city": "Paris",
		"country": "France",
		"categories": ["Bridge"]
	},
	{
		"date": "2018-09-13T15:17+0200",
		"name": "Flamme de la Liberté",
		"id": "4bbc8299e5b0d13a124d6f7c",
		"lat": 48.86420876613551,
		"lng": 2.3009788963470124,
		"address": "Place de l'Alma",
		"postalCode": "75016",
		"city": "Paris",
		"country": "France",
		"categories": ["Monument / Landmark", "Outdoor Sculpture"]
	},
	{
		"date": "2018-09-13T15:17+0200",
		"name": "Pont de l'Alma",
		"id": "4b7e3eb1f964a5201ae72fe3",
		"lat": 48.86369984781068,
		"lng": 2.301973436925535,
		"address": "Pont de l'Alma",
		"postalCode": "75008",
		"city": "Paris",
		"country": "France",
		"categories": ["Bridge"]
	},
	{
		"date": "2018-09-13T14:53+0200",
		"name": "Place de la République",
		"id": "4b49bbf0f964a520fa7226e3",
		"lat": 48.86744481691362,
		"lng": 2.3637311737631146,
		"address": "Place de la République",
		"postalCode": "75003",
		"city": "Paris",
		"country": "France",
		"categories": ["Plaza"]
	},
	{
		"date": "2018-09-13T14:30+0200",
		"name": "9Hotel Republique",
		"id": "56b3ac70498e7c1995f7c528",
		"lat": 48.8708408318317,
		"lng": 2.360761010556092,
		"country": "France",
		"categories": ["Hotel"]
	},
	{
		"date": "2018-09-13T14:00+0200",
		"name": "Parc du Champ de Mars (Jardin du Champ-de-Mars)",
		"id": "4b0d54cbf964a520764623e3",
		"lat": 48.855566953673204,
		"lng": 2.298760414123535,
		"address": "Jardin du Champ-de-Mars",
		"postalCode": "75007",
		"city": "Paris",
		"country": "France",
		"categories": ["Garden"]
	},
	{
		"date": "2018-09-13T13:15+0200",
		"name": "Jardins du Trocadéro",
		"id": "4adcda09f964a520063421e3",
		"lat": 48.86121394630214,
		"lng": 2.289919853210449,
		"address": "Colline de Chaillot",
		"postalCode": "75016",
		"city": "Paris",
		"country": "France",
		"categories": ["Garden"]
	},
	{
		"date": "2018-09-13T13:05+0200",
		"name": "Tour Eiffel",
		"id": "51a2445e5019c80b56934c75",
		"lat": 48.858249354605626,
		"lng": 2.2944259643554683,
		"address": "5 avenue Anatole France",
		"postalCode": "75007",
		"city": "Paris",
		"country": "France",
		"categories": ["Monument / Landmark", "Scenic Lookout"]
	},
	{
		"date": "2018-09-13T12:30+0200",
		"name": "Square Boucicaut",
		"id": "4b6d8ff1f964a520c87c2ce3",
		"lat": 48.851290844756754,
		"lng": 2.3259043816564753,
		"address": "1 rue de Babylone",
		"postalCode": "75007",
		"city": "Paris",
		"country": "France",
		"categories": ["Garden", "Playground"]
	},
	{
		"date": "2018-09-13T11:57+0200",
		"name": "Le Pain Quotidien",
		"id": "4b11c1acf964a520fc8323e3",
		"lat": 48.85380654994543,
		"lng": 2.324211895465851,
		"address": "25 rue de Varenne",
		"postalCode": "75007",
		"city": "Paris",
		"country": "France",
		"categories": ["Bakery", "Breakfast Spot"]
	},
	{
		"date": "2018-09-13T11:14+0200",
		"name": "9Hotel Republique",
		"id": "56b3ac70498e7c1995f7c528",
		"lat": 48.8708408318317,
		"lng": 2.360761010556092,
		"country": "France",
		"categories": ["Hotel"]
	},
	{
		"date": "2018-09-12T23:26+0200",
		"name": "Pomm'",
		"id": "4dbd783e43a1d8504ba5c177",
		"lat": 48.87776837997546,
		"lng": 2.3653821709239904,
		"city": "Paris",
		"country": "France",
		"categories": ["Diner", "Pizza Place"]
	},
	{
		"date": "2018-09-12T20:30+0200",
		"name": "Point Éphémère",
		"id": "4b7728aef964a5206c832ee3",
		"lat": 48.881538,
		"lng": 2.36878,
		"address": "200 quai de Valmy",
		"postalCode": "75010",
		"city": "Paris",
		"country": "France",
		"categories": ["Bar", "Music Venue", "Art Gallery"]
	},
	{
		"date": "2018-09-12T19:23+0200",
		"name": "9Hotel Republique",
		"id": "56b3ac70498e7c1995f7c528",
		"lat": 48.8708408318317,
		"lng": 2.360761010556092,
		"country": "France",
		"categories": ["Hotel"]
	},
	{
		"date": "2018-09-12T18:31+0200",
		"name": "Hippopotamus",
		"id": "4e441e25aeb7d02fd0e70dd4",
		"lat": 48.860182615115335,
		"lng": 2.348417846476349,
		"address": "30 rue Saint-Denis",
		"postalCode": "75001",
		"city": "Paris",
		"country": "France",
		"categories": ["Steakhouse"]
	},
	{
		"date": "2018-09-12T18:13+0200",
		"name": "Au Cœur Couronné",
		"id": "4b856e49f964a5206b5d31e3",
		"lat": 48.86033312257364,
		"lng": 2.347547026375581,
		"address": "6 rue de la Ferronerie",
		"postalCode": "75001",
		"city": "Paris",
		"country": "France",
		"categories": ["Café", "Bistro"]
	},
	{
		"date": "2018-09-12T18:07+0200",
		"name": "Place Maurice Quentin",
		"id": "4ec7c1ad722e143796a3229d",
		"lat": 48.861434511811375,
		"lng": 2.3452137074249606,
		"address": "Place Maurice Quentin",
		"postalCode": "75001",
		"city": "Paris",
		"country": "France",
		"categories": ["Plaza"]
	},
	{
		"date": "2018-09-12T17:32+0200",
		"name": "Forum des Halles",
		"id": "4adcda1df964a520293921e3",
		"lat": 48.86185191,
		"lng": 2.34656181,
		"address": "101 rue Berger",
		"postalCode": "75001",
		"city": "Paris",
		"country": "France",
		"categories": ["Shopping Mall"]
	},
	{
		"date": "2018-09-12T16:48+0200",
		"name": "Canal Saint-Martin",
		"id": "4b62faecf964a520ff5b2ae3",
		"lat": 48.87090690462362,
		"lng": 2.3662584199263885,
		"address": "Quai de Valmy",
		"postalCode": "75010",
		"city": "Paris",
		"country": "France",
		"categories": ["Canal"]
	},
	{
		"date": "2018-09-12T16:22+0200",
		"name": "Jules et Shim",
		"id": "51d46ef8498e252703c2780a",
		"lat": 48.87311773951754,
		"lng": 2.3633156779315914,
		"address": "22 rue des Vinaigriers",
		"postalCode": "75010",
		"city": "Paris",
		"country": "France",
		"categories": ["Korean Restaurant"]
	},
	{
		"date": "2018-09-12T14:38+0200",
		"name": "9Hotel Republique",
		"id": "56b3ac70498e7c1995f7c528",
		"lat": 48.8708408318317,
		"lng": 2.360761010556092,
		"country": "France",
		"categories": ["Hotel"]
	},
	{
		"date": "2018-09-12T14:28+0200",
		"name": "Métro Jacques Bonsergent [5]",
		"id": "4b8b45d0f964a520619a32e3",
		"lat": 48.872043368448246,
		"lng": 2.3607735654804056,
		"address": "21 boulevard de Magenta",
		"postalCode": "75010",
		"city": "Paris",
		"country": "France",
		"categories": ["Metro Station"]
	},
	{
		"date": "2018-09-12T14:17+0200",
		"name": "RER Paris Austerlitz [C]",
		"id": "4e9d1c8e49017c00c864f020",
		"lat": 48.842774159702614,
		"lng": 2.3653006553649902,
		"address": "85 quai d’Austerlitz",
		"postalCode": "75013",
		"city": "Paris",
		"country": "France",
		"categories": ["Train Station"]
	},
	{
		"date": "2018-09-12T13:45+0200",
		"name": "RER Rungis — La Fraternelle [C]",
		"id": "4d6b355c4395a1cd59f3a473",
		"lat": 48.74049152144749,
		"lng": 2.3527843206290644,
		"address": "Rue des Alpes",
		"postalCode": "94150",
		"city": "Rungis",
		"country": "France",
		"categories": ["Train Station"]
	},
	{
		"date": "2018-09-12T12:52+0200",
		"name": "Aéroport de Paris-Orly (ORY) (Aéroport de Paris-Orly)",
		"id": "4bba20081261d13ace41ea98",
		"lat": 48.72799478629688,
		"lng": 2.364325198754431,
		"address": "Aéroport de Paris-Orly",
		"postalCode": "94390",
		"city": "Paray-Vieille-Poste",
		"country": "France",
		"categories": ["Airport"]
	},
	{
		"date": "2018-09-12T08:43+0200",
		"name": "Amsterdam Airport Schiphol (AMS) (Amsterdam Airport Schiphol)",
		"id": "4a84e798f964a520defd1fe3",
		"lat": 52.3085704596075,
		"lng": 4.762122631072998,
		"address": "Aankomstpassage",
		"postalCode": "1118 CP",
		"city": "Schiphol",
		"country": "Nederland",
		"categories": ["Airport"]
	},
	{
		"date": "2018-09-12T08:29+0200",
		"name": "Gate C13",
		"id": "4bb5fa2946d4a593f082c5c0",
		"lat": 52.30521051937847,
		"lng": 4.767076267955778,
		"address": "Concourse C",
		"city": "Schiphol",
		"country": "Nederland",
		"categories": ["Airport Gate"]
	},
	{
		"date": "2018-09-10T20:11+0200",
		"name": "Vomar Voordeelmarkt",
		"id": "4b72c969f964a52096882de3",
		"lat": 52.39127711020139,
		"lng": 4.649005288257338,
		"address": "Paul Krugerkade 22",
		"postalCode": "2021 BN",
		"city": "Haarlem",
		"country": "Nederland",
		"categories": ["Supermarket", "Grocery Store"]
	},
	{
		"date": "2018-09-09T11:24+0200",
		"name": "Pippers",
		"id": "558168f5498ea507a6356ac2",
		"lat": 52.376013215014396,
		"lng": 4.906819778996501,
		"address": "Harry Banninkstraat 1",
		"postalCode": "1011 TE",
		"country": "Nederland",
		"categories": ["Sandwich Place"]
	},
	{
		"date": "2018-09-09T09:55+0200",
		"name": "DoubleTree by Hilton Hotel",
		"id": "4d10aee19302a35d46867c6e",
		"lat": 52.37678563024838,
		"lng": 4.905077493675435,
		"address": "Oosterdokstraat 4",
		"postalCode": "1011 DK",
		"city": "Amsterdam",
		"country": "Nederland",
		"categories": ["Hotel"]
	},
	{
		"date": "2018-09-09T09:51+0200",
		"name": "Station Amsterdam Centraal",
		"id": "4a688ba1f964a52088ca1fe3",
		"lat": 52.37878224866535,
		"lng": 4.900374412536621,
		"address": "Stationsplein 15",
		"postalCode": "1012 AB",
		"city": "Amsterdam",
		"country": "Nederland",
		"categories": ["Train Station"]
	},
	{
		"date": "2018-09-09T09:42+0200",
		"name": "Station Amsterdam Sloterdijk",
		"id": "4a56245ff964a52085b41fe3",
		"lat": 52.389038517725574,
		"lng": 4.838510921333843,
		"address": "Orlyplein 105",
		"postalCode": "1043 DT",
		"city": "Amsterdam",
		"country": "Nederland",
		"categories": ["Train Station"]
	},
	{
		"date": "2018-09-08T23:50+0200",
		"name": "Sultan shoarma",
		"id": "573362de498e4009791e56a8",
		"lat": 52.386933,
		"lng": 4.636699,
		"country": "Nederland",
		"categories": ["Snack Place"]
	},
	{
		"date": "2018-09-08T23:31+0200",
		"name": "Station Amsterdam Sloterdijk",
		"id": "4a56245ff964a52085b41fe3",
		"lat": 52.389038517725574,
		"lng": 4.838510921333843,
		"address": "Orlyplein 105",
		"postalCode": "1043 DT",
		"city": "Amsterdam",
		"country": "Nederland",
		"categories": ["Train Station"]
	},
	{
		"date": "2018-09-08T23:14+0200",
		"name": "Station Amsterdam Lelylaan",
		"id": "4a5623d8f964a52082b41fe3",
		"lat": 52.3576430497755,
		"lng": 4.834193002208261,
		"address": "Cornelis Lelylaan 35",
		"postalCode": "1062 AD",
		"city": "Amsterdam",
		"country": "Nederland",
		"categories": ["Train Station"]
	},
	{
		"date": "2018-09-08T20:34+0200",
		"name": "Meram Osdorp",
		"id": "50b6459fe4b033ea1fdbc62f",
		"lat": 52.360281793025734,
		"lng": 4.808239144212434,
		"address": "Meer en vaart 175",
		"postalCode": "1068 LA",
		"city": "Amsterdam",
		"country": "Nederland",
		"categories": ["Turkish Restaurant", "Halal Restaurant", "Hookah Bar"]
	},
	{
		"date": "2018-09-08T19:46+0200",
		"name": "Soytasty",
		"id": "4b10272ff964a5201e6a23e3",
		"lat": 52.366358021834685,
		"lng": 4.872822663622447,
		"address": "Bilderdijkstraat 202",
		"postalCode": "1053 LE",
		"city": "Amsterdam",
		"country": "Nederland",
		"categories": ["Sushi Restaurant"]
	},
	{
		"date": "2018-09-08T19:28+0200",
		"name": "Punt WG",
		"id": "4d444e0abbb1a1437fe54472",
		"lat": 52.3633069619621,
		"lng": 4.871701015181359,
		"address": "Ingang WG plein, Andreas veldje",
		"postalCode": "1054 RS",
		"city": "Amsterdam",
		"country": "Nederland",
		"categories": ["Art Gallery"]
	},
	{
		"date": "2018-09-08T17:03+0200",
		"name": "WG Plein",
		"id": "552d47ab498ea240c9546049",
		"lat": 52.36427017044057,
		"lng": 4.871454505267094,
		"country": "Nederland",
		"categories": ["Campground"]
	},
	{
		"date": "2018-09-08T16:36+0200",
		"name": "Station Amsterdam Sloterdijk",
		"id": "4a56245ff964a52085b41fe3",
		"lat": 52.389038517725574,
		"lng": 4.838510921333843,
		"address": "Orlyplein 105",
		"postalCode": "1043 DT",
		"city": "Amsterdam",
		"country": "Nederland",
		"categories": ["Train Station"]
	},
	{
		"date": "2018-09-08T16:15+0200",
		"name": "Station Haarlem",
		"id": "4a8c3036f964a5203a0d20e3",
		"lat": 52.387919728928985,
		"lng": 4.638276517449355,
		"address": "Stationsplein 11 L",
		"postalCode": "2011 LR",
		"city": "Haarlem",
		"country": "Nederland",
		"categories": ["Train Station"]
	},
	{
		"date": "2018-09-08T12:43+0200",
		"name": "SUBWAY",
		"id": "4e899f5e9a52f9bbd0e654b4",
		"lat": 52.38297200404556,
		"lng": 4.6351964166808415,
		"address": "Krocht 12",
		"postalCode": "2011 PT",
		"city": "Haarlem",
		"country": "Nederland",
		"categories": ["Sandwich Place"]
	},
	{
		"date": "2018-09-07T19:19+0200",
		"name": "Cantina 023",
		"id": "551ec7ec498e16e90289f15d",
		"lat": 52.379151208083414,
		"lng": 4.636822362656406,
		"address": "Kleine Houtstraat 13",
		"city": "Haarlem",
		"country": "Nederland",
		"categories": ["Mexican Restaurant"]
	},
	{
		"date": "2018-09-06T18:32+0200",
		"name": "Vomar Voordeelmarkt",
		"id": "4b72c969f964a52096882de3",
		"lat": 52.39127711020139,
		"lng": 4.649005288257338,
		"address": "Paul Krugerkade 22",
		"postalCode": "2021 BN",
		"city": "Haarlem",
		"country": "Nederland",
		"categories": ["Supermarket", "Grocery Store"]
	},
	{
		"date": "2018-09-04T21:16+0200",
		"name": "Station Amsterdam Sloterdijk",
		"id": "4a56245ff964a52085b41fe3",
		"lat": 52.389038517725574,
		"lng": 4.838510921333843,
		"address": "Orlyplein 105",
		"postalCode": "1043 DT",
		"city": "Amsterdam",
		"country": "Nederland",
		"categories": ["Train Station"]
	},
	{
		"date": "2018-09-04T20:34+0200",
		"name": "Station Zaandijk Zaanse Schans",
		"id": "4b5091adf964a520ae2727e3",
		"lat": 52.46928423775177,
		"lng": 4.805124637210724,
		"address": "Stationsplein 1",
		"postalCode": "1541LK",
		"city": "Zaanstad",
		"country": "Nederland",
		"categories": ["Train Station"]
	},
	{
		"date": "2018-09-04T20:18+0200",
		"name": "Zaanse Schans",
		"id": "4be18547a7380f47e3401ab0",
		"lat": 52.473222240884766,
		"lng": 4.818292571861961,
		"address": "Schansend 7",
		"postalCode": "1509 AW",
		"city": "Zaandam",
		"country": "Nederland",
		"categories": ["Historic Site", "Monument / Landmark"]
	},
	{
		"date": "2018-09-04T18:41+0200",
		"name": "Station Amsterdam Centraal",
		"id": "4a688ba1f964a52088ca1fe3",
		"lat": 52.37878224866535,
		"lng": 4.900374412536621,
		"address": "Stationsplein 15",
		"postalCode": "1012 AB",
		"city": "Amsterdam",
		"country": "Nederland",
		"categories": ["Train Station"]
	},
	{
		"date": "2018-09-03T18:23+0200",
		"name": "Marqt",
		"id": "4ae1d0e3f964a520aa8721e3",
		"lat": 52.3802600023814,
		"lng": 4.632357722477905,
		"address": "Gedempte Oude Gracht 66",
		"postalCode": "2011 TG",
		"city": "Haarlem",
		"country": "Nederland",
		"categories": ["Organic Grocery"]
	},
	{
		"date": "2018-09-02T17:51+0200",
		"name": "Station Haarlem",
		"id": "4a8c3036f964a5203a0d20e3",
		"lat": 52.387919728928985,
		"lng": 4.638276517449355,
		"address": "Stationsplein 11 L",
		"postalCode": "2011 LR",
		"city": "Haarlem",
		"country": "Nederland",
		"categories": ["Train Station"]
	},
	{
		"date": "2018-09-01T17:27+0200",
		"name": "Vomar Voordeelmarkt",
		"id": "4b72c969f964a52096882de3",
		"lat": 52.39127711020139,
		"lng": 4.649005288257338,
		"address": "Paul Krugerkade 22",
		"postalCode": "2021 BN",
		"city": "Haarlem",
		"country": "Nederland",
		"categories": ["Supermarket", "Grocery Store"]
	}
]
