[
	{
		"date": "2018-03-31T23:50+0200",
		"name": "Station Amsterdam Centraal",
		"id": "4a688ba1f964a52088ca1fe3",
		"lat": 52.37878224866535,
		"lng": 4.900374412536621,
		"address": "Stationsplein 15",
		"postalCode": "1012 AB",
		"city": "Amsterdam",
		"country": "Nederland",
		"categories": ["Train Station"]
	},
	{
		"date": "2018-03-31T23:25+0200",
		"name": "Binnenstad",
		"id": "5314b372e4b0d805d3745a8b",
		"lat": 52.37116730311347,
		"lng": 4.893349867499993,
		"city": "Amsterdam",
		"country": "Nederland",
		"categories": ["Neighborhood"]
	},
	{
		"date": "2018-03-31T21:21+0200",
		"name": "BeerTemple",
		"id": "4ab13fe4f964a520b86820e3",
		"lat": 52.371999118512846,
		"lng": 4.890545158673645,
		"address": "Nieuwezijds Voorburgwal 250",
		"postalCode": "1012 RR",
		"city": "Amsterdam",
		"country": "Nederland",
		"categories": ["Beer Bar", "Pub"]
	},
	{
		"date": "2018-03-31T20:44+0200",
		"name": "Primark",
		"id": "57fbac86498e161d00c0124a",
		"lat": 52.37461907968552,
		"lng": 4.894476330445134,
		"address": "Damrak 77",
		"postalCode": "1012 LM",
		"city": "Amsterdam",
		"country": "Nederland",
		"categories": ["Clothing Store"]
	},
	{
		"date": "2018-03-31T20:03+0200",
		"name": "Station Haarlem",
		"id": "4a8c3036f964a5203a0d20e3",
		"lat": 52.387919728928985,
		"lng": 4.638276517449355,
		"address": "Stationsplein 11 L",
		"postalCode": "2011 LR",
		"city": "Haarlem",
		"country": "Nederland",
		"categories": ["Train Station"]
	},
	{
		"date": "2018-03-31T00:17+0200",
		"name": "Sultan shoarma",
		"id": "573362de498e4009791e56a8",
		"lat": 52.386933,
		"lng": 4.636699,
		"country": "Nederland",
		"categories": ["Snack Place"]
	},
	{
		"date": "2018-03-30T22:07+0200",
		"name": "Koffieshop Birdy",
		"id": "4e7b121d483bf10366a0d8b4",
		"lat": 52.39126935,
		"lng": 4.6405709,
		"address": "Shoterweg 19",
		"postalCode": "2021HZ",
		"city": "Haarlem",
		"country": "Nederland",
		"categories": ["Coffee Shop"]
	},
	{
		"date": "2018-03-30T17:42+0200",
		"name": "Suny Tele Technics",
		"id": "5387891b498e54d858ce865d",
		"lat": 52.38247783471906,
		"lng": 4.627461681887556,
		"address": "Lange Herenstraat",
		"country": "Nederland",
		"categories": ["Electronics Store"]
	},
	{
		"date": "2018-03-29T19:47+0200",
		"name": "Vomar Voordeelmarkt",
		"id": "4b72c969f964a52096882de3",
		"lat": 52.39127711020139,
		"lng": 4.649005288257338,
		"address": "Paul Krugerkade 22",
		"postalCode": "2021 BN",
		"city": "Haarlem",
		"country": "Nederland",
		"categories": ["Supermarket", "Grocery Store"]
	},
	{
		"date": "2018-03-26T21:43+0200",
		"name": "Station Amsterdam Centraal",
		"id": "4a688ba1f964a52088ca1fe3",
		"lat": 52.37878224866535,
		"lng": 4.900374412536621,
		"address": "Stationsplein 15",
		"postalCode": "1012 AB",
		"city": "Amsterdam",
		"country": "Nederland",
		"categories": ["Train Station"]
	},
	{
		"date": "2018-03-26T21:05+0200",
		"name": "Villa Nieuwmarkt",
		"id": "4a270023f964a52058821fe3",
		"lat": 52.3720677881441,
		"lng": 4.9004605647516755,
		"address": "Nieuwmarkt 25",
		"postalCode": "1011 JS",
		"city": "Amsterdam",
		"country": "Nederland",
		"categories": ["Italian Restaurant"]
	},
	{
		"date": "2018-03-26T19:56+0200",
		"name": "Dam",
		"id": "4b9ff646f964a520f44d37e3",
		"lat": 52.372824,
		"lng": 4.893702,
		"address": "Dam",
		"postalCode": "1012 NP",
		"city": "Amsterdam",
		"country": "Nederland",
		"categories": ["Plaza", "Historic Site"]
	},
	{
		"date": "2018-03-26T19:16+0200",
		"name": "Station Haarlem",
		"id": "4a8c3036f964a5203a0d20e3",
		"lat": 52.387919728928985,
		"lng": 4.638276517449355,
		"address": "Stationsplein 11 L",
		"postalCode": "2011 LR",
		"city": "Haarlem",
		"country": "Nederland",
		"categories": ["Train Station"]
	},
	{
		"date": "2018-03-25T17:00+0200",
		"name": "Station Amsterdam Sloterdijk",
		"id": "4a56245ff964a52085b41fe3",
		"lat": 52.389038517725574,
		"lng": 4.838510921333843,
		"address": "Orlyplein 105",
		"postalCode": "1043 DT",
		"city": "Amsterdam",
		"country": "Nederland",
		"categories": ["Train Station"]
	},
	{
		"date": "2018-03-25T16:42+0200",
		"name": "Station Schiphol Airport",
		"id": "4b14bf25f964a5203fa623e3",
		"lat": 52.309421352795255,
		"lng": 4.762016504847906,
		"address": "Aankomstpassage 18",
		"postalCode": "1118 AX",
		"city": "Schiphol",
		"country": "Nederland",
		"categories": ["Train Station"]
	},
	{
		"date": "2018-03-25T16:22+0200",
		"name": "Amsterdam Airport Schiphol (AMS) (Amsterdam Airport Schiphol)",
		"id": "4a84e798f964a520defd1fe3",
		"lat": 52.3085704596075,
		"lng": 4.762122631072998,
		"address": "Aankomstpassage",
		"postalCode": "1118 CP",
		"city": "Schiphol",
		"country": "Nederland",
		"categories": ["Airport"]
	},
	{
		"date": "2018-03-25T13:14+0200",
		"name": "Food Court",
		"id": "57fa1ad4498eb0c4e6e570cd",
		"lat": 47.43324471866434,
		"lng": 19.261294958863196,
		"address": "Budapest Liszt Ferenc Nemzetközi Repülőtér",
		"postalCode": "1185",
		"city": "Budapest",
		"country": "Magyarország",
		"categories": ["Food Court"]
	},
	{
		"date": "2018-03-25T12:49+0200",
		"name": "Budapest Liszt Ferenc International Airport (BUD) (Budapest Liszt Ferenc nemzetközi repülőtér)",
		"id": "4b61c2daf964a5200f212ae3",
		"lat": 47.4331855826648,
		"lng": 19.261276141427583,
		"address": "Budapest Airport",
		"postalCode": "1185",
		"city": "Budapest",
		"country": "Magyarország",
		"categories": ["Airport"]
	},
	{
		"date": "2018-03-25T11:19+0200",
		"name": "Mantra Specialty Coffee Bar",
		"id": "53909538498ec1ba1d8e850a",
		"lat": 47.49019,
		"lng": 19.056812,
		"address": "Veress Pálné u. 17.",
		"postalCode": "1053",
		"city": "Budapest",
		"country": "Magyarország",
		"categories": ["Coffee Shop"]
	},
	{
		"date": "2018-03-24T23:33+0100",
		"name": "OMV",
		"id": "4e10b2a622713f7d7bcab09c",
		"lat": 47.527291732622494,
		"lng": 19.075346093251465,
		"address": "Róbert Károly krt. 65.",
		"postalCode": "1065",
		"city": "Budapest",
		"country": "Magyarország",
		"categories": ["Gas Station"]
	},
	{
		"date": "2018-03-24T20:20+0100",
		"name": "Mr&Mrs Columbo Pub",
		"id": "52f8bca2498e0fd293f508c3",
		"lat": 47.49255155299665,
		"lng": 19.042136164673654,
		"address": "Szarvas tér 1.",
		"postalCode": "1013",
		"city": "Budapest",
		"country": "Magyarország",
		"categories": ["Pub"]
	},
	{
		"date": "2018-03-24T19:10+0100",
		"name": "Liget Club & Bar",
		"id": "4e64965e7d8b85408a93aed0",
		"lat": 47.475736751123655,
		"lng": 19.102691801554183,
		"address": "Népliget út 2.",
		"postalCode": "1101",
		"city": "Budapest",
		"country": "Magyarország",
		"categories": ["Nightclub", "Bar", "Lounge"]
	},
	{
		"date": "2018-03-24T18:01+0100",
		"name": "Népliget",
		"id": "4d502898d7eaa1439bd8640f",
		"lat": 47.477187965369204,
		"lng": 19.10797119140625,
		"address": "Népliget",
		"postalCode": "1101",
		"city": "Budapest",
		"country": "Magyarország",
		"categories": ["Park"]
	},
	{
		"date": "2018-03-24T15:24+0100",
		"name": "Szabadság híd",
		"id": "4ba79ddef964a520c4a239e3",
		"lat": 47.48572947367426,
		"lng": 19.054960012435913,
		"address": "Szabadság híd",
		"postalCode": "1114",
		"city": "Budapest",
		"country": "Magyarország",
		"categories": ["Bridge"]
	},
	{
		"date": "2018-03-24T15:10+0100",
		"name": "Lánchíd (Széchenyi lánchíd)",
		"id": "4e627a8a1f6ef7d07abac68d",
		"lat": 47.49899578574834,
		"lng": 19.04381275177002,
		"address": "Lánchíd",
		"postalCode": "1055",
		"city": "Budapest",
		"country": "Magyarország",
		"categories": ["Bridge"]
	},
	{
		"date": "2018-03-24T14:50+0100",
		"name": "Parlament",
		"id": "4bd6e74b5631c9b63889a630",
		"lat": 47.507040932373876,
		"lng": 19.045658111572266,
		"address": "Kossuth Lajos tér 1-3.",
		"postalCode": "1055",
		"city": "Budapest",
		"country": "Magyarország",
		"categories": ["Capitol Building", "Historic Site"]
	},
	{
		"date": "2018-03-24T14:26+0100",
		"name": "Kossuth Lajos tér",
		"id": "4d879a9f5ad3a093d10d0ffe",
		"lat": 47.50689598568434,
		"lng": 19.047106504440308,
		"address": "Kossuth Lajos tér",
		"postalCode": "1055",
		"city": "Budapest",
		"country": "Magyarország",
		"categories": ["Plaza"]
	},
	{
		"date": "2018-03-24T13:53+0100",
		"name": "Mr. Funk & Ms. Bagel",
		"id": "57fe3ae2cd105a3c9ae28c85",
		"lat": 47.50218240969873,
		"lng": 19.0508042290322,
		"address": "Október 6. utca",
		"postalCode": "1051",
		"city": "Budapest",
		"country": "Magyarország",
		"categories": ["Donut Shop"]
	},
	{
		"date": "2018-03-24T13:08+0100",
		"name": "ÉS Bisztró",
		"id": "515db7cae4b0c848dc15cf26",
		"lat": 47.49692175592849,
		"lng": 19.052513946283366,
		"address": "Deák Ferenc u. 12-14.",
		"postalCode": "1051",
		"city": "Budapest",
		"country": "Magyarország",
		"categories": ["Modern European Restaurant"]
	},
	{
		"date": "2018-03-24T12:58+0100",
		"name": "Deák Ferenc tér",
		"id": "4d52c0d74015b1f7b1017ecf",
		"lat": 47.497560593384,
		"lng": 19.054577366898226,
		"address": "Deák Ferenc tér",
		"postalCode": "1052",
		"city": "Budapest",
		"country": "Magyarország",
		"categories": ["Plaza"]
	},
	{
		"date": "2018-03-23T21:24+0100",
		"name": "Tímár utca (9, 29, 86, 923, 934)",
		"id": "4cc5cd2d38aaa09388f01a62",
		"lat": 47.53446983367139,
		"lng": 19.03987978585527,
		"address": "Pacsirtamező u.",
		"postalCode": "1034",
		"city": "Budapest",
		"country": "Magyarország",
		"categories": ["Bus Stop"]
	},
	{
		"date": "2018-03-23T20:48+0100",
		"name": "Kálvin tér",
		"id": "4c022ae30d0e0f47c7cc009a",
		"lat": 47.4894607414408,
		"lng": 19.061834712069047,
		"address": "Kálvin tér",
		"city": "Budapest",
		"country": "Magyarország",
		"categories": ["Plaza"]
	},
	{
		"date": "2018-03-23T20:23+0100",
		"name": "Il Treno Expressz",
		"id": "52d6a344498ebda3887f8a22",
		"lat": 47.49044581195885,
		"lng": 19.06165300777911,
		"address": "Múzeum krt. 41.",
		"city": "Budapest",
		"country": "Magyarország",
		"categories": ["Italian Restaurant"]
	},
	{
		"date": "2018-03-23T20:03+0100",
		"name": "Belváros",
		"id": "53150d40e4b0e72a36eb4e42",
		"lat": 47.49386032722352,
		"lng": 19.05318807030279,
		"postalCode": "1053",
		"city": "Budapest",
		"country": "Magyarország",
		"categories": ["Neighborhood"]
	},
	{
		"date": "2018-03-23T17:37+0100",
		"name": "imPro School HQ",
		"id": "4c25b55f905a0f472f0c6260",
		"lat": 47.484187031486485,
		"lng": 19.062634479482384,
		"address": "Lonyay utca 29.",
		"postalCode": "1093",
		"city": "Budapest",
		"country": "Magyarország",
		"categories": [
			"College Lab",
			"College Academic Building",
			"College Classroom"
		]
	},
	{
		"date": "2018-03-23T08:49+0100",
		"name": "Docler Holding Irodaház",
		"id": "4b503f8af964a520171f27e3",
		"lat": 47.49694118099851,
		"lng": 19.117601577085395,
		"address": "Expó tér 5-7.",
		"postalCode": "1101",
		"city": "Budapest",
		"country": "Magyarország",
		"categories": ["Office"]
	},
	{
		"date": "2018-03-23T00:53+0100",
		"name": "Atrium Fashion Hotel",
		"id": "4bc77b3a93bdeee1dd6d37ae",
		"lat": 47.49606010014994,
		"lng": 19.07290933611946,
		"address": "Csokonai u.14",
		"postalCode": "1081",
		"city": "Budapest",
		"country": "Magyarország",
		"categories": ["Hotel"]
	},
	{
		"date": "2018-03-22T20:02+0100",
		"name": "Római part",
		"id": "53594cb5498eb63881fb7111",
		"lat": 47.59253181893103,
		"lng": 19.068490867081746,
		"country": "Magyarország",
		"categories": ["River"]
	},
	{
		"date": "2018-03-22T12:30+0100",
		"name": "Docler Holding Irodaház",
		"id": "4b503f8af964a520171f27e3",
		"lat": 47.49694118099851,
		"lng": 19.117601577085395,
		"address": "Expó tér 5-7.",
		"postalCode": "1101",
		"city": "Budapest",
		"country": "Magyarország",
		"categories": ["Office"]
	},
	{
		"date": "2018-03-22T00:09+0100",
		"name": "Atrium Fashion Hotel",
		"id": "4bc77b3a93bdeee1dd6d37ae",
		"lat": 47.49606010014994,
		"lng": 19.07290933611946,
		"address": "Csokonai u.14",
		"postalCode": "1081",
		"city": "Budapest",
		"country": "Magyarország",
		"categories": ["Hotel"]
	},
	{
		"date": "2018-03-21T18:32+0100",
		"name": "Flakon",
		"id": "583dca1872714f255c7a41cd",
		"lat": 47.504550003883125,
		"lng": 19.135087413280594,
		"address": "Örs vezér tere 2",
		"postalCode": "1148",
		"city": "Budapest",
		"country": "Magyarország",
		"categories": ["Pub", "Burger Joint"]
	},
	{
		"date": "2018-03-21T08:53+0100",
		"name": "Docler Holding Irodaház",
		"id": "4b503f8af964a520171f27e3",
		"lat": 47.49694118099851,
		"lng": 19.117601577085395,
		"address": "Expó tér 5-7.",
		"postalCode": "1101",
		"city": "Budapest",
		"country": "Magyarország",
		"categories": ["Office"]
	},
	{
		"date": "2018-03-21T08:29+0100",
		"name": "Blaha Lujza tér (M2)",
		"id": "4e36daceaeb7f67fbd3f7c23",
		"lat": 47.49691181926615,
		"lng": 19.069980382919308,
		"address": "Blaha Lujza tér",
		"postalCode": "1085",
		"city": "Budapest",
		"country": "Magyarország",
		"categories": ["Metro Station"]
	},
	{
		"date": "2018-03-20T23:26+0100",
		"name": "Atrium Fashion Hotel",
		"id": "4bc77b3a93bdeee1dd6d37ae",
		"lat": 47.49606010014994,
		"lng": 19.07290933611946,
		"address": "Csokonai u.14",
		"postalCode": "1081",
		"city": "Budapest",
		"country": "Magyarország",
		"categories": ["Hotel"]
	},
	{
		"date": "2018-03-20T13:45+0100",
		"name": "Bio-barát biobolt",
		"id": "56b4bdd3498e78bd2de2476b",
		"lat": 47.49600384694762,
		"lng": 19.07067603529977,
		"address": "József körút 5",
		"postalCode": "1088",
		"city": "Budapest",
		"country": "Magyarország",
		"categories": ["Health Food Store"]
	},
	{
		"date": "2018-03-20T13:45+0100",
		"name": "Müller",
		"id": "4daa1998561462f27d8f8691",
		"lat": 47.49609141597686,
		"lng": 19.070231187983193,
		"address": "Europeum Bevásárlóközpont",
		"postalCode": "1088",
		"city": "Budapest",
		"country": "Magyarország",
		"categories": ["Drugstore"]
	},
	{
		"date": "2018-03-19T20:46+0100",
		"name": "Atrium Fashion Hotel",
		"id": "4bc77b3a93bdeee1dd6d37ae",
		"lat": 47.49606010014994,
		"lng": 19.07290933611946,
		"address": "Csokonai u.14",
		"postalCode": "1081",
		"city": "Budapest",
		"country": "Magyarország",
		"categories": ["Hotel"]
	},
	{
		"date": "2018-03-19T17:59+0100",
		"name": "Müller",
		"id": "4daa1998561462f27d8f8691",
		"lat": 47.49609141597686,
		"lng": 19.070231187983193,
		"address": "Europeum Bevásárlóközpont",
		"postalCode": "1088",
		"city": "Budapest",
		"country": "Magyarország",
		"categories": ["Drugstore"]
	},
	{
		"date": "2018-03-19T13:34+0100",
		"name": "Docler Holding Irodaház",
		"id": "4b503f8af964a520171f27e3",
		"lat": 47.49694118099851,
		"lng": 19.117601577085395,
		"address": "Expó tér 5-7.",
		"postalCode": "1101",
		"city": "Budapest",
		"country": "Magyarország",
		"categories": ["Office"]
	},
	{
		"date": "2018-03-19T13:19+0100",
		"name": "Atrium Fashion Hotel",
		"id": "4bc77b3a93bdeee1dd6d37ae",
		"lat": 47.49606010014994,
		"lng": 19.07290933611946,
		"address": "Csokonai u.14",
		"postalCode": "1081",
		"city": "Budapest",
		"country": "Magyarország",
		"categories": ["Hotel"]
	},
	{
		"date": "2018-03-19T12:39+0100",
		"name": "Baggage Claim (Poggyászkiadó)",
		"id": "4eaff7f8d3e30d4483ef7c8f",
		"lat": 47.43372487103579,
		"lng": 19.262201209764786,
		"address": "Budapest Liszt Ferenc International Airport (BUD)",
		"city": "Budapest",
		"country": "Magyarország",
		"categories": ["Baggage Claim"]
	},
	{
		"date": "2018-03-19T12:22+0100",
		"name": "Budapest Liszt Ferenc International Airport (BUD) (Budapest Liszt Ferenc nemzetközi repülőtér)",
		"id": "4b61c2daf964a5200f212ae3",
		"lat": 47.4331855826648,
		"lng": 19.261276141427583,
		"address": "Budapest Airport",
		"postalCode": "1185",
		"city": "Budapest",
		"country": "Magyarország",
		"categories": ["Airport"]
	},
	{
		"date": "2018-03-19T09:58+0100",
		"name": "Gate C13",
		"id": "4bb5fa2946d4a593f082c5c0",
		"lat": 52.30521051937847,
		"lng": 4.767076267955778,
		"address": "Concourse C",
		"city": "Schiphol",
		"country": "Nederland",
		"categories": ["Airport Gate"]
	},
	{
		"date": "2018-03-19T08:42+0100",
		"name": "Starbucks",
		"id": "5237091f11d24ec6ae4b286d",
		"lat": 52.306720584573924,
		"lng": 4.7649335861206055,
		"address": "Concourse C",
		"postalCode": "1117 ZN",
		"city": "Schiphol",
		"country": "Nederland",
		"categories": ["Coffee Shop"]
	},
	{
		"date": "2018-03-19T08:19+0100",
		"name": "Amsterdam Airport Schiphol (AMS) (Amsterdam Airport Schiphol)",
		"id": "4a84e798f964a520defd1fe3",
		"lat": 52.3085704596075,
		"lng": 4.762122631072998,
		"address": "Aankomstpassage",
		"postalCode": "1118 CP",
		"city": "Schiphol",
		"country": "Nederland",
		"categories": ["Airport"]
	},
	{
		"date": "2018-03-19T07:56+0100",
		"name": "Station Amsterdam Sloterdijk",
		"id": "4a56245ff964a52085b41fe3",
		"lat": 52.389038517725574,
		"lng": 4.838510921333843,
		"address": "Orlyplein 105",
		"postalCode": "1043 DT",
		"city": "Amsterdam",
		"country": "Nederland",
		"categories": ["Train Station"]
	},
	{
		"date": "2018-03-19T07:39+0100",
		"name": "Station Haarlem",
		"id": "4a8c3036f964a5203a0d20e3",
		"lat": 52.387919728928985,
		"lng": 4.638276517449355,
		"address": "Stationsplein 11 L",
		"postalCode": "2011 LR",
		"city": "Haarlem",
		"country": "Nederland",
		"categories": ["Train Station"]
	},
	{
		"date": "2018-03-18T15:43+0100",
		"name": "Esprit",
		"id": "4e749dcbe4cd325436eafd1a",
		"lat": 52.37819772023286,
		"lng": 4.632483422756195,
		"address": "Grote Houtstraat",
		"postalCode": "2011 SJ",
		"city": "Haarlem",
		"country": "Nederland",
		"categories": ["Clothing Store"]
	},
	{
		"date": "2018-03-18T14:21+0100",
		"name": "Sumo",
		"id": "50a7ba98e4b0740a17dedff7",
		"lat": 52.38125846452132,
		"lng": 4.638113814869877,
		"address": "Riviervismarkt 11",
		"postalCode": "2011 HJ",
		"city": "Haarlem",
		"country": "Nederland",
		"categories": ["Sushi Restaurant"]
	},
	{
		"date": "2018-03-18T02:12+0100",
		"name": "Dam",
		"id": "4b9ff646f964a520f44d37e3",
		"lat": 52.372824,
		"lng": 4.893702,
		"address": "Dam",
		"postalCode": "1012 NP",
		"city": "Amsterdam",
		"country": "Nederland",
		"categories": ["Plaza", "Historic Site"]
	},
	{
		"date": "2018-03-18T00:33+0100",
		"name": "Theatercafé De Richel",
		"id": "52cf1985498ea7775c48fef1",
		"lat": 52.3698547060142,
		"lng": 4.893450364972957,
		"address": "Nes 71",
		"postalCode": "1012 KD",
		"city": "Amsterdam",
		"country": "Nederland",
		"categories": ["Café", "Bar"]
	},
	{
		"date": "2018-03-18T00:26+0100",
		"name": "Dam",
		"id": "4b9ff646f964a520f44d37e3",
		"lat": 52.372824,
		"lng": 4.893702,
		"address": "Dam",
		"postalCode": "1012 NP",
		"city": "Amsterdam",
		"country": "Nederland",
		"categories": ["Plaza", "Historic Site"]
	},
	{
		"date": "2018-03-17T20:09+0100",
		"name": "Studio Nieuw Ensemble",
		"id": "4fb214b0e4b06d535f46b600",
		"lat": 52.39067555111639,
		"lng": 4.899849945319943,
		"address": "Grasweg 41",
		"city": "Amsterdam",
		"country": "Nederland",
		"categories": ["Building"]
	},
	{
		"date": "2018-03-17T18:56+0100",
		"name": "Station Amsterdam Centraal",
		"id": "4a688ba1f964a52088ca1fe3",
		"lat": 52.37878224866535,
		"lng": 4.900374412536621,
		"address": "Stationsplein 15",
		"postalCode": "1012 AB",
		"city": "Amsterdam",
		"country": "Nederland",
		"categories": ["Train Station"]
	},
	{
		"date": "2018-03-17T18:39+0100",
		"name": "Station Haarlem",
		"id": "4a8c3036f964a5203a0d20e3",
		"lat": 52.387919728928985,
		"lng": 4.638276517449355,
		"address": "Stationsplein 11 L",
		"postalCode": "2011 LR",
		"city": "Haarlem",
		"country": "Nederland",
		"categories": ["Train Station"]
	},
	{
		"date": "2018-03-17T12:39+0100",
		"name": "Teylers Museum",
		"id": "4b7515a9f964a5206efd2de3",
		"lat": 52.380420914044706,
		"lng": 4.640232559582665,
		"address": "Spaarne 16",
		"postalCode": "2011 CH",
		"city": "Haarlem",
		"country": "Nederland",
		"categories": ["Science Museum", "History Museum", "Art Museum"]
	},
	{
		"date": "2018-03-17T11:06+0100",
		"name": "Vomar Voordeelmarkt",
		"id": "4b72c969f964a52096882de3",
		"lat": 52.39127711020139,
		"lng": 4.649005288257338,
		"address": "Paul Krugerkade 22",
		"postalCode": "2021 BN",
		"city": "Haarlem",
		"country": "Nederland",
		"categories": ["Supermarket", "Grocery Store"]
	},
	{
		"date": "2018-03-17T01:11+0100",
		"name": "WOW Amsterdam",
		"id": "53a568e0498e8468e871fd27",
		"lat": 52.382290175505105,
		"lng": 4.843540741879437,
		"address": "Wiltzanghlaan 60",
		"city": "Amsterdam",
		"country": "Nederland",
		"categories": ["Hostel", "Coworking Space", "Restaurant"]
	},
	{
		"date": "2018-03-16T22:27+0100",
		"name": "Bierfabriek",
		"id": "4e8f2260b8f7c1a0343c698d",
		"lat": 52.369866,
		"lng": 4.89346,
		"address": "Nes 67",
		"postalCode": "1012KL",
		"city": "Amsterdam",
		"country": "Nederland",
		"categories": ["Brewery", "Beer Garden", "Bar"]
	},
	{
		"date": "2018-03-16T21:51+0100",
		"name": "Zouthavenbrug (Brug 2326)",
		"id": "5019a9c7f31c621c32440979",
		"lat": 52.37768195342558,
		"lng": 4.9132490158081055,
		"address": "Piet Heinkade 4",
		"city": "Amsterdam",
		"country": "Nederland",
		"categories": ["Bridge"]
	},
	{
		"date": "2018-03-16T20:05+0100",
		"name": "MEZRAB",
		"id": "5228c35111d28e388537597a",
		"lat": 52.376035360650555,
		"lng": 4.927711955476004,
		"address": "Veemkade 576",
		"postalCode": "1019 BL",
		"city": "Amsterdam",
		"country": "Nederland",
		"categories": ["Performing Arts Venue", "Cultural Center"]
	},
	{
		"date": "2018-03-16T18:52+0100",
		"name": "Station Amsterdam Centraal",
		"id": "4a688ba1f964a52088ca1fe3",
		"lat": 52.37878224866535,
		"lng": 4.900374412536621,
		"address": "Stationsplein 15",
		"postalCode": "1012 AB",
		"city": "Amsterdam",
		"country": "Nederland",
		"categories": ["Train Station"]
	},
	{
		"date": "2018-03-16T16:30+0100",
		"name": "Teylers Museum",
		"id": "4b7515a9f964a5206efd2de3",
		"lat": 52.380420914044706,
		"lng": 4.640232559582665,
		"address": "Spaarne 16",
		"postalCode": "2011 CH",
		"city": "Haarlem",
		"country": "Nederland",
		"categories": ["Science Museum", "History Museum", "Art Museum"]
	},
	{
		"date": "2018-03-16T10:32+0100",
		"name": "Station Haarlem",
		"id": "4a8c3036f964a5203a0d20e3",
		"lat": 52.387919728928985,
		"lng": 4.638276517449355,
		"address": "Stationsplein 11 L",
		"postalCode": "2011 LR",
		"city": "Haarlem",
		"country": "Nederland",
		"categories": ["Train Station"]
	},
	{
		"date": "2018-03-16T01:33+0100",
		"name": "WOW Amsterdam",
		"id": "53a568e0498e8468e871fd27",
		"lat": 52.382290175505105,
		"lng": 4.843540741879437,
		"address": "Wiltzanghlaan 60",
		"city": "Amsterdam",
		"country": "Nederland",
		"categories": ["Hostel", "Coworking Space", "Restaurant"]
	},
	{
		"date": "2018-03-16T00:08+0100",
		"name": "Café ZILT",
		"id": "4a26ff5df964a5204b7f1fe3",
		"lat": 52.37523375502399,
		"lng": 4.90106246684449,
		"address": "Zeedijk 49",
		"postalCode": "1012 AR",
		"city": "Amsterdam",
		"country": "Nederland",
		"categories": ["Whisky Bar", "Beer Bar"]
	},
	{
		"date": "2018-03-15T22:15+0100",
		"name": "Waterlooplein",
		"id": "4a61dfebf964a5209bc21fe3",
		"lat": 52.368085954991855,
		"lng": 4.902520179748535,
		"address": "Waterlooplein",
		"city": "Amsterdam",
		"country": "Nederland",
		"categories": ["Plaza"]
	},
	{
		"date": "2018-03-15T21:22+0100",
		"name": "Splendor",
		"id": "5254b924498eb2b2983186b9",
		"lat": 52.36982517969973,
		"lng": 4.903061985969543,
		"address": "Nieuwe Uilenburgerstraat 116",
		"city": "Amsterdam",
		"country": "Nederland",
		"categories": ["Music Venue"]
	},
	{
		"date": "2018-03-15T19:39+0100",
		"name": "Station Amsterdam Centraal",
		"id": "4a688ba1f964a52088ca1fe3",
		"lat": 52.37878224866535,
		"lng": 4.900374412536621,
		"address": "Stationsplein 15",
		"postalCode": "1012 AB",
		"city": "Amsterdam",
		"country": "Nederland",
		"categories": ["Train Station"]
	},
	{
		"date": "2018-03-15T19:18+0100",
		"name": "Station Haarlem",
		"id": "4a8c3036f964a5203a0d20e3",
		"lat": 52.387919728928985,
		"lng": 4.638276517449355,
		"address": "Stationsplein 11 L",
		"postalCode": "2011 LR",
		"city": "Haarlem",
		"country": "Nederland",
		"categories": ["Train Station"]
	},
	{
		"date": "2018-03-15T11:41+0100",
		"name": "Albert Heijn to go",
		"id": "4b862ee0f964a520038231e3",
		"lat": 52.38851437453483,
		"lng": 4.639542485412089,
		"address": "Stationsplein 14",
		"postalCode": "2011 LR",
		"city": "Haarlem",
		"country": "Nederland",
		"categories": ["Convenience Store"]
	},
	{
		"date": "2018-03-14T14:06+0100",
		"name": "Basic X Hair",
		"id": "52e15bd4498eff401e7266b1",
		"lat": 52.38709780312595,
		"lng": 4.636948636589309,
		"address": "Kruisweg 35",
		"postalCode": "2011LA",
		"city": "Haarlem",
		"country": "Nederland",
		"categories": ["Salon / Barbershop"]
	},
	{
		"date": "2018-03-14T12:37+0100",
		"name": "The Döner Company",
		"id": "4d790928a56e37040e5d7567",
		"lat": 52.38817372624091,
		"lng": 4.63927902305991,
		"address": "Station Haarlem",
		"postalCode": "2011 LR",
		"city": "Haarlem",
		"country": "Nederland",
		"categories": [
			"Doner Restaurant",
			"Falafel Restaurant",
			"Kebab Restaurant"
		]
	},
	{
		"date": "2018-03-12T18:08+0100",
		"name": "Albert Heijn",
		"id": "4b9a4b64f964a52066aa35e3",
		"lat": 52.38445463709139,
		"lng": 4.635787640721933,
		"address": "Kruisstraat 10",
		"postalCode": "2011 PX",
		"city": "Haarlem",
		"country": "Nederland",
		"categories": ["Supermarket"]
	},
	{
		"date": "2018-03-11T14:39+0100",
		"name": "Vomar Voordeelmarkt",
		"id": "4b72c969f964a52096882de3",
		"lat": 52.39127711020139,
		"lng": 4.649005288257338,
		"address": "Paul Krugerkade 22",
		"postalCode": "2021 BN",
		"city": "Haarlem",
		"country": "Nederland",
		"categories": ["Supermarket", "Grocery Store"]
	},
	{
		"date": "2018-03-10T16:36+0100",
		"name": "Bij Babette",
		"id": "518e304b498ee3ee3450cb3f",
		"lat": 52.38380970361385,
		"lng": 4.635811276097931,
		"address": "Kruisstraat 31",
		"city": "Haarlem",
		"country": "Nederland",
		"categories": ["Dessert Shop", "Tea Room", "Coffee Shop"]
	},
	{
		"date": "2018-03-08T20:29+0100",
		"name": "India Palace",
		"id": "4c5057673a6f2d7f60a06877",
		"lat": 52.38126838250037,
		"lng": 4.632222643743207,
		"address": "Gedempte Oude Gracht 29",
		"postalCode": "2011 GL",
		"city": "Haarlem",
		"country": "Nederland",
		"categories": ["Indian Restaurant"]
	},
	{
		"date": "2018-03-08T20:11+0100",
		"name": "Adidas Original's Store Haarlem",
		"id": "527a702e498e652ab834e63e",
		"lat": 52.37830905957846,
		"lng": 4.632545113563538,
		"address": "Grote Houtstraat 105",
		"postalCode": "2011 SH",
		"city": "Haarlem",
		"country": "Nederland",
		"categories": ["Sporting Goods Shop", "Shoe Store"]
	},
	{
		"date": "2018-03-04T17:58+0100",
		"name": "Botermarkt",
		"id": "4baddc96f964a520216e3be3",
		"lat": 52.379734,
		"lng": 4.631808,
		"address": "Botermarkt",
		"city": "Haarlem",
		"country": "Nederland",
		"categories": ["Plaza"]
	},
	{
		"date": "2018-03-04T17:02+0100",
		"name": "Albert Heijn",
		"id": "4b9a4b64f964a52066aa35e3",
		"lat": 52.38445463709139,
		"lng": 4.635787640721933,
		"address": "Kruisstraat 10",
		"postalCode": "2011 PX",
		"city": "Haarlem",
		"country": "Nederland",
		"categories": ["Supermarket"]
	},
	{
		"date": "2018-03-02T20:08+0100",
		"name": "Albert Heijn to go",
		"id": "4b862ee0f964a520038231e3",
		"lat": 52.38851437453483,
		"lng": 4.639542485412089,
		"address": "Stationsplein 14",
		"postalCode": "2011 LR",
		"city": "Haarlem",
		"country": "Nederland",
		"categories": ["Convenience Store"]
	},
	{
		"date": "2018-03-02T18:04+0100",
		"name": "Station Haarlem",
		"id": "4a8c3036f964a5203a0d20e3",
		"lat": 52.387919728928985,
		"lng": 4.638276517449355,
		"address": "Stationsplein 11 L",
		"postalCode": "2011 LR",
		"city": "Haarlem",
		"country": "Nederland",
		"categories": ["Train Station"]
	},
	{
		"date": "2018-03-02T17:54+0100",
		"name": "Station Amsterdam Sloterdijk",
		"id": "4a56245ff964a52085b41fe3",
		"lat": 52.389038517725574,
		"lng": 4.838510921333843,
		"address": "Orlyplein 105",
		"postalCode": "1043 DT",
		"city": "Amsterdam",
		"country": "Nederland",
		"categories": ["Train Station"]
	},
	{
		"date": "2018-03-02T17:41+0100",
		"name": "Midi Amsterdam",
		"id": "4dc15e53d4c07bbdf7732543",
		"lat": 52.36089421144778,
		"lng": 4.868581880302388,
		"address": "Overtoom 431",
		"postalCode": "1054 KE",
		"city": "Amsterdam",
		"country": "Nederland",
		"categories": ["Music Store"]
	},
	{
		"date": "2018-03-02T17:15+0100",
		"name": "Station Amsterdam Lelylaan",
		"id": "4a5623d8f964a52082b41fe3",
		"lat": 52.3576430497755,
		"lng": 4.834193002208261,
		"address": "Cornelis Lelylaan 35",
		"postalCode": "1062 AD",
		"city": "Amsterdam",
		"country": "Nederland",
		"categories": ["Train Station"]
	},
	{
		"date": "2018-03-02T17:02+0100",
		"name": "Station Amsterdam Sloterdijk",
		"id": "4a56245ff964a52085b41fe3",
		"lat": 52.389038517725574,
		"lng": 4.838510921333843,
		"address": "Orlyplein 105",
		"postalCode": "1043 DT",
		"city": "Amsterdam",
		"country": "Nederland",
		"categories": ["Train Station"]
	},
	{
		"date": "2018-03-02T16:48+0100",
		"name": "Station Haarlem",
		"id": "4a8c3036f964a5203a0d20e3",
		"lat": 52.387919728928985,
		"lng": 4.638276517449355,
		"address": "Stationsplein 11 L",
		"postalCode": "2011 LR",
		"city": "Haarlem",
		"country": "Nederland",
		"categories": ["Train Station"]
	}
]
