[
	{
		"date": "2018-06-30T21:45+0100",
		"name": "Hollingbury Woods",
		"id": "4e7de0228231e88c0cbfc143",
		"lat": 50.847670530891854,
		"lng": -0.1339190138051897,
		"city": "Brighton",
		"country": "United Kingdom",
		"categories": ["Trail"]
	},
	{
		"date": "2018-06-30T20:37+0100",
		"name": "300",
		"id": "58e8e591e03e5745ed86a8f4",
		"lat": 50.843729,
		"lng": -0.13461,
		"address": "300",
		"postalCode": "BN1 6JG",
		"city": "Brighton",
		"country": "United Kingdom",
		"categories": ["Restaurant"]
	},
	{
		"date": "2018-06-30T20:26+0100",
		"name": "clock tower, blakers park",
		"id": "56756bd4498e50c501e8410e",
		"lat": 50.843655,
		"lng": -0.137941,
		"country": "United Kingdom",
		"categories": ["Sculpture Garden"]
	},
	{
		"date": "2018-06-30T20:26+0100",
		"name": "Blakers Park",
		"id": "4bbcc6108ec3d13a1d361b28",
		"lat": 50.8429976787007,
		"lng": -0.13799243927395963,
		"city": "Brighton",
		"country": "United Kingdom",
		"categories": ["Park"]
	},
	{
		"date": "2018-06-30T20:17+0100",
		"name": "Preston",
		"id": "5314f6d8e4b0e72a36e14f1b",
		"lat": 50.83705207100122,
		"lng": -0.14032189886998225,
		"country": "United Kingdom",
		"categories": ["Neighborhood"]
	},
	{
		"date": "2018-06-30T19:52+0100",
		"name": "Plenty",
		"id": "56fcfd28498e5bcd714498be",
		"lat": 50.83354338989659,
		"lng": -0.13983694018340317,
		"address": "3-4 Circus Parade",
		"postalCode": "BN1 4GW",
		"city": "Brighton",
		"country": "United Kingdom",
		"categories": ["Diner", "Coffee Shop", "Café"]
	},
	{
		"date": "2018-06-30T19:37+0100",
		"name": "Old Steine",
		"id": "4c25c6e3136d20a11931e461",
		"lat": 50.8209840743566,
		"lng": -0.13715744018554688,
		"address": "Old Steine",
		"postalCode": "BN1 1GY",
		"city": "Brighton",
		"country": "United Kingdom",
		"categories": ["Garden"]
	},
	{
		"date": "2018-06-30T18:49+0100",
		"name": "Kemp Town Beach",
		"id": "5183cfc5498efa9faf8da8af",
		"lat": 50.81844428692337,
		"lng": -0.13215271775696244,
		"country": "United Kingdom",
		"categories": ["Beach"]
	},
	{
		"date": "2018-06-30T18:05+0100",
		"name": "Pelham Square",
		"id": "4e1ffdbb1495f18f033f3639",
		"lat": 50.828038,
		"lng": -0.136703,
		"city": "Brighton",
		"country": "United Kingdom",
		"categories": ["Plaza"]
	},
	{
		"date": "2018-06-30T17:08+0100",
		"name": "The Open Market",
		"id": "4b058849f964a52073bc22e3",
		"lat": 50.831510852994285,
		"lng": -0.1351260564442746,
		"address": "London Rd",
		"postalCode": "BN1 4JG",
		"city": "Brighton",
		"country": "United Kingdom",
		"categories": ["Market"]
	},
	{
		"date": "2018-06-30T12:41+0100",
		"name": "Plenty",
		"id": "56fcfd28498e5bcd714498be",
		"lat": 50.83354338989659,
		"lng": -0.13983694018340317,
		"address": "3-4 Circus Parade",
		"postalCode": "BN1 4GW",
		"city": "Brighton",
		"country": "United Kingdom",
		"categories": ["Diner", "Coffee Shop", "Café"]
	},
	{
		"date": "2018-06-30T11:46+0100",
		"name": "Brighton Palace Pier",
		"id": "4bad26a3f964a52015333be3",
		"lat": 50.81661890705418,
		"lng": -0.13686776161193848,
		"address": "Madeira Dr",
		"postalCode": "BN2 1TW",
		"city": "Brighton",
		"country": "United Kingdom",
		"categories": ["Pier"]
	},
	{
		"date": "2018-06-30T11:42+0100",
		"name": "Brighton Beach",
		"id": "4ada58b0f964a520a12121e3",
		"lat": 50.81884221095336,
		"lng": -0.1336383819580078,
		"city": "Brighton",
		"country": "United Kingdom",
		"categories": ["Beach"]
	},
	{
		"date": "2018-06-30T11:37+0100",
		"name": "Royal Pavilion Gardens",
		"id": "4c35bc58213c2d7f02823a5d",
		"lat": 50.822842756307246,
		"lng": -0.1388275005678629,
		"address": "New Rd.",
		"postalCode": "BN1 1EE",
		"city": "Brighton",
		"country": "United Kingdom",
		"categories": ["Garden", "Park"]
	},
	{
		"date": "2018-06-30T11:22+0100",
		"name": "Victoria Gardens",
		"id": "4b67062cf964a52096352be3",
		"lat": 50.8246573032766,
		"lng": -0.13589999244238057,
		"city": "Brighton",
		"country": "United Kingdom",
		"categories": ["Park"]
	},
	{
		"date": "2018-06-30T11:10+0100",
		"name": "The Level",
		"id": "4bd0451677b29c74c9608a82",
		"lat": 50.83045636950298,
		"lng": -0.13323820707420922,
		"address": "Lewes Rd.",
		"postalCode": "BN2 9SY",
		"city": "Brighton",
		"country": "United Kingdom",
		"categories": ["Park"]
	},
	{
		"date": "2018-06-30T10:37+0100",
		"name": "The Patio",
		"id": "4c34c9f2a0ced13a7ec4186e",
		"lat": 50.843681,
		"lng": -0.128383,
		"country": "United Kingdom",
		"categories": ["Garden"]
	},
	{
		"date": "2018-06-29T22:26+0100",
		"name": "Fiveways Grill",
		"id": "55f85722498e673ef16eb0cf",
		"lat": 50.8438098420229,
		"lng": -0.13455553552974436,
		"address": "255 Ditchling Road",
		"postalCode": "BN1 6JH",
		"city": "Brighton",
		"country": "United Kingdom",
		"categories": ["Burger Joint"]
	},
	{
		"date": "2018-06-29T21:15+0100",
		"name": "Brighton",
		"id": "4b05884af964a520d9bc22e3",
		"lat": 50.822516,
		"lng": -0.137182,
		"postalCode": "BN",
		"city": "East Sussex",
		"country": "United Kingdom",
		"categories": ["City"]
	},
	{
		"date": "2018-06-29T20:58+0100",
		"name": "Brighton Railway Station (BTN)",
		"id": "4b0433c8f964a520105222e3",
		"lat": 50.82905576757376,
		"lng": -0.1410435973193085,
		"address": "Queen's Rd",
		"postalCode": "BN1 3XP",
		"city": "Brighton",
		"country": "United Kingdom",
		"categories": ["Train Station"]
	},
	{
		"date": "2018-06-29T19:24+0100",
		"name": "Platform A",
		"id": "4ed8909c93ad464d263f3990",
		"lat": 51.5317801510743,
		"lng": -0.1267761360092781,
		"address": "St Pancras Thameslink",
		"postalCode": "N1C 4QP",
		"city": "London",
		"country": "United Kingdom",
		"categories": ["Platform"]
	},
	{
		"date": "2018-06-29T19:23+0100",
		"name": "London St Pancras Eurostar Terminal (London St Pancras International Eurostar Terminal)",
		"id": "4bcc08273740b7139c756365",
		"lat": 51.53157404627683,
		"lng": -0.12617111206054688,
		"address": "Pancras Rd",
		"postalCode": "NW1 2QP",
		"city": "London",
		"country": "United Kingdom",
		"categories": ["Train Station"]
	},
	{
		"date": "2018-06-29T19:14+0100",
		"name": "National Rail & East Midland Ticket Office",
		"id": "56fac7ee498ee73f3f9e7b77",
		"lat": 51.53220316279941,
		"lng": -0.12586734212931022,
		"address": "St Pancras Station",
		"postalCode": "NW1",
		"city": "London",
		"country": "United Kingdom",
		"categories": ["General Travel"]
	},
	{
		"date": "2018-06-29T19:14+0100",
		"name": "Eurostar Passport Control",
		"id": "5654b01f498e89858afee4a3",
		"lat": 51.53163847040216,
		"lng": -0.1262470776936236,
		"address": "Pancras Rd",
		"postalCode": "NW1 2QP",
		"city": "London",
		"country": "United Kingdom",
		"categories": ["Border Crossing"]
	},
	{
		"date": "2018-06-29T19:06+0100",
		"name": "London St Pancras Eurostar Terminal (London St Pancras International Eurostar Terminal)",
		"id": "4bcc08273740b7139c756365",
		"lat": 51.53157404627683,
		"lng": -0.12617111206054688,
		"address": "Pancras Rd",
		"postalCode": "NW1 2QP",
		"city": "London",
		"country": "United Kingdom",
		"categories": ["Train Station"]
	},
	{
		"date": "2018-06-29T19:05+0100",
		"name": "London St Pancras International Railway Station (STP) (London St Pancras International Railway Station)",
		"id": "4ac518f7f964a520c6af20e3",
		"lat": 51.53148370536347,
		"lng": -0.1258510533250094,
		"address": "Pancras Rd",
		"postalCode": "NW1 2QP",
		"city": "London",
		"country": "United Kingdom",
		"categories": ["Train Station"]
	},
	{
		"date": "2018-06-29T17:41+0200",
		"name": "Gare de Bruxelles-Midi / Station Brussel-Zuid (Station Brussel-Zuid)",
		"id": "50f7940be4b012f99a50b530",
		"lat": 50.83597610229477,
		"lng": 4.336163734916164,
		"address": "Avenue Fonsnylaan 47B",
		"postalCode": "1060",
		"city": "Sint-Gillis",
		"country": "België",
		"categories": ["Train Station"]
	},
	{
		"date": "2018-06-29T17:22+0200",
		"name": "Eurostar Terminal",
		"id": "4b1191e6f964a520857f23e3",
		"lat": 50.836064138775654,
		"lng": 4.335018440151505,
		"address": "Avenue Fonsnylaan 47",
		"postalCode": "1060",
		"city": "Sint-Gillis",
		"country": "België",
		"categories": ["Train Station"]
	},
	{
		"date": "2018-06-29T17:02+0200",
		"name": "Station Brussel-Noord / Gare de Bruxelles-Nord (Station Brussel-Noord)",
		"id": "4ade0dbaf964a5202b6d21e3",
		"lat": 50.86044795364051,
		"lng": 4.361250225098093,
		"address": "Vooruitgangstraat 76 Rue du Progrès",
		"postalCode": "1030",
		"city": "Brussel",
		"country": "België",
		"categories": ["Train Station"]
	},
	{
		"date": "2018-06-29T14:41+0200",
		"name": "Station Amsterdam Centraal",
		"id": "4a688ba1f964a52088ca1fe3",
		"lat": 52.37878224866535,
		"lng": 4.900374412536621,
		"address": "Stationsplein 15",
		"postalCode": "1012 AB",
		"city": "Amsterdam",
		"country": "Nederland",
		"categories": ["Train Station"]
	},
	{
		"date": "2018-06-29T14:09+0200",
		"name": "Station Amsterdam Centraal",
		"id": "4a688ba1f964a52088ca1fe3",
		"lat": 52.37878224866535,
		"lng": 4.900374412536621,
		"address": "Stationsplein 15",
		"postalCode": "1012 AB",
		"city": "Amsterdam",
		"country": "Nederland",
		"categories": ["Train Station"]
	},
	{
		"date": "2018-06-26T18:19+0200",
		"name": "Albert Heijn",
		"id": "4b9a4b64f964a52066aa35e3",
		"lat": 52.38445463709139,
		"lng": 4.635787640721933,
		"address": "Kruisstraat 10",
		"postalCode": "2011 PX",
		"city": "Haarlem",
		"country": "Nederland",
		"categories": ["Supermarket"]
	},
	{
		"date": "2018-06-24T21:00+0200",
		"name": "Station Haarlem",
		"id": "4a8c3036f964a5203a0d20e3",
		"lat": 52.387919728928985,
		"lng": 4.638276517449355,
		"address": "Stationsplein 11 L",
		"postalCode": "2011 LR",
		"city": "Haarlem",
		"country": "Nederland",
		"categories": ["Train Station"]
	},
	{
		"date": "2018-06-24T20:46+0200",
		"name": "Station Amsterdam Sloterdijk",
		"id": "4a56245ff964a52085b41fe3",
		"lat": 52.389038517725574,
		"lng": 4.838510921333843,
		"address": "Orlyplein 105",
		"postalCode": "1043 DT",
		"city": "Amsterdam",
		"country": "Nederland",
		"categories": ["Train Station"]
	},
	{
		"date": "2018-06-24T20:20+0200",
		"name": "Baggage Belt 9",
		"id": "58b986ac51666a48d22a9c77",
		"lat": 52.30930641058163,
		"lng": 4.7635047863978315,
		"address": "AMS Airport",
		"city": "Schiphol",
		"country": "Nederland",
		"categories": ["Baggage Claim"]
	},
	{
		"date": "2018-06-24T20:20+0200",
		"name": "Baggage Belts",
		"id": "4cadb1a50e7bbfb737705b83",
		"lat": 52.30881082020925,
		"lng": 4.764053471569788,
		"address": "AMS Airport",
		"postalCode": "1118 CP",
		"city": "Amsterdam",
		"country": "Nederland",
		"categories": ["Baggage Claim"]
	},
	{
		"date": "2018-06-24T19:55+0200",
		"name": "Amsterdam Airport Schiphol (AMS) (Amsterdam Airport Schiphol)",
		"id": "4a84e798f964a520defd1fe3",
		"lat": 52.3085704596075,
		"lng": 4.762122631072998,
		"address": "Aankomstpassage",
		"postalCode": "1118 CP",
		"city": "Schiphol",
		"country": "Nederland",
		"categories": ["Airport"]
	},
	{
		"date": "2018-06-24T17:16+0200",
		"name": "Gate A7",
		"id": "4deb4538d22da22d4eea03ca",
		"lat": 47.43384240412671,
		"lng": 19.2620437334669,
		"address": "Budapest Ferihegy 2A",
		"city": "Budapest",
		"country": "Magyarország",
		"categories": ["Airport Gate"]
	},
	{
		"date": "2018-06-24T16:41+0200",
		"name": "Caffè Ritazza",
		"id": "4b495e5df964a520856e26e3",
		"lat": 47.43308245647296,
		"lng": 19.262228823070384,
		"address": "Liszt Ferenc Airport Terminal 2B",
		"postalCode": "1185",
		"city": "Budapest",
		"country": "Magyarország",
		"categories": ["Coffee Shop", "Café"]
	},
	{
		"date": "2018-06-24T16:06+0200",
		"name": "Camden food co. - Landside on 2A",
		"id": "59998e044ce0661480b1bde8",
		"lat": 47.43322045636294,
		"lng": 19.26127767158314,
		"address": "Budapest Airport",
		"postalCode": "1185",
		"city": "Budapest",
		"country": "Magyarország",
		"categories": ["Coffee Shop", "Cafeteria"]
	},
	{
		"date": "2018-06-24T16:04+0200",
		"name": "Food Court",
		"id": "57fa1ad4498eb0c4e6e570cd",
		"lat": 47.43324471866434,
		"lng": 19.261294958863196,
		"address": "Budapest Liszt Ferenc Nemzetközi Repülőtér",
		"postalCode": "1185",
		"city": "Budapest",
		"country": "Magyarország",
		"categories": ["Food Court"]
	},
	{
		"date": "2018-06-24T15:43+0200",
		"name": "Terminal 2A",
		"id": "4c25aa535c5ca59357e044fe",
		"lat": 47.43307502585309,
		"lng": 19.262175999269573,
		"address": "BUD Nemzetközi Repülőtér",
		"postalCode": "1185",
		"city": "Budapest",
		"country": "Magyarország",
		"categories": ["Airport Terminal"]
	},
	{
		"date": "2018-06-24T14:48+0200",
		"name": "Déli pályaudvar",
		"id": "4b669af9f964a52056252be3",
		"lat": 47.499764114259754,
		"lng": 19.024876356124878,
		"address": "Krisztina körút 37.",
		"postalCode": "1013",
		"city": "Budapest",
		"country": "Magyarország",
		"categories": ["Train Station"]
	},
	{
		"date": "2018-06-24T14:37+0200",
		"name": "Kelenföldi pályaudvar",
		"id": "4b7fde66f964a520a34130e3",
		"lat": 47.464470879486846,
		"lng": 19.02109946927106,
		"address": "Etele tér 5-7.",
		"postalCode": "1115",
		"city": "Budapest",
		"country": "Magyarország",
		"categories": ["Train Station"]
	},
	{
		"date": "2018-06-24T12:38+0200",
		"name": "Siófok vasútállomás",
		"id": "4dd7d14ffa76ad96d12d8d38",
		"lat": 46.90780560491053,
		"lng": 18.05389737940967,
		"address": "Kálmán Imre sétány",
		"postalCode": "8600",
		"city": "Siófok",
		"country": "Magyarország",
		"categories": ["Train Station"]
	},
	{
		"date": "2018-06-24T12:05+0200",
		"name": "Petőfi Sétány",
		"id": "4c66da76f7a80f47ae389f7a",
		"lat": 46.91091342113722,
		"lng": 18.05179453962991,
		"address": "Petőfi sétány",
		"postalCode": "8600",
		"city": "Siófok",
		"country": "Magyarország",
		"categories": ["Plaza", "Beach"]
	},
	{
		"date": "2018-06-24T02:55+0200",
		"name": "Balaton Beach",
		"id": "4c3835e11e06d13a3565773e",
		"lat": 46.91374317174221,
		"lng": 18.063368316618806,
		"address": "Beszédes József sétány",
		"postalCode": "8600",
		"city": "Siófok",
		"country": "Magyarország",
		"categories": ["Beach", "Lake", "Boat or Ferry"]
	},
	{
		"date": "2018-06-24T02:27+0200",
		"name": "Tequila Taverna",
		"id": "4dbc083b6a23e294ba22e62d",
		"lat": 46.911338469924004,
		"lng": 18.05386830933604,
		"city": "Siófok",
		"country": "Magyarország",
		"categories": ["Greek Restaurant"]
	},
	{
		"date": "2018-06-24T01:38+0200",
		"name": "Plázs Siófok",
		"id": "576562e8498ec123bcc9a58f",
		"lat": 46.91176651781398,
		"lng": 18.051048066386915,
		"city": "Siófok",
		"country": "Magyarország",
		"categories": ["Lounge"]
	},
	{
		"date": "2018-06-24T01:21+0200",
		"name": "Brownie Caffe Restaurant &Lounge",
		"id": "4c2e04a07d85a593988853f3",
		"lat": 46.91197745762152,
		"lng": 18.056488246330144,
		"city": "Siófok",
		"country": "Magyarország",
		"categories": ["Bar"]
	},
	{
		"date": "2018-06-23T20:50+0200",
		"name": "Bohém Café",
		"id": "4dfa8b4a52b1a82364e6fd8b",
		"lat": 46.91128642891172,
		"lng": 18.05265625583476,
		"address": "Petőfi sétány 3.",
		"postalCode": "8600",
		"city": "Siófok",
		"country": "Magyarország",
		"categories": ["Cocktail Bar"]
	},
	{
		"date": "2018-06-23T19:21+0200",
		"name": "Corso Pub",
		"id": "4e0b69d2ae60e479ada0038f",
		"lat": 46.91119463,
		"lng": 18.05353745,
		"country": "Magyarország",
		"categories": ["Gastropub"]
	},
	{
		"date": "2018-06-23T19:21+0200",
		"name": "Subway Siófok",
		"id": "4ff84f87e4b01d0820c79d67",
		"lat": 46.91138041736352,
		"lng": 18.054290338256965,
		"address": "Petöfi Sétány 8/b",
		"country": "Magyarország",
		"categories": ["Sandwich Place"]
	},
	{
		"date": "2018-06-23T17:51+0200",
		"name": "Crystal Beach",
		"id": "4f9d0c31e4b09fef54097a78",
		"lat": 46.911753445064264,
		"lng": 18.053807388450075,
		"address": "8600 Siófok, Kilián György utca",
		"postalCode": "8600",
		"city": "Siófok",
		"country": "Magyarország",
		"categories": ["Beach"]
	},
	{
		"date": "2018-06-23T17:28+0200",
		"name": "Szopatazidotegnapameleggelmaahideggel",
		"id": "5206119711d2c865d5e37c64",
		"lat": 46.910677,
		"lng": 18.051629,
		"country": "Magyarország",
		"categories": ["Beach"]
	},
	{
		"date": "2018-06-23T11:50+0200",
		"name": "Lávakövi Pizzéria",
		"id": "4dfce986227185f38b967dd2",
		"lat": 46.911965266309124,
		"lng": 18.056701674965545,
		"address": "Petőfi sétány 3.",
		"city": "Siófok",
		"country": "Magyarország",
		"categories": ["Italian Restaurant", "Pizza Place"]
	},
	{
		"date": "2018-06-23T11:45+0200",
		"name": "Petőfi Sétány",
		"id": "4c66da76f7a80f47ae389f7a",
		"lat": 46.91091342113722,
		"lng": 18.05179453962991,
		"address": "Petőfi sétány",
		"postalCode": "8600",
		"city": "Siófok",
		"country": "Magyarország",
		"categories": ["Plaza", "Beach"]
	},
	{
		"date": "2018-06-23T10:19+0200",
		"name": "Siófok",
		"id": "4e0f39e57d8bb178a8b08181",
		"lat": 46.906977282358596,
		"lng": 18.052771405809303,
		"postalCode": "8600",
		"country": "Magyarország",
		"categories": ["City"]
	},
	{
		"date": "2018-06-23T08:05+0200",
		"name": "Déli pályaudvar",
		"id": "4b669af9f964a52056252be3",
		"lat": 47.499764114259754,
		"lng": 19.024876356124878,
		"address": "Krisztina körút 37.",
		"postalCode": "1013",
		"city": "Budapest",
		"country": "Magyarország",
		"categories": ["Train Station"]
	},
	{
		"date": "2018-06-23T07:59+0200",
		"name": "888.hu HQ",
		"id": "56bb4f00498e4aa864e12cda",
		"lat": 47.497349,
		"lng": 19.034207,
		"country": "Magyarország",
		"categories": ["Office"]
	},
	{
		"date": "2018-06-22T19:04+0200",
		"name": "Padthai Wokbar",
		"id": "4fc8e5c3e4b09a4f317bd3a1",
		"lat": 47.49993306442796,
		"lng": 19.051124266576384,
		"address": "Október 6. u. 4.",
		"postalCode": "1051",
		"city": "Budapest",
		"country": "Magyarország",
		"categories": ["Thai Restaurant", "Asian Restaurant"]
	},
	{
		"date": "2018-06-22T12:05+0200",
		"name": "Docler Cafeteria",
		"id": "505847b7e4b0b9424ea6a1cf",
		"lat": 47.49688493788501,
		"lng": 19.11765951368387,
		"address": "Expo tér 5-7.",
		"postalCode": "1101",
		"city": "Budapest",
		"country": "Magyarország",
		"categories": ["Cafeteria"]
	},
	{
		"date": "2018-06-22T11:50+0200",
		"name": "Docler Holding Irodaház",
		"id": "4b503f8af964a520171f27e3",
		"lat": 47.49694118099851,
		"lng": 19.117601577085395,
		"address": "Expó tér 5-7.",
		"postalCode": "1101",
		"city": "Budapest",
		"country": "Magyarország",
		"categories": ["Office"]
	},
	{
		"date": "2018-06-22T01:08+0200",
		"name": "Expo Congress Hotel Budapest",
		"id": "4bd1a6f95e0cce72efc8a184",
		"lat": 47.4933973371665,
		"lng": 19.1217436917344,
		"address": "Expo tér 2.",
		"postalCode": "1101",
		"city": "Budapest",
		"country": "Magyarország",
		"categories": ["Hotel"]
	},
	{
		"date": "2018-06-22T01:01+0200",
		"name": "keresztény demokrata néppárt pesti irodaja",
		"id": "5501c513498eb578c1cc40af",
		"lat": 47.506718,
		"lng": 19.085638,
		"address": "Istvan Utca 44",
		"city": "Budapest",
		"country": "Magyarország",
		"categories": ["Office"]
	},
	{
		"date": "2018-06-22T00:43+0200",
		"name": "Morrison's 2",
		"id": "4bd7274e4e32d13a4cd4c380",
		"lat": 47.51207060308726,
		"lng": 19.050416425516996,
		"address": "Szent István krt. 11.",
		"postalCode": "1055",
		"city": "Budapest",
		"country": "Magyarország",
		"categories": ["Nightclub", "Bar"]
	},
	{
		"date": "2018-06-22T00:43+0200",
		"name": "Margitsziget",
		"id": "4bb25b49a32876b0dc7d00fe",
		"lat": 47.52751787563006,
		"lng": 19.04780387878418,
		"address": "Margitsziget",
		"postalCode": "1138",
		"city": "Budapest",
		"country": "Magyarország",
		"categories": ["Island", "Park"]
	},
	{
		"date": "2018-06-21T23:38+0200",
		"name": "Sziget Klub Terasz",
		"id": "4c015abb716bc9b648b1bb55",
		"lat": 47.51579871914025,
		"lng": 19.04333819879612,
		"address": "Margitsziget",
		"postalCode": "1138",
		"city": "Budapest",
		"country": "Magyarország",
		"categories": ["Beer Garden", "Gastropub"]
	},
	{
		"date": "2018-06-21T23:34+0200",
		"name": "Margitszigeti Virágkert",
		"id": "4d7b4309136bf04db9ed488d",
		"lat": 47.52674684093885,
		"lng": 19.049028876812287,
		"address": "Margitsziget",
		"postalCode": "1138",
		"city": "Budapest",
		"country": "Magyarország",
		"categories": ["Garden", "Park"]
	},
	{
		"date": "2018-06-21T20:14+0200",
		"name": "Dunapart",
		"id": "4e429ef988771919396abf04",
		"lat": 47.465472783077246,
		"lng": 19.0624160432048,
		"address": "Kopaszi gát",
		"postalCode": "1117",
		"city": "Budapest",
		"country": "Magyarország",
		"categories": ["Beach"]
	},
	{
		"date": "2018-06-21T18:24+0200",
		"name": "Laguna Beach Bisztró",
		"id": "4e39aae0b0fb2f7ee869f63a",
		"lat": 47.46283303166703,
		"lng": 19.060985583784,
		"address": "Kopaszi gát",
		"city": "Budapest",
		"country": "Magyarország",
		"categories": ["Lounge"]
	},
	{
		"date": "2018-06-21T18:03+0200",
		"name": "Kopaszi-gát",
		"id": "4d8869325ecdf04dadd8948a",
		"lat": 47.46670132908605,
		"lng": 19.06192302703857,
		"address": "Kopaszi gát",
		"postalCode": "1117",
		"city": "Budapest",
		"country": "Magyarország",
		"categories": ["Park", "Harbor / Marina"]
	},
	{
		"date": "2018-06-21T12:24+0200",
		"name": "Docler Cafeteria",
		"id": "505847b7e4b0b9424ea6a1cf",
		"lat": 47.49688493788501,
		"lng": 19.11765951368387,
		"address": "Expo tér 5-7.",
		"postalCode": "1101",
		"city": "Budapest",
		"country": "Magyarország",
		"categories": ["Cafeteria"]
	},
	{
		"date": "2018-06-21T09:02+0200",
		"name": "Docler Holding Irodaház",
		"id": "4b503f8af964a520171f27e3",
		"lat": 47.49694118099851,
		"lng": 19.117601577085395,
		"address": "Expó tér 5-7.",
		"postalCode": "1101",
		"city": "Budapest",
		"country": "Magyarország",
		"categories": ["Office"]
	},
	{
		"date": "2018-06-20T19:47+0200",
		"name": "Pizza Hut Self Store",
		"id": "5a3b9c03840fc23c35344b70",
		"lat": 47.594962,
		"lng": 19.054115,
		"address": "Pünkösdfürdő utca 52.",
		"postalCode": "1039",
		"city": "Budapest",
		"country": "Magyarország",
		"categories": ["Restaurant", "Fast Food Restaurant"]
	},
	{
		"date": "2018-06-20T14:57+0200",
		"name": "Docler Színházterem",
		"id": "5293844f11d2feae25ad2f1b",
		"lat": 47.49692153930664,
		"lng": 19.117708206176758,
		"country": "Magyarország",
		"categories": ["Theater"]
	},
	{
		"date": "2018-06-20T11:45+0200",
		"name": "Docler Cafeteria",
		"id": "505847b7e4b0b9424ea6a1cf",
		"lat": 47.49688493788501,
		"lng": 19.11765951368387,
		"address": "Expo tér 5-7.",
		"postalCode": "1101",
		"city": "Budapest",
		"country": "Magyarország",
		"categories": ["Cafeteria"]
	},
	{
		"date": "2018-06-20T09:31+0200",
		"name": "Docler Holding Irodaház",
		"id": "4b503f8af964a520171f27e3",
		"lat": 47.49694118099851,
		"lng": 19.117601577085395,
		"address": "Expó tér 5-7.",
		"postalCode": "1101",
		"city": "Budapest",
		"country": "Magyarország",
		"categories": ["Office"]
	},
	{
		"date": "2018-06-19T23:43+0200",
		"name": "Expo Congress Hotel Budapest",
		"id": "4bd1a6f95e0cce72efc8a184",
		"lat": 47.4933973371665,
		"lng": 19.1217436917344,
		"address": "Expo tér 2.",
		"postalCode": "1101",
		"city": "Budapest",
		"country": "Magyarország",
		"categories": ["Hotel"]
	},
	{
		"date": "2018-06-19T22:28+0200",
		"name": "L19 Restaurant",
		"id": "50158576e4b0b186e55b0ac4",
		"lat": 47.496502,
		"lng": 19.041732,
		"country": "Magyarország",
		"categories": ["Restaurant"]
	},
	{
		"date": "2018-06-19T22:25+0200",
		"name": "Várkert Bazár",
		"id": "4c9cde1b7c096dcb389cc5d1",
		"lat": 47.494342763628154,
		"lng": 19.04280721632471,
		"address": "Ybl Miklós tér 4.",
		"postalCode": "1013",
		"city": "Budapest",
		"country": "Magyarország",
		"categories": ["Historic Site", "Garden", "Performing Arts Venue"]
	},
	{
		"date": "2018-06-19T22:04+0200",
		"name": "Budavári Palota",
		"id": "4bc9f998937ca59338c2a692",
		"lat": 47.496197815204255,
		"lng": 19.03954267501831,
		"address": "Budai Vár",
		"postalCode": "1014",
		"city": "Budapest",
		"country": "Magyarország",
		"categories": ["Castle", "Museum", "Monument / Landmark"]
	},
	{
		"date": "2018-06-19T21:32+0200",
		"name": "Várkert Bazár",
		"id": "4c9cde1b7c096dcb389cc5d1",
		"lat": 47.494342763628154,
		"lng": 19.04280721632471,
		"address": "Ybl Miklós tér 4.",
		"postalCode": "1013",
		"city": "Budapest",
		"country": "Magyarország",
		"categories": ["Historic Site", "Garden", "Performing Arts Venue"]
	},
	{
		"date": "2018-06-19T21:05+0200",
		"name": "Normakert vendéglő",
		"id": "4ce924fae888f04dc86e466b",
		"lat": 47.50274992293508,
		"lng": 18.96649250614287,
		"address": "Eötvös út 59.",
		"postalCode": "1121",
		"city": "Budapest",
		"country": "Magyarország",
		"categories": ["Diner", "Café"]
	},
	{
		"date": "2018-06-19T19:51+0200",
		"name": "Anna-rét",
		"id": "4d1c91e3f8ca236a3539f730",
		"lat": 47.506185741119694,
		"lng": 18.96244525909424,
		"address": "Alkony út",
		"postalCode": "1121",
		"city": "Budapest XIII. kerülete",
		"country": "Magyarország",
		"categories": ["Field"]
	},
	{
		"date": "2018-06-19T19:51+0200",
		"name": "Normafa, játszótér",
		"id": "4de8b1937d8b02ee9f1b3de6",
		"lat": 47.50626783574854,
		"lng": 18.961911186397383,
		"postalCode": "1121",
		"city": "Budapest",
		"country": "Magyarország",
		"categories": ["Playground"]
	},
	{
		"date": "2018-06-19T19:02+0200",
		"name": "Kutyafuttató (Városmajor)",
		"id": "57eaa88238fafd14b5b90d2e",
		"lat": 47.50694,
		"lng": 19.02127,
		"postalCode": "1122",
		"city": "Budapest",
		"country": "Magyarország",
		"categories": ["Dog Run"]
	},
	{
		"date": "2018-06-19T17:57+0200",
		"name": "Expo Congress Hotel Budapest",
		"id": "4bd1a6f95e0cce72efc8a184",
		"lat": 47.4933973371665,
		"lng": 19.1217436917344,
		"address": "Expo tér 2.",
		"postalCode": "1101",
		"city": "Budapest",
		"country": "Magyarország",
		"categories": ["Hotel"]
	},
	{
		"date": "2018-06-19T13:50+0200",
		"name": "Docler Cafeteria",
		"id": "505847b7e4b0b9424ea6a1cf",
		"lat": 47.49688493788501,
		"lng": 19.11765951368387,
		"address": "Expo tér 5-7.",
		"postalCode": "1101",
		"city": "Budapest",
		"country": "Magyarország",
		"categories": ["Cafeteria"]
	},
	{
		"date": "2018-06-19T07:56+0200",
		"name": "Docler Holding Irodaház",
		"id": "4b503f8af964a520171f27e3",
		"lat": 47.49694118099851,
		"lng": 19.117601577085395,
		"address": "Expó tér 5-7.",
		"postalCode": "1101",
		"city": "Budapest",
		"country": "Magyarország",
		"categories": ["Office"]
	},
	{
		"date": "2018-06-18T18:15+0200",
		"name": "Expo Congress Hotel Budapest",
		"id": "4bd1a6f95e0cce72efc8a184",
		"lat": 47.4933973371665,
		"lng": 19.1217436917344,
		"address": "Expo tér 2.",
		"postalCode": "1101",
		"city": "Budapest",
		"country": "Magyarország",
		"categories": ["Hotel"]
	},
	{
		"date": "2018-06-18T11:55+0200",
		"name": "Docler Holding Irodaház",
		"id": "4b503f8af964a520171f27e3",
		"lat": 47.49694118099851,
		"lng": 19.117601577085395,
		"address": "Expó tér 5-7.",
		"postalCode": "1101",
		"city": "Budapest",
		"country": "Magyarország",
		"categories": ["Office"]
	},
	{
		"date": "2018-06-18T11:13+0200",
		"name": "Terminal 2A",
		"id": "4c25aa535c5ca59357e044fe",
		"lat": 47.43307502585309,
		"lng": 19.262175999269573,
		"address": "BUD Nemzetközi Repülőtér",
		"postalCode": "1185",
		"city": "Budapest",
		"country": "Magyarország",
		"categories": ["Airport Terminal"]
	},
	{
		"date": "2018-06-18T10:48+0200",
		"name": "Budapest Liszt Ferenc International Airport (BUD) (Budapest Liszt Ferenc nemzetközi repülőtér)",
		"id": "4b61c2daf964a5200f212ae3",
		"lat": 47.4331855826648,
		"lng": 19.261276141427583,
		"address": "Budapest Airport",
		"postalCode": "1185",
		"city": "Budapest",
		"country": "Magyarország",
		"categories": ["Airport"]
	},
	{
		"date": "2018-06-18T10:48+0200",
		"name": "Budapest Liszt Ferenc 13L/31R Runway",
		"id": "58a74179297c163b9452ffb1",
		"lat": 47.43971,
		"lng": 19.2671,
		"city": "Budapest",
		"country": "Magyarország",
		"categories": ["Airport Service"]
	},
	{
		"date": "2018-06-18T08:47+0200",
		"name": "Gate C13",
		"id": "4bb5fa2946d4a593f082c5c0",
		"lat": 52.30521051937847,
		"lng": 4.767076267955778,
		"address": "Concourse C",
		"city": "Schiphol",
		"country": "Nederland",
		"categories": ["Airport Gate"]
	},
	{
		"date": "2018-06-18T07:28+0200",
		"name": "Check-In 1A",
		"id": "59001c0b6fd6262556748d44",
		"lat": 52.30705060283313,
		"lng": 4.763258888072892,
		"city": "Schiphol",
		"country": "Nederland",
		"categories": ["Airport Terminal"]
	},
	{
		"date": "2018-06-18T07:23+0200",
		"name": "Amsterdam Airport Schiphol (AMS) (Amsterdam Airport Schiphol)",
		"id": "4a84e798f964a520defd1fe3",
		"lat": 52.3085704596075,
		"lng": 4.762122631072998,
		"address": "Aankomstpassage",
		"postalCode": "1118 CP",
		"city": "Schiphol",
		"country": "Nederland",
		"categories": ["Airport"]
	},
	{
		"date": "2018-06-18T06:53+0200",
		"name": "Station Amsterdam Sloterdijk",
		"id": "4a56245ff964a52085b41fe3",
		"lat": 52.389038517725574,
		"lng": 4.838510921333843,
		"address": "Orlyplein 105",
		"postalCode": "1043 DT",
		"city": "Amsterdam",
		"country": "Nederland",
		"categories": ["Train Station"]
	},
	{
		"date": "2018-06-18T06:39+0200",
		"name": "Station Haarlem",
		"id": "4a8c3036f964a5203a0d20e3",
		"lat": 52.387919728928985,
		"lng": 4.638276517449355,
		"address": "Stationsplein 11 L",
		"postalCode": "2011 LR",
		"city": "Haarlem",
		"country": "Nederland",
		"categories": ["Train Station"]
	},
	{
		"date": "2018-06-18T06:30+0200",
		"name": "Albert Heijn to go",
		"id": "4b862ee0f964a520038231e3",
		"lat": 52.38851437453483,
		"lng": 4.639542485412089,
		"address": "Stationsplein 14",
		"postalCode": "2011 LR",
		"city": "Haarlem",
		"country": "Nederland",
		"categories": ["Convenience Store"]
	},
	{
		"date": "2018-06-17T19:44+0200",
		"name": "Sportplaza Het Spectrum",
		"id": "4bc9ae4a3740b713710c5f65",
		"lat": 52.305001071788624,
		"lng": 4.664728048914685,
		"address": "Assumburg 1",
		"postalCode": "2135 BA",
		"city": "Hoofddorp",
		"country": "Nederland",
		"categories": ["Pool", "Gym Pool", "Gym / Fitness Center"]
	},
	{
		"date": "2018-06-17T18:41+0200",
		"name": "Starbucks",
		"id": "527cd45c11d2ec15cf3ec92d",
		"lat": 52.38747154736541,
		"lng": 4.6379021726965215,
		"address": "Stationsplein 11",
		"postalCode": "2011 LR",
		"city": "Haarlem",
		"country": "Nederland",
		"categories": ["Coffee Shop"]
	},
	{
		"date": "2018-06-16T13:51+0200",
		"name": "Action",
		"id": "4c1a06b66a21c9b6735dcb97",
		"lat": 52.391095588018075,
		"lng": 4.64856076516707,
		"address": "Werfstraat 11",
		"city": "Haarlem",
		"country": "Nederland",
		"categories": ["Discount Store"]
	},
	{
		"date": "2018-06-16T11:06+0200",
		"name": "Blokker",
		"id": "4c8b6ed2770fb60cdeb5dbc3",
		"lat": 52.37824520322338,
		"lng": 4.632122665643692,
		"address": "Grote Houtstraat 112",
		"postalCode": "2011 ST",
		"city": "Haarlem",
		"country": "Nederland",
		"categories": ["Furniture / Home Store"]
	},
	{
		"date": "2018-06-16T10:12+0200",
		"name": "HEMA",
		"id": "4b210645f964a520213624e3",
		"lat": 52.383033153121,
		"lng": 4.635406049613837,
		"address": "Kruisstraat 51",
		"postalCode": "2011 PW",
		"city": "Haarlem",
		"country": "Nederland",
		"categories": ["Department Store"]
	},
	{
		"date": "2018-06-16T09:08+0200",
		"name": "Station Amsterdam Sloterdijk",
		"id": "4a56245ff964a52085b41fe3",
		"lat": 52.389038517725574,
		"lng": 4.838510921333843,
		"address": "Orlyplein 105",
		"postalCode": "1043 DT",
		"city": "Amsterdam",
		"country": "Nederland",
		"categories": ["Train Station"]
	},
	{
		"date": "2018-06-16T08:10+0200",
		"name": "Olympiaplein",
		"id": "4c6c02996af58cfaa2868517",
		"lat": 52.346203326504174,
		"lng": 4.867103148136183,
		"address": "Olympiaplein",
		"postalCode": "1077",
		"city": "Amsterdam",
		"country": "Nederland",
		"categories": ["Plaza", "Skate Park"]
	},
	{
		"date": "2018-06-16T08:08+0200",
		"name": "Olympiaplein Skatepark",
		"id": "50366f86e4b08484369b3d02",
		"lat": 52.34677505493164,
		"lng": 4.867288589477539,
		"country": "Nederland",
		"categories": ["Skate Park"]
	},
	{
		"date": "2018-06-16T08:08+0200",
		"name": "skatepark halve maan",
		"id": "51d995b8498e52d5643494dc",
		"lat": 52.347188896400105,
		"lng": 4.868066785211783,
		"country": "Nederland",
		"categories": ["Park"]
	},
	{
		"date": "2018-06-16T07:30+0200",
		"name": "Station Amsterdam Sloterdijk",
		"id": "4a56245ff964a52085b41fe3",
		"lat": 52.389038517725574,
		"lng": 4.838510921333843,
		"address": "Orlyplein 105",
		"postalCode": "1043 DT",
		"city": "Amsterdam",
		"country": "Nederland",
		"categories": ["Train Station"]
	},
	{
		"date": "2018-06-16T07:12+0200",
		"name": "Station Haarlem",
		"id": "4a8c3036f964a5203a0d20e3",
		"lat": 52.387919728928985,
		"lng": 4.638276517449355,
		"address": "Stationsplein 11 L",
		"postalCode": "2011 LR",
		"city": "Haarlem",
		"country": "Nederland",
		"categories": ["Train Station"]
	},
	{
		"date": "2018-06-15T19:56+0200",
		"name": "Willie Wortel's Sativa",
		"id": "5093e4e1e4b0ad3a949009f1",
		"lat": 52.387541624229726,
		"lng": 4.637194046552884,
		"address": "Houtplein 16a",
		"city": "Haarlem",
		"country": "Nederland",
		"categories": ["Marijuana Dispensary"]
	},
	{
		"date": "2018-06-15T12:08+0200",
		"name": "SUBWAY",
		"id": "4e899f5e9a52f9bbd0e654b4",
		"lat": 52.38297200404556,
		"lng": 4.6351964166808415,
		"address": "Krocht 12",
		"postalCode": "2011 PT",
		"city": "Haarlem",
		"country": "Nederland",
		"categories": ["Sandwich Place"]
	},
	{
		"date": "2018-06-08T19:31+0200",
		"name": "Albert Heijn",
		"id": "4b9a4b64f964a52066aa35e3",
		"lat": 52.38445463709139,
		"lng": 4.635787640721933,
		"address": "Kruisstraat 10",
		"postalCode": "2011 PX",
		"city": "Haarlem",
		"country": "Nederland",
		"categories": ["Supermarket"]
	},
	{
		"date": "2018-06-08T19:01+0200",
		"name": "Karwei",
		"id": "4b5b027ff964a520a9de28e3",
		"lat": 52.39005961436961,
		"lng": 4.626503810720334,
		"address": "Verspronckweg 63",
		"city": "Haarlem",
		"country": "Nederland",
		"categories": ["Hardware Store"]
	},
	{
		"date": "2018-06-07T20:32+0200",
		"name": "Cantina 023",
		"id": "551ec7ec498e16e90289f15d",
		"lat": 52.379151208083414,
		"lng": 4.636822362656406,
		"address": "Kleine Houtstraat 13",
		"city": "Haarlem",
		"country": "Nederland",
		"categories": ["Mexican Restaurant"]
	},
	{
		"date": "2018-06-06T18:46+0200",
		"name": "Smaczek Supermarkt",
		"id": "51a8ce66498e2a3950a1f59a",
		"lat": 52.385289620268566,
		"lng": 4.6240115610071255,
		"address": "Zijlweg 97",
		"city": "Haarlem",
		"country": "Nederland",
		"categories": ["Grocery Store"]
	},
	{
		"date": "2018-06-05T18:22+0200",
		"name": "Vomar Voordeelmarkt",
		"id": "4b72c969f964a52096882de3",
		"lat": 52.39127711020139,
		"lng": 4.649005288257338,
		"address": "Paul Krugerkade 22",
		"postalCode": "2021 BN",
		"city": "Haarlem",
		"country": "Nederland",
		"categories": ["Supermarket", "Grocery Store"]
	},
	{
		"date": "2018-06-04T18:36+0200",
		"name": "Vomar Voordeelmarkt",
		"id": "4b72c969f964a52096882de3",
		"lat": 52.39127711020139,
		"lng": 4.649005288257338,
		"address": "Paul Krugerkade 22",
		"postalCode": "2021 BN",
		"city": "Haarlem",
		"country": "Nederland",
		"categories": ["Supermarket", "Grocery Store"]
	},
	{
		"date": "2018-06-03T13:48+0200",
		"name": "Station Haarlem",
		"id": "4a8c3036f964a5203a0d20e3",
		"lat": 52.387919728928985,
		"lng": 4.638276517449355,
		"address": "Stationsplein 11 L",
		"postalCode": "2011 LR",
		"city": "Haarlem",
		"country": "Nederland",
		"categories": ["Train Station"]
	},
	{
		"date": "2018-06-03T13:20+0200",
		"name": "Salsa Shop",
		"id": "574f4d9c498efc56a240b8c2",
		"lat": 52.37958465946948,
		"lng": 4.900045992389015,
		"address": "Stationsplein",
		"postalCode": "1012 AB",
		"city": "Amsterdam",
		"country": "Nederland",
		"categories": ["Burrito Place"]
	},
	{
		"date": "2018-06-03T12:43+0200",
		"name": "Station Utrecht Centraal",
		"id": "4a7856a9f964a5206be51fe3",
		"lat": 52.089209230481956,
		"lng": 5.109777935831807,
		"address": "Jaarbeursplein 6",
		"postalCode": "3521 AL",
		"city": "Utrecht",
		"country": "Nederland",
		"categories": ["Train Station"]
	},
	{
		"date": "2018-06-03T12:30+0200",
		"name": "thomas a kempis weg",
		"id": "55fb1b14498e614b8534a295",
		"lat": 52.096679,
		"lng": 5.085379,
		"country": "Nederland",
		"categories": ["Island"]
	},
	{
		"date": "2018-06-03T11:00+0200",
		"name": "Werkspoorkathedraal",
		"id": "521f5ced498e5eebfd019856",
		"lat": 52.105104462293966,
		"lng": 5.079763955522955,
		"country": "Nederland",
		"categories": ["Building"]
	},
	{
		"date": "2018-06-03T10:52+0200",
		"name": "Station Utrecht Zuilen",
		"id": "4b4e08bef964a520fdde26e3",
		"lat": 52.10323003732146,
		"lng": 5.08942723274231,
		"address": "Cartesiusweg 10",
		"postalCode": "3534 BD",
		"city": "Utrecht",
		"country": "Nederland",
		"categories": ["Train Station"]
	},
	{
		"date": "2018-06-03T10:35+0200",
		"name": "Station Utrecht Centraal",
		"id": "4a7856a9f964a5206be51fe3",
		"lat": 52.089209230481956,
		"lng": 5.109777935831807,
		"address": "Jaarbeursplein 6",
		"postalCode": "3521 AL",
		"city": "Utrecht",
		"country": "Nederland",
		"categories": ["Train Station"]
	},
	{
		"date": "2018-06-03T10:06+0200",
		"name": "Station Amsterdam Centraal",
		"id": "4a688ba1f964a52088ca1fe3",
		"lat": 52.37878224866535,
		"lng": 4.900374412536621,
		"address": "Stationsplein 15",
		"postalCode": "1012 AB",
		"city": "Amsterdam",
		"country": "Nederland",
		"categories": ["Train Station"]
	},
	{
		"date": "2018-06-03T09:42+0200",
		"name": "Station Haarlem",
		"id": "4a8c3036f964a5203a0d20e3",
		"lat": 52.387919728928985,
		"lng": 4.638276517449355,
		"address": "Stationsplein 11 L",
		"postalCode": "2011 LR",
		"city": "Haarlem",
		"country": "Nederland",
		"categories": ["Train Station"]
	},
	{
		"date": "2018-06-02T18:57+0200",
		"name": "Albert Heijn to go",
		"id": "4b862ee0f964a520038231e3",
		"lat": 52.38851437453483,
		"lng": 4.639542485412089,
		"address": "Stationsplein 14",
		"postalCode": "2011 LR",
		"city": "Haarlem",
		"country": "Nederland",
		"categories": ["Convenience Store"]
	},
	{
		"date": "2018-06-02T00:54+0200",
		"name": "Station Haarlem",
		"id": "4a8c3036f964a5203a0d20e3",
		"lat": 52.387919728928985,
		"lng": 4.638276517449355,
		"address": "Stationsplein 11 L",
		"postalCode": "2011 LR",
		"city": "Haarlem",
		"country": "Nederland",
		"categories": ["Train Station"]
	},
	{
		"date": "2018-06-01T19:46+0200",
		"name": "Hoofddorp",
		"id": "51deedea498e47b233487c23",
		"lat": 52.30036251243566,
		"lng": 4.695367360002193,
		"country": "Nederland",
		"categories": ["City"]
	}
]
