[{"date":"2018-05-31T19:56+0200","name":"Albert Heijn","id":"4b9a4b64f964a52066aa35e3","lat":52.38445463709139,"lng":4.635787640721933,"address":"Kruisstraat 10","postalCode":"2011 PX","city":"Haarlem","country":"Nederland","categories":["Supermarket"]},{"date":"2018-05-31T19:32+0200","name":"Blokker","id":"4c8b6ed2770fb60cdeb5dbc3","lat":52.37824520322338,"lng":4.632122665643692,"address":"Grote Houtstraat 112","postalCode":"2011 ST","city":"Haarlem","country":"Nederland","categories":["Furniture / Home Store"]},{"date":"2018-05-29T16:17+0200","name":"Albert Heijn to go","id":"4b862ee0f964a520038231e3","lat":52.38851437453483,"lng":4.639542485412089,"address":"Stationsplein 14","postalCode":"2011 LR","city":"Haarlem","country":"Nederland","categories":["Convenience Store"]},{"date":"2018-05-27T18:23+0200","name":"Albert Heijn to go","id":"4b862ee0f964a520038231e3","lat":52.38851437453483,"lng":4.639542485412089,"address":"Stationsplein 14","postalCode":"2011 LR","city":"Haarlem","country":"Nederland","categories":["Convenience Store"]},{"date":"2018-05-25T20:27+0200","name":"Cantina 023","id":"551ec7ec498e16e90289f15d","lat":52.379151208083414,"lng":4.636822362656406,"address":"Kleine Houtstraat 13","city":"Haarlem","country":"Nederland","categories":["Mexican Restaurant"]},{"date":"2018-05-25T13:40+0200","name":"SUBWAY","id":"4e899f5e9a52f9bbd0e654b4","lat":52.38297200404556,"lng":4.6351964166808415,"address":"Krocht 12","postalCode":"2011 PT","city":"Haarlem","country":"Nederland","categories":["Sandwich Place"]},{"date":"2018-05-24T18:44+0200","name":"Vomar Voordeelmarkt","id":"4b72c969f964a52096882de3","lat":52.39127711020139,"lng":4.649005288257338,"address":"Paul Krugerkade 22","postalCode":"2021 BN","city":"Haarlem","country":"Nederland","categories":["Supermarket","Grocery Store"]},{"date":"2018-05-23T13:06+0200","name":"Basic X Hair","id":"52e15bd4498eff401e7266b1","lat":52.38709780312595,"lng":4.636948636589309,"address":"Kruisweg 35","postalCode":"2011LA","city":"Haarlem","country":"Nederland","categories":["Salon / Barbershop"]},{"date":"2018-05-22T23:12+0200","name":"Café de Vijfhoek","id":"4a7b53d1f964a520b1ea1fe3","lat":52.37887462473104,"lng":4.6301965984374895,"address":"Wolstraat 20","postalCode":"2011ZA","city":"Haarlem","country":"Nederland","categories":["Bar"]},{"date":"2018-05-22T21:43+0200","name":"Woodstone Pizza And Wine","id":"4d7ba00ef260a093c3922aba","lat":52.38142433800417,"lng":4.629887062490495,"address":"Hortusplein 2","postalCode":"2019 XV","city":"Haarlem","country":"Nederland","categories":["Pizza Place","Wine Bar"]},{"date":"2018-05-22T18:21+0200","name":"Albert Heijn","id":"4b9a4b64f964a52066aa35e3","lat":52.38445463709139,"lng":4.635787640721933,"address":"Kruisstraat 10","postalCode":"2011 PX","city":"Haarlem","country":"Nederland","categories":["Supermarket"]},{"date":"2018-05-21T20:14+0200","name":"Catharijnebrug","id":"4c6e3263f338236a14e8091b","lat":52.38303588153227,"lng":4.642963060018276,"address":"Harmejansweg","city":"Haarlem","country":"Nederland","categories":["Bridge"]},{"date":"2018-05-21T19:28+0200","name":"Greenjoy Leidsevaart","id":"4fb0afe3e4b08260e4a54777","lat":52.37821670639701,"lng":4.6260279351520435,"country":"Nederland","categories":["Other Great Outdoors"]},{"date":"2018-05-21T18:56+0200","name":"Club Spaarne","id":"4c2ccd0b77cfe21e6c94b6f1","lat":52.382526,"lng":4.643365144729614,"address":"koudenhorn","postalCode":"2011","city":"Haarlem","country":"Nederland","categories":["Boat or Ferry","Event Space"]},{"date":"2018-05-20T17:49+0200","name":"The Döner Company","id":"4d790928a56e37040e5d7567","lat":52.38817372624091,"lng":4.63927902305991,"address":"Station Haarlem","postalCode":"2011 LR","city":"Haarlem","country":"Nederland","categories":["Doner Restaurant","Falafel Restaurant","Kebab Restaurant"]},{"date":"2018-05-20T17:47+0200","name":"Station Haarlem","id":"4a8c3036f964a5203a0d20e3","lat":52.387919728928985,"lng":4.638276517449355,"address":"Stationsplein 11 L","postalCode":"2011 LR","city":"Haarlem","country":"Nederland","categories":["Train Station"]},{"date":"2018-05-20T17:35+0200","name":"Station Zandvoort aan Zee","id":"4b235a53f964a5205c5524e3","lat":52.3757860855875,"lng":4.531738906725922,"address":"Stationsplein 6","postalCode":"2041AB","city":"Zandvoort","country":"Nederland","categories":["Train Station"]},{"date":"2018-05-20T14:01+0200","name":"Strand Zandvoort aan Zee","id":"4c2f344b3896e21e3978e390","lat":52.375486156134436,"lng":4.525765926071059,"address":"Boulevard de Favauge","city":"Zandvoort","country":"Nederland","categories":["Beach"]},{"date":"2018-05-18T19:55+0200","name":"Albert Heijn","id":"4b9a4b64f964a52066aa35e3","lat":52.38445463709139,"lng":4.635787640721933,"address":"Kruisstraat 10","postalCode":"2011 PX","city":"Haarlem","country":"Nederland","categories":["Supermarket"]},{"date":"2018-05-18T19:24+0200","name":"Total","id":"511f6939e4b02b37a20b94c2","lat":52.380005,"lng":4.645413,"country":"Nederland","categories":["Gas Station"]},{"date":"2018-05-17T18:29+0200","name":"Albert Heijn","id":"4b9a4b64f964a52066aa35e3","lat":52.38445463709139,"lng":4.635787640721933,"address":"Kruisstraat 10","postalCode":"2011 PX","city":"Haarlem","country":"Nederland","categories":["Supermarket"]},{"date":"2018-05-16T19:16+0200","name":"Winkelcentrum Toolenburg","id":"4b8e8cf0f964a520302833e3","lat":52.30034095565927,"lng":4.665463516920855,"address":"Markenburg 105","postalCode":"2135 DS","city":"Hoofddorp","country":"Nederland","categories":["Shopping Mall"]},{"date":"2018-05-15T18:42+0200","name":"Albert Heijn","id":"4b9a4b64f964a52066aa35e3","lat":52.38445463709139,"lng":4.635787640721933,"address":"Kruisstraat 10","postalCode":"2011 PX","city":"Haarlem","country":"Nederland","categories":["Supermarket"]},{"date":"2018-05-14T18:53+0200","name":"Albert Heijn","id":"4b9a4b64f964a52066aa35e3","lat":52.38445463709139,"lng":4.635787640721933,"address":"Kruisstraat 10","postalCode":"2011 PX","city":"Haarlem","country":"Nederland","categories":["Supermarket"]},{"date":"2018-05-12T11:08+0200","name":"Albert Heijn","id":"4b9a4b64f964a52066aa35e3","lat":52.38445463709139,"lng":4.635787640721933,"address":"Kruisstraat 10","postalCode":"2011 PX","city":"Haarlem","country":"Nederland","categories":["Supermarket"]},{"date":"2018-05-10T19:32+0200","name":"Sumo","id":"50a7ba98e4b0740a17dedff7","lat":52.38125846452132,"lng":4.638113814869877,"address":"Riviervismarkt 11","postalCode":"2011 HJ","city":"Haarlem","country":"Nederland","categories":["Sushi Restaurant"]},{"date":"2018-05-07T12:46+0200","name":"Albert Heijn","id":"4b9a4b64f964a52066aa35e3","lat":52.38445463709139,"lng":4.635787640721933,"address":"Kruisstraat 10","postalCode":"2011 PX","city":"Haarlem","country":"Nederland","categories":["Supermarket"]},{"date":"2018-05-06T21:15+0200","name":"Station Haarlem","id":"4a8c3036f964a5203a0d20e3","lat":52.387919728928985,"lng":4.638276517449355,"address":"Stationsplein 11 L","postalCode":"2011 LR","city":"Haarlem","country":"Nederland","categories":["Train Station"]},{"date":"2018-05-06T21:03+0200","name":"Station Zandvoort aan Zee","id":"4b235a53f964a5205c5524e3","lat":52.3757860855875,"lng":4.531738906725922,"address":"Stationsplein 6","postalCode":"2041AB","city":"Zandvoort","country":"Nederland","categories":["Train Station"]},{"date":"2018-05-06T20:27+0200","name":"Strand Zandvoort aan Zee","id":"4c2f344b3896e21e3978e390","lat":52.375486156134436,"lng":4.525765926071059,"address":"Boulevard de Favauge","city":"Zandvoort","country":"Nederland","categories":["Beach"]},{"date":"2018-05-06T19:05+0200","name":"La Fontanella","id":"4bd47c2d6798ef3bcab0618d","lat":52.37508301639062,"lng":4.528903982941875,"address":"Passage 2-4","postalCode":"2042KT","city":"Zandvoort","country":"Nederland","categories":["Italian Restaurant","Pizza Place"]},{"date":"2018-05-06T18:13+0200","name":"Baz Zandvoort","id":"5adb2feeb8fd9d66ad0b3741","lat":52.375565,"lng":4.526095,"postalCode":"2042 TV","city":"Zandvoort","country":"Nederland","categories":["Bar","Dutch Restaurant"]},{"date":"2018-05-06T18:02+0200","name":"Strand Zandvoort aan Zee","id":"4c2f344b3896e21e3978e390","lat":52.375486156134436,"lng":4.525765926071059,"address":"Boulevard de Favauge","city":"Zandvoort","country":"Nederland","categories":["Beach"]},{"date":"2018-05-06T17:57+0200","name":"Station Zandvoort aan Zee","id":"4b235a53f964a5205c5524e3","lat":52.3757860855875,"lng":4.531738906725922,"address":"Stationsplein 6","postalCode":"2041AB","city":"Zandvoort","country":"Nederland","categories":["Train Station"]},{"date":"2018-05-06T17:43+0200","name":"Station Haarlem","id":"4a8c3036f964a5203a0d20e3","lat":52.387919728928985,"lng":4.638276517449355,"address":"Stationsplein 11 L","postalCode":"2011 LR","city":"Haarlem","country":"Nederland","categories":["Train Station"]},{"date":"2018-05-06T16:01+0200","name":"Station Amsterdam Sloterdijk","id":"4a56245ff964a52085b41fe3","lat":52.389038517725574,"lng":4.838510921333843,"address":"Orlyplein 105","postalCode":"1043 DT","city":"Amsterdam","country":"Nederland","categories":["Train Station"]},{"date":"2018-05-06T15:13+0200","name":"Station Schiphol Airport","id":"4b14bf25f964a5203fa623e3","lat":52.309421352795255,"lng":4.762016504847906,"address":"Aankomstpassage 18","postalCode":"1118 AX","city":"Schiphol","country":"Nederland","categories":["Train Station"]},{"date":"2018-05-06T14:36+0200","name":"Amsterdam Airport Schiphol (AMS) (Amsterdam Airport Schiphol)","id":"4a84e798f964a520defd1fe3","lat":52.3085704596075,"lng":4.762122631072998,"address":"Aankomstpassage","postalCode":"1118 CP","city":"Schiphol","country":"Nederland","categories":["Airport"]},{"date":"2018-05-06T09:45+0900","name":"Tully's Coffee (TULLY'S COFFEE 関西空港南ウイング店)","id":"4ea54a2f9adff6343ad556e8","lat":34.43108553714165,"lng":135.24047042151284,"address":"泉州空港中1","postalCode":"549-0001","country":"日本","categories":["Coffee Shop"]},{"date":"2018-05-06T09:11+0900","name":"Gate 39 (39番ゲート)","id":"4eb2397a9a52cc10f6b53b93","lat":34.43110637195288,"lng":135.24001145135975,"address":"泉州空港中1","postalCode":"549-0011","city":"泉佐野市","country":"日本","categories":["Airport Gate"]},{"date":"2018-05-06T08:59+0900","name":"Duty Free Shop Kansai Airport","id":"4cd0ae417f56a1434bdecfa6","lat":34.4335916311026,"lng":135.24363222153485,"address":"泉州空港北1","postalCode":"549-0001","city":"泉佐野市","country":"日本","categories":["Duty-free Shop"]},{"date":"2018-05-06T08:24+0900","name":"Terminal 1 (第1ターミナル)","id":"50a31f8b183fa3d781238956","lat":34.435371953190646,"lng":135.24360017850785,"address":"泉州空港北1","postalCode":"549-0001","city":"泉佐野市","country":"日本","categories":["Airport Terminal"]},{"date":"2018-05-06T08:24+0900","name":"Kansai International Airport (KIX) (関西国際空港)","id":"4b2696c0f964a520fa7d24e3","lat":34.435517315120904,"lng":135.24449281396468,"address":"泉州空港北1","postalCode":"549-0001","city":"泉佐野市","country":"日本","categories":["Airport"]},{"date":"2018-05-06T06:12+0900","name":"Gate 69 (搭乗口69)","id":"4d28e42d888af04d4c1fcaaf","lat":35.54858243156614,"lng":139.79271717051245,"address":"羽田空港3-3-2","postalCode":"144-0041","city":"東京","country":"日本","categories":["Airport Gate"]},{"date":"2018-05-06T05:54+0900","name":"Tokyo (Haneda) International Airport (HND) (東京国際空港 / 羽田空港)","id":"4b89fd41f964a520685a32e3","lat":35.54843152112038,"lng":139.78040724992752,"address":"羽田空港3-3-2","postalCode":"144-0041","city":"東京","country":"日本","categories":["Airport"]},{"date":"2018-05-06T05:53+0900","name":"Terminal 2 (第2ターミナル)","id":"4b5ed34ef964a520ff9929e3","lat":35.551065526758215,"lng":139.7886335849762,"address":"羽田空港3-4-2","postalCode":"144-0041","city":"東京","country":"日本","categories":["Airport Terminal"]},{"date":"2018-05-06T05:47+0900","name":"Terminal 2 (第2ターミナル)","id":"4b5ed34ef964a520ff9929e3","lat":35.551065526758215,"lng":139.7886335849762,"address":"羽田空港3-4-2","postalCode":"144-0041","city":"東京","country":"日本","categories":["Airport Terminal"]},{"date":"2018-05-05T22:14+0900","name":"7-Eleven (セブンイレブン 京急蒲田駅前店)","id":"4bfa2444508c0f47b3d43f31","lat":35.56001025266341,"lng":139.7221999534942,"address":"蒲田4-25-7","postalCode":"144-0052","city":"東京","country":"日本","categories":["Convenience Store"]},{"date":"2018-05-05T21:42+0900","name":"McDonald's (マクドナルド)","id":"4b83620af964a5209e0431e3","lat":35.62874823404733,"lng":139.7372284212549,"address":"高輪4-10-18","postalCode":"108-0074","city":"東京","country":"日本","categories":["Fast Food Restaurant"]},{"date":"2018-05-05T20:41+0900","name":"mango tree cafe + bar","id":"5063ed66e4b0bcc39aba0c4b","lat":35.62880278640272,"lng":139.73713517189026,"address":"高輪4-10-18","postalCode":"108-0074","city":"東京","country":"日本","categories":["Thai Restaurant","Bar","Café"]},{"date":"2018-05-05T20:17+0900","name":"JR Ōsaki Station (JR 大崎駅)","id":"4b69740ff964a520f1a22be3","lat":35.619393632200484,"lng":139.72849287287372,"address":"大崎1-21-4","city":"品川区","country":"日本","categories":["Train Station"]},{"date":"2018-05-05T20:17+0900","name":"Ōsaki Station (大崎駅)","id":"4b22504cf964a520704524e3","lat":35.61935401403384,"lng":139.72840806646036,"address":"大崎1-21-4","postalCode":"141-0032","city":"品川区","country":"日本","categories":["Train Station"]},{"date":"2018-05-05T19:29+0900","name":"Shinjuku (新宿)","id":"4d145edc25cda143b89960d6","lat":35.691810263238075,"lng":139.7015106068225,"city":"東京","country":"日本","categories":["Neighborhood"]},{"date":"2018-05-05T19:29+0900","name":"Shinjuku Station (新宿駅)","id":"4b0587a6f964a5203d9e22e3","lat":35.6902855118056,"lng":139.7003298997879,"address":"新宿3/西新宿1/代々木2","city":"東京","country":"日本","categories":["Train Station","Metro Station"]},{"date":"2018-05-05T19:19+0900","name":"Harajuku Station (原宿駅)","id":"4b67a5c4f964a52069592be3","lat":35.67049610645305,"lng":139.70279211094123,"address":"神宮前1-18-20","postalCode":"150-0001","city":"東京","country":"日本","categories":["Train Station"]},{"date":"2018-05-05T18:30+0900","name":"Daiso (ダイソー 原宿店)","id":"4b669935f964a52025252be3","lat":35.671474243880404,"lng":139.70366555469596,"address":"神宮前1-19-24","postalCode":"150-0001","city":"東京","country":"日本","categories":["Discount Store"]},{"date":"2018-05-05T18:30+0900","name":"Takeshita Street (竹下通り)","id":"4b63f221f964a5203d982ae3","lat":35.671407601870335,"lng":139.70377943654586,"address":"神宮前1","postalCode":"150-0001","city":"東京","country":"日本","categories":["Shopping Mall","Road"]},{"date":"2018-05-05T18:16+0900","name":"Cookie Time 原宿店","id":"52b3cc8e498e1f5ec72ea9b7","lat":35.672464788145945,"lng":139.70345265320938,"address":"神宮前1-21-15","city":"東京","country":"日本","categories":["Café","Dessert Shop"]},{"date":"2018-05-05T17:45+0900","name":"バラの園","id":"4fc1d7d4e4b04422a14c490c","lat":35.66920859124196,"lng":139.6968336016455,"address":"代々木神園町2-1","postalCode":"151-0052","city":"東京","country":"日本","categories":["Garden"]},{"date":"2018-05-05T16:58+0900","name":"Yoyogi Park (代々木公園)","id":"4b5a3a54f964a520cdb528e3","lat":35.67043660939139,"lng":139.69567090272903,"address":"代々木神園町/神南2","postalCode":"151-0052","city":"東京","country":"日本","categories":["Park"]},{"date":"2018-05-05T16:20+0900","name":"Mori no Terrace (杜のテラス)","id":"4e742a56483b0cf5ec2d434f","lat":35.669771,"lng":139.701752,"address":"代々木神園町1-1","postalCode":"151-0052","city":"東京","country":"日本","categories":["Café"]},{"date":"2018-05-05T15:53+0900","name":"JR Shinagawa Station (JR 品川駅)","id":"4ec0d5979911a2ec5c6cdda6","lat":35.62829002952124,"lng":139.7385757236359,"address":"高輪3-26-27","postalCode":"108-0074","city":"東京","country":"日本","categories":["Train Station"]},{"date":"2018-05-05T15:53+0900","name":"Shinagawa Station (品川駅)","id":"4b0e60adf964a520305723e3","lat":35.62875176540534,"lng":139.73908412514743,"address":"高輪3/港南2","city":"港区","country":"日本","categories":["Train Station"]},{"date":"2018-05-05T15:53+0900","name":"Keikyu Shinagawa Station (KK01) (京急 品川駅)","id":"4b5a4723f964a5209eb928e3","lat":35.628158024199244,"lng":139.7380019379651,"address":"高輪3-26-26","postalCode":"108-0074","city":"東京","country":"日本","categories":["Train Station"]},{"date":"2018-05-05T12:39+0900","name":"妙泉寺","id":"4ea232096da1455cac44b7b6","lat":35.55716101354276,"lng":139.71975844990038,"address":"蒲田本町2-7-12","postalCode":"144-0053","city":"東京","country":"日本","categories":["Buddhist Temple"]},{"date":"2018-05-05T11:23+0900","name":"Kamata Station (蒲田駅)","id":"4c00a5419cf52d7f422e14e7","lat":35.56239461062914,"lng":139.7160126699674,"address":"蒲田5/西蒲田7","postalCode":"144-0052","city":"東京","country":"日本","categories":["Train Station"]},{"date":"2018-05-04T23:53+0900","name":"7-Eleven (セブンイレブン 京急蒲田駅前店)","id":"4bfa2444508c0f47b3d43f31","lat":35.56001025266341,"lng":139.7221999534942,"address":"蒲田4-25-7","postalCode":"144-0052","city":"東京","country":"日本","categories":["Convenience Store"]},{"date":"2018-05-04T23:29+0900","name":"Keikyu Shinagawa Station (KK01) (京急 品川駅)","id":"4b5a4723f964a5209eb928e3","lat":35.628158024199244,"lng":139.7380019379651,"address":"高輪3-26-26","postalCode":"108-0074","city":"東京","country":"日本","categories":["Train Station"]},{"date":"2018-05-04T23:24+0900","name":"Shinagawa Station (品川駅)","id":"4b0e60adf964a520305723e3","lat":35.62875176540534,"lng":139.73908412514743,"address":"高輪3/港南2","city":"港区","country":"日本","categories":["Train Station"]},{"date":"2018-05-04T23:22+0900","name":"Shinkansen Shinagawa Station (東海道新幹線 品川駅)","id":"4b92005ef964a520ebe233e3","lat":35.6295726553358,"lng":139.74033703085394,"address":"港南2-1-78","postalCode":"108-0075","city":"東京","country":"日本","categories":["Train Station"]},{"date":"2018-05-04T20:48+0900","name":"Shinkansen Kyoto Station (東海道新幹線 京都駅)","id":"4dc8a6077d8b549a55f43a55","lat":34.98459524128595,"lng":135.75931079688402,"address":"下京区東塩小路高倉町8-3","postalCode":"600-8214","city":"京都市","country":"日本","categories":["Train Station"]},{"date":"2018-05-04T20:48+0900","name":"Kyoto Station (京都駅)","id":"4b570e89f964a520b22428e3","lat":34.98499786434392,"lng":135.75889427380184,"address":"下京区東塩小路高倉町8-3","postalCode":"600-8214","city":"京都市","country":"日本","categories":["Train Station"]},{"date":"2018-05-04T17:57+0900","name":"知恩院 新門","id":"4e6c1ebd2271d308c7d2ed84","lat":35.0055075443118,"lng":135.7779835197952,"address":"東山区林下町","postalCode":"605-0933","city":"京都市","country":"日本","categories":["Buddhist Temple"]},{"date":"2018-05-04T17:15+0900","name":"Gion Shirakawa (白川)","id":"4bb94c7a7421a593f2b4c240","lat":35.00536938012213,"lng":135.7729384866988,"address":"末吉町","country":"日本","categories":["River","Other Great Outdoors"]},{"date":"2018-05-04T17:06+0900","name":"祇園 白川新橋","id":"4eec20936da1536879243190","lat":35.00556021831185,"lng":135.77444230860974,"city":"京都市","country":"日本","categories":["Bridge","Neighborhood"]},{"date":"2018-05-04T16:44+0900","name":"7-Eleven (セブンイレブン 京都祇園北店)","id":"4bab0a2cf964a520c4923ae3","lat":35.005711801955755,"lng":135.77290505305564,"address":"元吉町71-2","postalCode":"605-0087","country":"日本","categories":["Convenience Store"]},{"date":"2018-05-04T16:15+0900","name":"Shimbashi-Dori","id":"584f79a19850a011eaa7290e","lat":35.005269,"lng":135.774441,"country":"日本","categories":["Plaza"]},{"date":"2018-05-04T15:45+0900","name":"Gion Shirakawa (白川)","id":"4bb94c7a7421a593f2b4c240","lat":35.00536938012213,"lng":135.7729384866988,"address":"末吉町","country":"日本","categories":["River","Other Great Outdoors"]},{"date":"2018-05-04T15:02+0900","name":"Tully's Coffee (TULLY'S COFFEE 京都三条通り店)","id":"4b66b1daf964a520b0272be3","lat":35.00862438376749,"lng":135.76642258174073,"address":"中京区弁慶石町5","postalCode":"604-8082","city":"京都市","country":"日本","categories":["Coffee Shop"]},{"date":"2018-05-04T15:02+0900","name":"ろっくんプラザ 新京極六角公園","id":"4ccbcae172106dcbea009799","lat":35.007293129921784,"lng":135.76728552420505,"address":"中京区桜之町","postalCode":"604-8035","city":"京都市","country":"日本","categories":["Park"]},{"date":"2018-05-04T14:57+0900","name":"Shinkyogoku Shopping Street (新京極商店街)","id":"4b5d5f93f964a5202a5b29e3","lat":35.005956967142424,"lng":135.76720904484966,"address":"中京区東側町","postalCode":"604-8046","city":"京都市","country":"日本","categories":["Shopping Mall"]},{"date":"2018-05-04T14:03+0900","name":"gram 京都河原町店","id":"56eb7be9498ef391c3adc48b","lat":35.00592002512136,"lng":135.7692164098109,"address":"中京区河原町通蛸薬師下る奈良屋町302","postalCode":"604-8033","city":"京都市","country":"日本","categories":["Café"]},{"date":"2018-05-04T13:28+0900","name":"Fushimi-Inari Station (KH 34) (伏見稲荷駅)","id":"4b56ea73f964a5201f1f28e3","lat":34.968658173829716,"lng":135.7692688204026,"address":"伏見区深草一ノ坪町33","postalCode":"612-0012","city":"京都市","country":"日本","categories":["Train Station"]},{"date":"2018-05-04T13:06+0900","name":"Senbon Torii (千本鳥居)","id":"4ba6cb11f964a520057039e3","lat":34.96720257764748,"lng":135.7739933755349,"address":"伏見区深草藪之内町68","postalCode":"612-0882","city":"京都市","country":"日本","categories":["Shrine","Historic Site"]},{"date":"2018-05-04T13:03+0900","name":"Fushimi Inari Taisha (伏見稲荷大社)","id":"4b6e5cddf964a52034ba2ce3","lat":34.96727933764992,"lng":135.77225722344627,"address":"伏見区深草藪之内町68","postalCode":"612-0882","city":"京都市","country":"日本","categories":["Shrine","Historic Site"]},{"date":"2018-05-04T12:44+0900","name":"JR Kyōto Station (JR 京都駅)","id":"5353bef8498e5a6eb45379d4","lat":34.98535253822253,"lng":135.7582953572273,"address":"下京区東塩小路高倉町8-3/東塩小路町901","postalCode":"600-8214","city":"京都市","country":"日本","categories":["Train Station"]},{"date":"2018-05-04T12:12+0900","name":"Kyoto Station (京都駅)","id":"4b570e89f964a520b22428e3","lat":34.98499786434392,"lng":135.75889427380184,"address":"下京区東塩小路高倉町8-3","postalCode":"600-8214","city":"京都市","country":"日本","categories":["Train Station"]},{"date":"2018-05-04T10:19+0900","name":"Kannami Station (函南駅)","id":"4b5c1aa0f964a520272429e3","lat":35.10859499621701,"lng":138.97104709419696,"address":"桑原190","postalCode":"419-0121","city":"函南町","country":"日本","categories":["Train Station"]},{"date":"2018-05-03T21:52+0900","name":"Den-en-chofu (田園調布)","id":"4c7bc57c81bca0937f140415","lat":35.593921,"lng":139.66674,"city":"東京","country":"日本","categories":["Neighborhood"]},{"date":"2018-05-03T21:30+0900","name":"FamilyMart (ファミリーマート サンズ京急蒲田駅西口店)","id":"580813be38fa65f5913ca977","lat":35.561186111973576,"lng":139.72309112548828,"address":"蒲田4-15-3","postalCode":"144-0052","city":"東京","country":"日本","categories":["Convenience Store"]},{"date":"2018-05-03T21:04+0900","name":"Yokohama Station (横浜駅)","id":"4b07c29cf964a520d8ff22e3","lat":35.465878941747526,"lng":139.6225398465855,"address":"西区高島2/南幸1","postalCode":"220-0011","city":"横浜市","country":"日本","categories":["Train Station","Metro Station"]},{"date":"2018-05-03T20:45+0900","name":"Ōfuna Station (大船駅)","id":"4b3eb94df964a5206ba125e3","lat":35.35405219174449,"lng":139.53153701343157,"address":"大船1-1-1","postalCode":"247-0056","city":"鎌倉市","country":"日本","categories":["Train Station","Light Rail Station"]},{"date":"2018-05-03T19:43+0900","name":"Café LivingRoom","id":"572e9644498ea744e2f0a79a","lat":35.310518,"lng":139.487004,"address":"片瀬海岸1-8-38","city":"藤沢市","country":"日本","categories":["Taco Place"]},{"date":"2018-05-03T18:41+0900","name":"Pizzeria&Dining PICO","id":"4bc9ab6fcc8cd13abdedbbcf","lat":35.309190752754674,"lng":139.48623775042262,"address":"片瀬海岸1-11-30","city":"藤沢市","country":"日本","categories":["Italian Restaurant"]},{"date":"2018-05-03T16:30+0900","name":"Enoshima Sea Candle (江の島シーキャンドル (江の島展望灯台))","id":"4b64ed96f964a52060da2ae3","lat":35.29977893868282,"lng":139.47846751081116,"address":"江の島2-3","postalCode":"251-0036","city":"藤沢市","country":"日本","categories":["Lighthouse","Scenic Lookout"]},{"date":"2018-05-03T16:16+0900","name":"Samuel Cocking Garden (江の島サムエル・コッキング苑)","id":"4b6d2e1cf964a5204a6a2ce3","lat":35.29918772176059,"lng":139.47985890970148,"address":"江の島2-3-38","postalCode":"251-0036","city":"藤沢市","country":"日本","categories":["Garden"]},{"date":"2018-05-03T15:36+0900","name":"Dr Fish","id":"51d7b0ad498ebe8833be9ccb","lat":35.30753,"lng":139.483414,"country":"日本","categories":["Spa"]},{"date":"2018-05-03T15:35+0900","name":"Enoshima Island (江の島)","id":"4c5f6b3890b2c9b61ac73a22","lat":35.3015522120558,"lng":139.48234019565353,"address":"江の島","postalCode":"251-0036","city":"藤沢市","country":"日本","categories":["Island"]},{"date":"2018-05-03T15:35+0900","name":"Enoshima Shrine (江島神社)","id":"4b56dd3cf964a520671d28e3","lat":35.300327,"lng":139.47957,"address":"江の島2-3-8","postalCode":"251-0036","city":"藤沢市","country":"日本","categories":["Shrine","Historic Site"]},{"date":"2018-05-03T14:39+0900","name":"Enoshima Station (EN06) (江ノ島駅)","id":"4b5ee241f964a5204a9c29e3","lat":35.311080478280424,"lng":139.48761999607086,"address":"片瀬海岸1-4-7","postalCode":"251-0035","city":"藤沢市","country":"日本","categories":["Train Station"]},{"date":"2018-05-03T13:59+0900","name":"Ōfuna Station (大船駅)","id":"4b3eb94df964a5206ba125e3","lat":35.35405219174449,"lng":139.53153701343157,"address":"大船1-1-1","postalCode":"247-0056","city":"鎌倉市","country":"日本","categories":["Train Station","Light Rail Station"]},{"date":"2018-05-03T13:03+0900","name":"Kamata Station (蒲田駅)","id":"4c00a5419cf52d7f422e14e7","lat":35.56239461062914,"lng":139.7160126699674,"address":"蒲田5/西蒲田7","postalCode":"144-0052","city":"東京","country":"日本","categories":["Train Station"]},{"date":"2018-05-02T23:15+0900","name":"Keikyu Shinagawa Station (KK01) (京急 品川駅)","id":"4b5a4723f964a5209eb928e3","lat":35.628158024199244,"lng":139.7380019379651,"address":"高輪3-26-26","postalCode":"108-0074","city":"東京","country":"日本","categories":["Train Station"]},{"date":"2018-05-02T23:02+0900","name":"Shinkansen Shinagawa Station (東海道新幹線 品川駅)","id":"4b92005ef964a520ebe233e3","lat":35.6295726553358,"lng":139.74033703085394,"address":"港南2-1-78","postalCode":"108-0075","city":"東京","country":"日本","categories":["Train Station"]},{"date":"2018-05-02T21:04+0900","name":"Maibara Station (米原駅)","id":"4b57ed85f964a5206d4628e3","lat":35.31467445250249,"lng":136.28972640149752,"address":"米原475","postalCode":"521-0012","city":"米原市","country":"日本","categories":["Train Station"]},{"date":"2018-05-02T20:26+0900","name":"Kyoto Station (京都駅)","id":"4b570e89f964a520b22428e3","lat":34.98499786434392,"lng":135.75889427380184,"address":"下京区東塩小路高倉町8-3","postalCode":"600-8214","city":"京都市","country":"日本","categories":["Train Station"]},{"date":"2018-05-02T20:00+0900","name":"Bar up5","id":"54d74b1e498e2290e6b41d52","lat":35.004783,"lng":135.776834,"address":"祇園町北側347-164","country":"日本","categories":["Nightclub"]},{"date":"2018-05-02T18:05+0900","name":"Man in the Moon 祇園店","id":"513b2a8ee4b00e247e9ae0a8","lat":35.005153810004884,"lng":135.77517914805725,"address":"東山区清本町376","postalCode":"605-0084","city":"京都市","country":"日本","categories":["Pub"]},{"date":"2018-05-02T16:55+0900","name":"Yasaka Shrine (八坂神社)","id":"4b5a5b3bf964a520a1bf28e3","lat":35.00365372137186,"lng":135.7785594463348,"address":"東山区祇園町北側625","postalCode":"605-0073","city":"京都市","country":"日本","categories":["Shrine","Historic Site"]},{"date":"2018-05-02T16:55+0900","name":"Gion (祇園)","id":"4c40165ed7fad13a147c05da","lat":35.003721799921884,"lng":135.77473396950023,"city":"京都市","country":"日本","categories":["Neighborhood"]},{"date":"2018-05-02T15:28+0900","name":"National Museum of Modern Art, Kyoto (京都国立近代美術館)","id":"4b837727f964a5201d0731e3","lat":35.01235640961368,"lng":135.7824020840201,"address":"左京区岡崎円勝寺町","postalCode":"606-8344","city":"京都市","country":"日本","categories":["Art Museum"]},{"date":"2018-05-02T14:09+0900","name":"HUB","id":"52497950498e28f6cd5c30f9","lat":34.98793215771134,"lng":135.75844690203667,"address":"下京区東塩小路町590-2","postalCode":"600-8216","city":"京都市","country":"日本","categories":["Pub"]},{"date":"2018-05-02T13:44+0900","name":"Kyoto-Yodobashi (ヨドバシカメラ マルチメディア京都)","id":"4cc2638e06c2548178c78947","lat":34.98819829040501,"lng":135.75896322727203,"address":"下京区東塩小路町590-2","postalCode":"600-8216","city":"京都市","country":"日本","categories":["Electronics Store"]},{"date":"2018-05-02T13:05+0900","name":"とんこつらぁ麺 CHABUTON","id":"4d14384c25cda14366725fd6","lat":34.98820504983654,"lng":135.75878495831032,"address":"下京区東塩小路町590-2","postalCode":"600-8216","city":"京都市","country":"日本","categories":["Ramen Restaurant"]},{"date":"2018-05-02T12:10+0900","name":"Kyoto Station (京都駅)","id":"4b570e89f964a520b22428e3","lat":34.98499786434392,"lng":135.75889427380184,"address":"下京区東塩小路高倉町8-3","postalCode":"600-8214","city":"京都市","country":"日本","categories":["Train Station"]},{"date":"2018-05-02T12:10+0900","name":"Kyoto (京都市)","id":"4d6641c8c8dbec4a13ececcc","lat":35.011509955191606,"lng":135.76812028884888,"country":"日本","categories":["City"]},{"date":"2018-05-02T09:29+0900","name":"Shinkansen Shinagawa Station (東海道新幹線 品川駅)","id":"4b92005ef964a520ebe233e3","lat":35.6295726553358,"lng":139.74033703085394,"address":"港南2-1-78","postalCode":"108-0075","city":"東京","country":"日本","categories":["Train Station"]},{"date":"2018-05-01T20:42+0900","name":"Keikyū Kamata Station (KK11) (京急蒲田駅)","id":"4b4d45eff964a520d7cf26e3","lat":35.56141823673204,"lng":139.7243873840393,"address":"蒲田4-50-10","postalCode":"144-0052","city":"東京","country":"日本","categories":["Train Station"]},{"date":"2018-05-01T20:26+0900","name":"Keikyu Shinagawa Station (KK01) (京急 品川駅)","id":"4b5a4723f964a5209eb928e3","lat":35.628158024199244,"lng":139.7380019379651,"address":"高輪3-26-26","postalCode":"108-0074","city":"東京","country":"日本","categories":["Train Station"]},{"date":"2018-05-01T20:10+0900","name":"Shinkansen Shinagawa Station (東海道新幹線 品川駅)","id":"4b92005ef964a520ebe233e3","lat":35.6295726553358,"lng":139.74033703085394,"address":"港南2-1-78","postalCode":"108-0075","city":"東京","country":"日本","categories":["Train Station"]},{"date":"2018-05-01T18:51+0900","name":"Hakone Ropeway (箱根ロープウェイ)","id":"515bbd1de4b075f9f5e84587","lat":35.241364035754884,"lng":139.00082448237046,"city":"箱根町","country":"日本","categories":["Cable Car"]},{"date":"2018-05-01T18:07+0900","name":"箱根園どうぶつランド","id":"53e99730498eba77451ce5a3","lat":35.21213632324599,"lng":139.00988491029347,"country":"日本","categories":["Playground"]},{"date":"2018-05-01T18:03+0900","name":"伊豆箱根バス 箱根園 バスターミナル","id":"4cb1775d75ebb60c4589cdad","lat":35.2126259600708,"lng":139.00966318600527,"address":"元箱根","city":"箱根町","country":"日本","categories":["Bus Station","Bus Stop","Bus Line"]},{"date":"2018-05-01T17:20+0900","name":"九頭龍神社 本宮","id":"4c9d6c537c096dcb2568cbd1","lat":35.22368352353275,"lng":138.99954070566727,"address":"箱根町元箱根防ケ沢","postalCode":"250-0522","city":"足柄下郡","country":"日本","categories":["Shrine"]},{"date":"2018-05-01T16:54+0900","name":"Lake Ashinoko (芦ノ湖)","id":"4bd3504977b29c74b3859082","lat":35.20126096284981,"lng":139.0271524971023,"address":"芦ノ湖","city":"箱根町","country":"日本","categories":["Lake"]},{"date":"2018-05-01T16:00+0900","name":"Togendai Station (桃源台駅)","id":"4b5eddc1f964a5208c9b29e3","lat":35.23774287617725,"lng":138.99480633474462,"address":"元箱根164","postalCode":"250-0522","city":"箱根町","country":"日本","categories":["Cable Car"]},{"date":"2018-05-01T15:33+0900","name":"Sounzan Station (早雲山駅)","id":"4b57f405f964a520264728e3","lat":35.2464344232979,"lng":139.03569719611215,"address":"強羅1300","postalCode":"250-0408","city":"箱根町","country":"日本","categories":["Cable Car"]},{"date":"2018-05-01T15:12+0900","name":"Gora Station (OH57) (強羅駅)","id":"4b57f794f964a520844728e3","lat":35.25049056847452,"lng":139.04826608811422,"address":"強羅","postalCode":"250-0408","city":"箱根町","country":"日本","categories":["Train Station"]},{"date":"2018-05-01T15:12+0900","name":"Hakone Tozan Cablecar GORA Sta. (箱根登山鉄道鋼索線 強羅駅)","id":"56c803fd498e584170e59e9c","lat":35.250777608703984,"lng":139.04809784609824,"address":"強羅1300-329","postalCode":"250-0408","city":"箱根町","country":"日本","categories":["Cable Car"]},{"date":"2018-05-01T14:01+0900","name":"Hakone-Yumoto Station (OH51) (箱根湯本駅)","id":"4b57cc8cf964a520b54128e3","lat":35.2334869659019,"lng":139.10382443914352,"address":"湯本707-1","postalCode":"250-0311","city":"箱根町","country":"日本","categories":["Train Station"]},{"date":"2018-05-01T14:00+0900","name":"Hakone (箱根)","id":"58d55ed783622d2102aad558","lat":35.232365,"lng":139.10693,"postalCode":"250-0311","city":"箱根町","country":"日本","categories":["Neighborhood"]},{"date":"2018-05-01T13:26+0900","name":"藤棚 (御感の藤)","id":"4d92d67b7b5ea1430277bab8","lat":35.24914015871576,"lng":139.15516266329976,"address":"城内","postalCode":"250-0014","city":"小田原市","country":"日本","categories":["Garden"]},{"date":"2018-05-01T13:11+0900","name":"手打ちそば処 田毎","id":"53ed7ec6498e5f81fcfcb886","lat":35.250559,"lng":139.153799,"country":"日本","categories":["Soba Restaurant"]},{"date":"2018-05-01T12:56+0900","name":"Odawara Castle (小田原城)","id":"4b6e20b7f964a52076ac2ce3","lat":35.25077536866271,"lng":139.15442067282768,"address":"城内","postalCode":"250-0014","city":"小田原市","country":"日本","categories":["Castle","Historic Site"]},{"date":"2018-05-01T12:35+0900","name":"Yokohama (横浜市)","id":"4f350899e4b0922f73b53b64","lat":35.443784844219806,"lng":139.63798999786377,"country":"日本","categories":["City"]},{"date":"2018-05-01T12:32+0900","name":"Odawara Station (小田原駅)","id":"4b5edbfaf964a520439b29e3","lat":35.25601711824634,"lng":139.15564573396975,"address":"栄町1/城山1","postalCode":"250-0045","city":"小田原市","country":"日本","categories":["Train Station"]},{"date":"2018-05-01T11:59+0900","name":"Shinkansen Shinagawa Station (東海道新幹線 品川駅)","id":"4b92005ef964a520ebe233e3","lat":35.6295726553358,"lng":139.74033703085394,"address":"港南2-1-78","postalCode":"108-0075","city":"東京","country":"日本","categories":["Train Station"]},{"date":"2018-05-01T11:10+0900","name":"Shinagawa Station (品川駅)","id":"4b0e60adf964a520305723e3","lat":35.62875176540534,"lng":139.73908412514743,"address":"高輪3/港南2","city":"港区","country":"日本","categories":["Train Station"]},{"date":"2018-05-01T00:08+0900","name":"Den-en-chofu (田園調布)","id":"4c7bc57c81bca0937f140415","lat":35.593921,"lng":139.66674,"city":"東京","country":"日本","categories":["Neighborhood"]}]
