[
	{
		"date": "2018-08-31T16:30+0200",
		"name": "RataPlan Kringloopwinkel",
		"id": "521897ae11d2a6c2dd0f0d1a",
		"lat": 52.39062020787949,
		"lng": 4.648497774428707,
		"address": "Werfstraat 3",
		"city": "Haarlem",
		"country": "Nederland",
		"categories": ["Thrift / Vintage Store"]
	},
	{
		"date": "2018-08-31T16:11+0200",
		"name": "Action",
		"id": "4c1a06b66a21c9b6735dcb97",
		"lat": 52.391095588018075,
		"lng": 4.64856076516707,
		"address": "Werfstraat 11",
		"city": "Haarlem",
		"country": "Nederland",
		"categories": ["Discount Store"]
	},
	{
		"date": "2018-08-31T15:29+0200",
		"name": "Albert Heijn",
		"id": "4b9a4b64f964a52066aa35e3",
		"lat": 52.38445463709139,
		"lng": 4.635787640721933,
		"address": "Kruisstraat 10",
		"postalCode": "2011 PX",
		"city": "Haarlem",
		"country": "Nederland",
		"categories": ["Supermarket"]
	},
	{
		"date": "2018-08-28T18:49+0200",
		"name": "Marqt",
		"id": "4ae1d0e3f964a520aa8721e3",
		"lat": 52.3802600023814,
		"lng": 4.632357722477905,
		"address": "Gedempte Oude Gracht 66",
		"postalCode": "2011 TG",
		"city": "Haarlem",
		"country": "Nederland",
		"categories": ["Organic Grocery"]
	},
	{
		"date": "2018-08-26T21:51+0200",
		"name": "Sultan shoarma",
		"id": "573362de498e4009791e56a8",
		"lat": 52.386933,
		"lng": 4.636699,
		"country": "Nederland",
		"categories": ["Snack Place"]
	},
	{
		"date": "2018-08-26T21:34+0200",
		"name": "Uiltje Bar",
		"id": "54662da6498ebc9787daa7a4",
		"lat": 52.38290278394098,
		"lng": 4.630722274373556,
		"address": "Zijlstraat 18",
		"postalCode": "2011TN",
		"city": "Haarlem",
		"country": "Nederland",
		"categories": ["Beer Bar"]
	},
	{
		"date": "2018-08-26T16:57+0200",
		"name": "Starbucks",
		"id": "527cd45c11d2ec15cf3ec92d",
		"lat": 52.38747154736541,
		"lng": 4.6379021726965215,
		"address": "Stationsplein 11",
		"postalCode": "2011 LR",
		"city": "Haarlem",
		"country": "Nederland",
		"categories": ["Coffee Shop"]
	},
	{
		"date": "2018-08-25T20:02+0200",
		"name": "Pizzeria Back to Basics",
		"id": "535fe270498e10c1735e1498",
		"lat": 52.38268783535236,
		"lng": 4.631477869152552,
		"address": "Zijlstraat 35",
		"country": "Nederland",
		"categories": ["Pizza Place"]
	},
	{
		"date": "2018-08-25T19:32+0200",
		"name": "Pizzeria Back to Basics",
		"id": "535fe270498e10c1735e1498",
		"lat": 52.38268783535236,
		"lng": 4.631477869152552,
		"address": "Zijlstraat 35",
		"country": "Nederland",
		"categories": ["Pizza Place"]
	},
	{
		"date": "2018-08-24T18:30+0200",
		"name": "Station Haarlem",
		"id": "4a8c3036f964a5203a0d20e3",
		"lat": 52.387919728928985,
		"lng": 4.638276517449355,
		"address": "Stationsplein 11 L",
		"postalCode": "2011 LR",
		"city": "Haarlem",
		"country": "Nederland",
		"categories": ["Train Station"]
	},
	{
		"date": "2018-08-21T18:27+0200",
		"name": "Marqt",
		"id": "4ae1d0e3f964a520aa8721e3",
		"lat": 52.3802600023814,
		"lng": 4.632357722477905,
		"address": "Gedempte Oude Gracht 66",
		"postalCode": "2011 TG",
		"city": "Haarlem",
		"country": "Nederland",
		"categories": ["Organic Grocery"]
	},
	{
		"date": "2018-08-20T19:30+0200",
		"name": "Station Haarlem",
		"id": "4a8c3036f964a5203a0d20e3",
		"lat": 52.387919728928985,
		"lng": 4.638276517449355,
		"address": "Stationsplein 11 L",
		"postalCode": "2011 LR",
		"city": "Haarlem",
		"country": "Nederland",
		"categories": ["Train Station"]
	},
	{
		"date": "2018-08-19T19:39+0200",
		"name": "Nagoya Sushi & Grill",
		"id": "4b87feebf964a520a5d731e3",
		"lat": 52.379948814704186,
		"lng": 4.638730310134936,
		"city": "Haarlem",
		"country": "Nederland",
		"categories": ["Japanese Restaurant"]
	},
	{
		"date": "2018-08-18T16:17+0200",
		"name": "Vomar Voordeelmarkt",
		"id": "4b72c969f964a52096882de3",
		"lat": 52.39127711020139,
		"lng": 4.649005288257338,
		"address": "Paul Krugerkade 22",
		"postalCode": "2021 BN",
		"city": "Haarlem",
		"country": "Nederland",
		"categories": ["Supermarket", "Grocery Store"]
	},
	{
		"date": "2018-08-17T22:59+0200",
		"name": "Station Amsterdam Centraal",
		"id": "4a688ba1f964a52088ca1fe3",
		"lat": 52.37878224866535,
		"lng": 4.900374412536621,
		"address": "Stationsplein 15",
		"postalCode": "1012 AB",
		"city": "Amsterdam",
		"country": "Nederland",
		"categories": ["Train Station"]
	},
	{
		"date": "2018-08-17T22:38+0200",
		"name": "Salsa Shop",
		"id": "53c3ca66498ea876ac0e1349",
		"lat": 52.36622550874323,
		"lng": 4.899968972243181,
		"address": "Amstelstraat 32A",
		"postalCode": "1017 DA",
		"city": "Amsterdam",
		"country": "Nederland",
		"categories": ["Mexican Restaurant"]
	},
	{
		"date": "2018-08-17T21:31+0200",
		"name": "The Old Bell",
		"id": "4a26ffccf964a52010811fe3",
		"lat": 52.365897565307584,
		"lng": 4.897465975008668,
		"address": "Rembrandtplein 46",
		"postalCode": "1017 CV",
		"city": "Amsterdam",
		"country": "Nederland",
		"categories": ["Pub", "Bar"]
	},
	{
		"date": "2018-08-17T20:21+0200",
		"name": "Station Amsterdam Centraal",
		"id": "4a688ba1f964a52088ca1fe3",
		"lat": 52.37878224866535,
		"lng": 4.900374412536621,
		"address": "Stationsplein 15",
		"postalCode": "1012 AB",
		"city": "Amsterdam",
		"country": "Nederland",
		"categories": ["Train Station"]
	},
	{
		"date": "2018-08-17T19:32+0200",
		"name": "Prinsengracht",
		"id": "4bdad52063c5c9b6e3182568",
		"lat": 52.36317907250486,
		"lng": 4.887371063232422,
		"address": "Prinsengracht",
		"city": "Amsterdam",
		"country": "Nederland",
		"categories": ["Canal", "Waterfront"]
	},
	{
		"date": "2018-08-17T18:14+0200",
		"name": "Booking.com",
		"id": "4f26d4757716589cee7b3b1d",
		"lat": 52.36565428449705,
		"lng": 4.898092733569323,
		"address": "Herengracht 597",
		"postalCode": "1017 CE",
		"city": "Amsterdam",
		"country": "Nederland",
		"categories": ["Office"]
	},
	{
		"date": "2018-08-17T18:00+0200",
		"name": "Station Amsterdam Centraal",
		"id": "4a688ba1f964a52088ca1fe3",
		"lat": 52.37878224866535,
		"lng": 4.900374412536621,
		"address": "Stationsplein 15",
		"postalCode": "1012 AB",
		"city": "Amsterdam",
		"country": "Nederland",
		"categories": ["Train Station"]
	},
	{
		"date": "2018-08-17T17:27+0200",
		"name": "Station Haarlem",
		"id": "4a8c3036f964a5203a0d20e3",
		"lat": 52.387919728928985,
		"lng": 4.638276517449355,
		"address": "Stationsplein 11 L",
		"postalCode": "2011 LR",
		"city": "Haarlem",
		"country": "Nederland",
		"categories": ["Train Station"]
	},
	{
		"date": "2018-08-16T19:35+0200",
		"name": "Alphenaar Muziekhandel",
		"id": "4c2b6b74b34ad13aa0b6e9ce",
		"lat": 52.38624381240507,
		"lng": 4.636521633397345,
		"address": "Kruisweg 47-49",
		"postalCode": "2011 LA",
		"city": "Haarlem",
		"country": "Nederland",
		"categories": ["Music Store"]
	},
	{
		"date": "2018-08-14T19:21+0200",
		"name": "Albert Heijn",
		"id": "4b641baef964a520699f2ae3",
		"lat": 52.398444855174965,
		"lng": 4.64495741785039,
		"address": "Soendaplein 18",
		"postalCode": "2022 BA",
		"city": "Haarlem",
		"country": "Nederland",
		"categories": ["Supermarket"]
	},
	{
		"date": "2018-08-12T20:59+0200",
		"name": "Taste Of India",
		"id": "4ba3bdd3f964a5204f5a38e3",
		"lat": 52.38051647348605,
		"lng": 4.632526198606932,
		"country": "Nederland",
		"categories": ["Indian Restaurant"]
	},
	{
		"date": "2018-08-12T13:59+0200",
		"name": "Sultan shoarma",
		"id": "573362de498e4009791e56a8",
		"lat": 52.386933,
		"lng": 4.636699,
		"country": "Nederland",
		"categories": ["Snack Place"]
	},
	{
		"date": "2018-08-11T19:56+0200",
		"name": "Toolenburg",
		"id": "513cd1b2e4b0178149e62b30",
		"lat": 52.305416,
		"lng": 4.6578827,
		"city": "Hoofddorp",
		"country": "Nederland",
		"categories": ["Neighborhood"]
	},
	{
		"date": "2018-08-11T19:12+0200",
		"name": "Station Haarlem",
		"id": "4a8c3036f964a5203a0d20e3",
		"lat": 52.387919728928985,
		"lng": 4.638276517449355,
		"address": "Stationsplein 11 L",
		"postalCode": "2011 LR",
		"city": "Haarlem",
		"country": "Nederland",
		"categories": ["Train Station"]
	},
	{
		"date": "2018-08-09T18:10+0200",
		"name": "Vomar Voordeelmarkt",
		"id": "4b72c969f964a52096882de3",
		"lat": 52.39127711020139,
		"lng": 4.649005288257338,
		"address": "Paul Krugerkade 22",
		"postalCode": "2021 BN",
		"city": "Haarlem",
		"country": "Nederland",
		"categories": ["Supermarket", "Grocery Store"]
	},
	{
		"date": "2018-08-07T20:06+0200",
		"name": "Salsa Shop",
		"id": "574f4d9c498efc56a240b8c2",
		"lat": 52.37958465946948,
		"lng": 4.900045992389015,
		"address": "Stationsplein",
		"postalCode": "1012 AB",
		"city": "Amsterdam",
		"country": "Nederland",
		"categories": ["Burrito Place"]
	},
	{
		"date": "2018-08-07T19:47+0200",
		"name": "Busstation Elandsgracht",
		"id": "4c6236d9fa7bc92805c30d27",
		"lat": 52.36918271548583,
		"lng": 4.877108712652416,
		"address": "Marnixstraat",
		"city": "Amsterdam",
		"country": "Nederland",
		"categories": ["Bus Station", "Bus Line"]
	},
	{
		"date": "2018-08-07T18:54+0200",
		"name": "Starbucks",
		"id": "4c1b12a08b3aa59397b3965f",
		"lat": 52.389066266752856,
		"lng": 4.83764576907052,
		"address": "Station Amsterdam Sloterdijk",
		"postalCode": "1043 DT",
		"city": "Amsterdam",
		"country": "Nederland",
		"categories": ["Coffee Shop"]
	},
	{
		"date": "2018-08-07T18:30+0200",
		"name": "Station Haarlem",
		"id": "4a8c3036f964a5203a0d20e3",
		"lat": 52.387919728928985,
		"lng": 4.638276517449355,
		"address": "Stationsplein 11 L",
		"postalCode": "2011 LR",
		"city": "Haarlem",
		"country": "Nederland",
		"categories": ["Train Station"]
	},
	{
		"date": "2018-08-06T18:44+0200",
		"name": "Vomar Voordeelmarkt",
		"id": "4b72c969f964a52096882de3",
		"lat": 52.39127711020139,
		"lng": 4.649005288257338,
		"address": "Paul Krugerkade 22",
		"postalCode": "2021 BN",
		"city": "Haarlem",
		"country": "Nederland",
		"categories": ["Supermarket", "Grocery Store"]
	},
	{
		"date": "2018-08-05T00:23+0200",
		"name": "Sultan shoarma",
		"id": "573362de498e4009791e56a8",
		"lat": 52.386933,
		"lng": 4.636699,
		"country": "Nederland",
		"categories": ["Snack Place"]
	},
	{
		"date": "2018-08-04T23:52+0200",
		"name": "Station Amsterdam Centraal",
		"id": "4a688ba1f964a52088ca1fe3",
		"lat": 52.37878224866535,
		"lng": 4.900374412536621,
		"address": "Stationsplein 15",
		"postalCode": "1012 AB",
		"city": "Amsterdam",
		"country": "Nederland",
		"categories": ["Train Station"]
	},
	{
		"date": "2018-08-04T23:41+0200",
		"name": "Burger King",
		"id": "4a27055ef964a520a4871fe3",
		"lat": 52.37867354981148,
		"lng": 4.899643510289329,
		"address": "Station Amsterdam Centraal",
		"postalCode": "1012 AB",
		"city": "Amsterdam",
		"country": "Nederland",
		"categories": ["Fast Food Restaurant"]
	},
	{
		"date": "2018-08-04T22:52+0200",
		"name": "Red Light District / De Wallen (De Wallen)",
		"id": "4c78d269df08a1cdf5b6d85d",
		"lat": 52.373256787952755,
		"lng": 4.897822678893928,
		"postalCode": "1012",
		"city": "Amsterdam",
		"country": "Nederland",
		"categories": ["Neighborhood"]
	},
	{
		"date": "2018-08-04T22:03+0200",
		"name": "Abraxas",
		"id": "4a270572f964a520c8871fe3",
		"lat": 52.37201733554727,
		"lng": 4.891073107014094,
		"address": "Jonge Roelensteeg 12",
		"postalCode": "1012 PL",
		"city": "Amsterdam",
		"country": "Nederland",
		"categories": ["Marijuana Dispensary"]
	},
	{
		"date": "2018-08-04T19:58+0200",
		"name": "The Bulldog Palace",
		"id": "4a26ffccf964a5200d811fe3",
		"lat": 52.36404387640277,
		"lng": 4.882972240447998,
		"address": "Leidseplein 15",
		"postalCode": "1017 PS",
		"city": "Amsterdam",
		"country": "Nederland",
		"categories": ["Bar"]
	},
	{
		"date": "2018-08-04T19:46+0200",
		"name": "Leidseplein",
		"id": "4a47d9d4f964a5202faa1fe3",
		"lat": 52.36418991839732,
		"lng": 4.882776670500653,
		"address": "Leidseplein",
		"postalCode": "1017",
		"city": "Amsterdam",
		"country": "Nederland",
		"categories": ["Plaza"]
	},
	{
		"date": "2018-08-04T18:03+0200",
		"name": "Museumplein",
		"id": "4a28509ef964a5200c951fe3",
		"lat": 52.3574525953504,
		"lng": 4.881491661071777,
		"address": "Museumplein",
		"city": "Amsterdam",
		"country": "Nederland",
		"categories": ["Plaza", "Park"]
	},
	{
		"date": "2018-08-04T17:43+0200",
		"name": "Albert Heijn",
		"id": "4b40c319f964a520d5ba25e3",
		"lat": 52.35721100403475,
		"lng": 4.8796153177174135,
		"address": "Van Baerlestraat 33a",
		"postalCode": "1071 AP",
		"city": "Amsterdam",
		"country": "Nederland",
		"categories": ["Supermarket"]
	},
	{
		"date": "2018-08-04T17:22+0200",
		"name": "Hans Snoek fontein",
		"id": "4dbd768ccda109aa6cb3379f",
		"lat": 52.36367699196799,
		"lng": 4.8815131187438965,
		"address": "Leidseplein",
		"city": "Amsterdam",
		"country": "Nederland",
		"categories": ["Fountain", "Water Park"]
	},
	{
		"date": "2018-08-04T16:35+0200",
		"name": "De Brederode @ Canal Pride",
		"id": "53dcab6e498e6c17a3c33e49",
		"lat": 52.36225996361406,
		"lng": 4.890870087513886,
		"country": "Nederland",
		"categories": ["Boat or Ferry"]
	},
	{
		"date": "2018-08-04T16:08+0200",
		"name": "duo penotti",
		"id": "57c6cfae498ecb87d253ca0c",
		"lat": 52.372261,
		"lng": 4.893213,
		"postalCode": "1012 KK",
		"city": "Amsterdam",
		"country": "Nederland",
		"categories": ["Coffee Shop"]
	},
	{
		"date": "2018-08-04T16:05+0200",
		"name": "Dam",
		"id": "4b9ff646f964a520f44d37e3",
		"lat": 52.372824,
		"lng": 4.893702,
		"address": "Dam",
		"postalCode": "1012 NP",
		"city": "Amsterdam",
		"country": "Nederland",
		"categories": ["Plaza", "Historic Site"]
	},
	{
		"date": "2018-08-04T15:52+0200",
		"name": "Primark",
		"id": "57fbac86498e161d00c0124a",
		"lat": 52.37461907968552,
		"lng": 4.894476330445134,
		"address": "Damrak 77",
		"postalCode": "1012 LM",
		"city": "Amsterdam",
		"country": "Nederland",
		"categories": ["Clothing Store"]
	},
	{
		"date": "2018-08-04T14:36+0200",
		"name": "Station Haarlem",
		"id": "4a8c3036f964a5203a0d20e3",
		"lat": 52.387919728928985,
		"lng": 4.638276517449355,
		"address": "Stationsplein 11 L",
		"postalCode": "2011 LR",
		"city": "Haarlem",
		"country": "Nederland",
		"categories": ["Train Station"]
	},
	{
		"date": "2018-08-04T13:59+0200",
		"name": "SUBWAY",
		"id": "4e899f5e9a52f9bbd0e654b4",
		"lat": 52.38297200404556,
		"lng": 4.6351964166808415,
		"address": "Krocht 12",
		"postalCode": "2011 PT",
		"city": "Haarlem",
		"country": "Nederland",
		"categories": ["Sandwich Place"]
	},
	{
		"date": "2018-08-04T13:50+0200",
		"name": "SUBWAY",
		"id": "4e899f5e9a52f9bbd0e654b4",
		"lat": 52.38297200404556,
		"lng": 4.6351964166808415,
		"address": "Krocht 12",
		"postalCode": "2011 PT",
		"city": "Haarlem",
		"country": "Nederland",
		"categories": ["Sandwich Place"]
	},
	{
		"date": "2018-08-04T00:41+0200",
		"name": "Sultan shoarma",
		"id": "573362de498e4009791e56a8",
		"lat": 52.386933,
		"lng": 4.636699,
		"country": "Nederland",
		"categories": ["Snack Place"]
	},
	{
		"date": "2018-08-03T23:49+0200",
		"name": "Bierlokaal Uiver",
		"id": "5b4a4fc9b8fd9d002cd70d96",
		"lat": 52.381971,
		"lng": 4.63892,
		"address": "Lange Begijnestraat 10",
		"postalCode": "2011 HH",
		"city": "Haarlem",
		"country": "Nederland",
		"categories": ["Beer Bar"]
	},
	{
		"date": "2018-08-03T22:56+0200",
		"name": "Oude Groenmarkt",
		"id": "4e4a6094fa76a0c058cece75",
		"lat": 52.38072898364045,
		"lng": 4.63760107755661,
		"city": "Haarlem",
		"country": "Nederland",
		"categories": ["Plaza"]
	},
	{
		"date": "2018-08-03T22:02+0200",
		"name": "Willie Wortel's Indica",
		"id": "4e15ab341f6e29fb7d51e60b",
		"lat": 52.382387235076784,
		"lng": 4.6428400888733234,
		"address": "Koudenhorn 58",
		"postalCode": "2011JD",
		"city": "Haarlem",
		"country": "Nederland",
		"categories": ["Smoke Shop", "Marijuana Dispensary"]
	},
	{
		"date": "2018-08-03T22:02+0200",
		"name": "Club Spaarne",
		"id": "4c2ccd0b77cfe21e6c94b6f1",
		"lat": 52.382526,
		"lng": 4.643365144729614,
		"address": "koudenhorn",
		"postalCode": "2011",
		"city": "Haarlem",
		"country": "Nederland",
		"categories": ["Boat or Ferry", "Event Space"]
	},
	{
		"date": "2018-08-03T21:12+0200",
		"name": "Brug Schalkwijk",
		"id": "4e3d10d71f6e844231dffd3a",
		"lat": 52.35391396589718,
		"lng": 4.635460680762635,
		"city": "Schalkwijk",
		"country": "Nederland",
		"categories": ["Bridge"]
	},
	{
		"date": "2018-08-03T19:23+0200",
		"name": "Catharijnebrug",
		"id": "4c6e3263f338236a14e8091b",
		"lat": 52.38303588153227,
		"lng": 4.642963060018276,
		"address": "Harmejansweg",
		"city": "Haarlem",
		"country": "Nederland",
		"categories": ["Bridge"]
	},
	{
		"date": "2018-08-03T16:38+0200",
		"name": "Vomar Voordeelmarkt",
		"id": "4b72c969f964a52096882de3",
		"lat": 52.39127711020139,
		"lng": 4.649005288257338,
		"address": "Paul Krugerkade 22",
		"postalCode": "2021 BN",
		"city": "Haarlem",
		"country": "Nederland",
		"categories": ["Supermarket", "Grocery Store"]
	},
	{
		"date": "2018-08-03T12:43+0200",
		"name": "Sinar Cinta",
		"id": "4c1657097f7f2d7f9ccee368",
		"lat": 52.38615171180502,
		"lng": 4.636440663843172,
		"address": "Kruisweg 53",
		"postalCode": "2011LA",
		"city": "Haarlem",
		"country": "Nederland",
		"categories": ["Asian Restaurant"]
	},
	{
		"date": "2018-08-01T23:26+0200",
		"name": "Station Zandvoort aan Zee",
		"id": "4b235a53f964a5205c5524e3",
		"lat": 52.3757860855875,
		"lng": 4.531738906725922,
		"address": "Stationsplein 6",
		"postalCode": "2041AB",
		"city": "Zandvoort",
		"country": "Nederland",
		"categories": ["Train Station"]
	},
	{
		"date": "2018-08-01T23:08+0200",
		"name": "Mango's Beach Bar",
		"id": "4b995f1af964a520807635e3",
		"lat": 52.37586185990675,
		"lng": 4.5262103430823775,
		"address": "Boulevard Barnaart 15",
		"postalCode": "2041AJ",
		"city": "Zandvoort",
		"country": "Nederland",
		"categories": ["Beach Bar", "Caf√©"]
	},
	{
		"date": "2018-08-01T22:01+0200",
		"name": "Strand Zandvoort aan Zee",
		"id": "4c2f344b3896e21e3978e390",
		"lat": 52.375486156134436,
		"lng": 4.525765926071059,
		"address": "Boulevard de Favauge",
		"city": "Zandvoort",
		"country": "Nederland",
		"categories": ["Beach"]
	},
	{
		"date": "2018-08-01T21:33+0200",
		"name": "Station Haarlem",
		"id": "4a8c3036f964a5203a0d20e3",
		"lat": 52.387919728928985,
		"lng": 4.638276517449355,
		"address": "Stationsplein 11 L",
		"postalCode": "2011 LR",
		"city": "Haarlem",
		"country": "Nederland",
		"categories": ["Train Station"]
	},
	{
		"date": "2018-08-01T20:53+0200",
		"name": "Koffieshop Birdy",
		"id": "4e7b121d483bf10366a0d8b4",
		"lat": 52.39126935,
		"lng": 4.6405709,
		"address": "Shoterweg 19",
		"postalCode": "2021HZ",
		"city": "Haarlem",
		"country": "Nederland",
		"categories": ["Coffee Shop"]
	}
]
