[
	{
		"date": "2018-01-31T11:33+0100",
		"name": "Station Haarlem",
		"id": "4a8c3036f964a5203a0d20e3",
		"lat": 52.387919728928985,
		"lng": 4.638276517449355,
		"address": "Stationsplein 11 L",
		"postalCode": "2011 LR",
		"city": "Haarlem",
		"country": "Nederland",
		"categories": ["Train Station"]
	},
	{
		"date": "2018-01-31T11:10+0100",
		"name": "Station Amsterdam Centraal",
		"id": "4a688ba1f964a52088ca1fe3",
		"lat": 52.37878224866535,
		"lng": 4.900374412536621,
		"address": "Stationsplein 15",
		"postalCode": "1012 AB",
		"city": "Amsterdam",
		"country": "Nederland",
		"categories": ["Train Station"]
	},
	{
		"date": "2018-01-31T10:48+0100",
		"name": "Docler Holding Amsterdam",
		"id": "58b684db52a051661da12674",
		"lat": 52.36505739184381,
		"lng": 4.906015988886142,
		"address": "Weespertraat 61",
		"postalCode": "1018 VN",
		"city": "Amsterdam",
		"country": "Nederland",
		"categories": ["Tech Startup"]
	},
	{
		"date": "2018-01-31T09:20+0100",
		"name": "WeWork Metropool",
		"id": "56a14a68498e77945ee2ced1",
		"lat": 52.36480793621647,
		"lng": 4.906191453337669,
		"address": "Weesperstraat 61",
		"postalCode": "1018 VN",
		"city": "Amsterdam",
		"country": "Nederland",
		"categories": ["Coworking Space", "Building"]
	},
	{
		"date": "2018-01-31T09:12+0100",
		"name": "Station Amsterdam Centraal",
		"id": "4a688ba1f964a52088ca1fe3",
		"lat": 52.37878224866535,
		"lng": 4.900374412536621,
		"address": "Stationsplein 15",
		"postalCode": "1012 AB",
		"city": "Amsterdam",
		"country": "Nederland",
		"categories": ["Train Station"]
	},
	{
		"date": "2018-01-30T14:32+0100",
		"name": "Docler Holding Amsterdam",
		"id": "58b684db52a051661da12674",
		"lat": 52.36505739184381,
		"lng": 4.906015988886142,
		"address": "Weespertraat 61",
		"postalCode": "1018 VN",
		"city": "Amsterdam",
		"country": "Nederland",
		"categories": ["Tech Startup"]
	},
	{
		"date": "2018-01-30T11:41+0100",
		"name": "Vapiano",
		"id": "4fb28f2be4b0e2be9a5f1f6f",
		"lat": 52.36612800819601,
		"lng": 4.897454374802111,
		"address": "Amstelstraat 2-4",
		"postalCode": "1017 DA",
		"city": "Amsterdam",
		"country": "Nederland",
		"categories": ["Italian Restaurant", "Pizza Place"]
	},
	{
		"date": "2018-01-30T09:30+0100",
		"name": "WeWork Metropool",
		"id": "56a14a68498e77945ee2ced1",
		"lat": 52.36480793621647,
		"lng": 4.906191453337669,
		"address": "Weesperstraat 61",
		"postalCode": "1018 VN",
		"city": "Amsterdam",
		"country": "Nederland",
		"categories": ["Coworking Space", "Building"]
	},
	{
		"date": "2018-01-30T08:43+0100",
		"name": "Station Haarlem",
		"id": "4a8c3036f964a5203a0d20e3",
		"lat": 52.387919728928985,
		"lng": 4.638276517449355,
		"address": "Stationsplein 11 L",
		"postalCode": "2011 LR",
		"city": "Haarlem",
		"country": "Nederland",
		"categories": ["Train Station"]
	},
	{
		"date": "2018-01-29T18:50+0100",
		"name": "Station Haarlem",
		"id": "4a8c3036f964a5203a0d20e3",
		"lat": 52.387919728928985,
		"lng": 4.638276517449355,
		"address": "Stationsplein 11 L",
		"postalCode": "2011 LR",
		"city": "Haarlem",
		"country": "Nederland",
		"categories": ["Train Station"]
	},
	{
		"date": "2018-01-29T11:59+0100",
		"name": "Salsa Shop",
		"id": "53c3ca66498ea876ac0e1349",
		"lat": 52.36622550874323,
		"lng": 4.899968972243181,
		"address": "Amstelstraat 32A",
		"postalCode": "1017 DA",
		"city": "Amsterdam",
		"country": "Nederland",
		"categories": ["Mexican Restaurant"]
	},
	{
		"date": "2018-01-29T09:00+0100",
		"name": "Station Amsterdam Centraal",
		"id": "4a688ba1f964a52088ca1fe3",
		"lat": 52.37878224866535,
		"lng": 4.900374412536621,
		"address": "Stationsplein 15",
		"postalCode": "1012 AB",
		"city": "Amsterdam",
		"country": "Nederland",
		"categories": ["Train Station"]
	},
	{
		"date": "2018-01-29T08:35+0100",
		"name": "Station Haarlem",
		"id": "4a8c3036f964a5203a0d20e3",
		"lat": 52.387919728928985,
		"lng": 4.638276517449355,
		"address": "Stationsplein 11 L",
		"postalCode": "2011 LR",
		"city": "Haarlem",
		"country": "Nederland",
		"categories": ["Train Station"]
	},
	{
		"date": "2018-01-27T20:37+0100",
		"name": "De Pizzabakkers",
		"id": "4f9c63b3e4b0d04dc0988477",
		"lat": 52.38560498361445,
		"lng": 4.636240446645177,
		"address": "Kruisweg 70D, 2011 Oude Stad",
		"city": "Haarlem",
		"country": "Nederland",
		"categories": ["Italian Restaurant", "Pizza Place"]
	},
	{
		"date": "2018-01-25T19:33+0100",
		"name": "Station Haarlem",
		"id": "4a8c3036f964a5203a0d20e3",
		"lat": 52.387919728928985,
		"lng": 4.638276517449355,
		"address": "Stationsplein 11 L",
		"postalCode": "2011 LR",
		"city": "Haarlem",
		"country": "Nederland",
		"categories": ["Train Station"]
	},
	{
		"date": "2018-01-25T11:06+0100",
		"name": "Docler Holding Amsterdam",
		"id": "58b684db52a051661da12674",
		"lat": 52.36505739184381,
		"lng": 4.906015988886142,
		"address": "Weespertraat 61",
		"postalCode": "1018 VN",
		"city": "Amsterdam",
		"country": "Nederland",
		"categories": ["Tech Startup"]
	},
	{
		"date": "2018-01-25T08:59+0100",
		"name": "WeWork Metropool",
		"id": "56a14a68498e77945ee2ced1",
		"lat": 52.36480793621647,
		"lng": 4.906191453337669,
		"address": "Weesperstraat 61",
		"postalCode": "1018 VN",
		"city": "Amsterdam",
		"country": "Nederland",
		"categories": ["Coworking Space", "Building"]
	},
	{
		"date": "2018-01-25T08:45+0100",
		"name": "Station Amsterdam Centraal",
		"id": "4a688ba1f964a52088ca1fe3",
		"lat": 52.37878224866535,
		"lng": 4.900374412536621,
		"address": "Stationsplein 15",
		"postalCode": "1012 AB",
		"city": "Amsterdam",
		"country": "Nederland",
		"categories": ["Train Station"]
	},
	{
		"date": "2018-01-25T08:23+0100",
		"name": "Station Haarlem",
		"id": "4a8c3036f964a5203a0d20e3",
		"lat": 52.387919728928985,
		"lng": 4.638276517449355,
		"address": "Stationsplein 11 L",
		"postalCode": "2011 LR",
		"city": "Haarlem",
		"country": "Nederland",
		"categories": ["Train Station"]
	},
	{
		"date": "2018-01-24T20:04+0100",
		"name": "RIJKS®",
		"id": "54554897498eb158b5e3a110",
		"lat": 52.35954159920799,
		"lng": 4.884451297073276,
		"address": "Museumstraat 2",
		"postalCode": "1071 XX",
		"city": "Amsterdam",
		"country": "Nederland",
		"categories": ["Molecular Gastronomy Restaurant"]
	},
	{
		"date": "2018-01-24T19:44+0100",
		"name": "Fontein 'Hide and See(k)'",
		"id": "51c746812fc69c98080f3c34",
		"lat": 52.359413,
		"lng": 4.8846,
		"address": "Hobbemastraat",
		"city": "Amsterdam",
		"country": "Nederland",
		"categories": ["Plaza"]
	},
	{
		"date": "2018-01-24T19:40+0100",
		"name": "Museumbrug (Brug 82)",
		"id": "4ca247f4d5a2a1434e823f90",
		"lat": 52.36091805713443,
		"lng": 4.886370510667529,
		"address": "Weteringschans",
		"city": "Amsterdam",
		"country": "Nederland",
		"categories": ["Bridge"]
	},
	{
		"date": "2018-01-24T19:26+0100",
		"name": "Docler Holding Amsterdam",
		"id": "58b684db52a051661da12674",
		"lat": 52.36505739184381,
		"lng": 4.906015988886142,
		"address": "Weespertraat 61",
		"postalCode": "1018 VN",
		"city": "Amsterdam",
		"country": "Nederland",
		"categories": ["Tech Startup"]
	},
	{
		"date": "2018-01-24T11:46+0100",
		"name": "Salsa Shop",
		"id": "53c3ca66498ea876ac0e1349",
		"lat": 52.36622550874323,
		"lng": 4.899968972243181,
		"address": "Amstelstraat 32A",
		"postalCode": "1017 DA",
		"city": "Amsterdam",
		"country": "Nederland",
		"categories": ["Mexican Restaurant"]
	},
	{
		"date": "2018-01-24T11:36+0100",
		"name": "WeWork Metropool",
		"id": "56a14a68498e77945ee2ced1",
		"lat": 52.36480793621647,
		"lng": 4.906191453337669,
		"address": "Weesperstraat 61",
		"postalCode": "1018 VN",
		"city": "Amsterdam",
		"country": "Nederland",
		"categories": ["Coworking Space", "Building"]
	},
	{
		"date": "2018-01-24T08:41+0100",
		"name": "Station Amsterdam Centraal",
		"id": "4a688ba1f964a52088ca1fe3",
		"lat": 52.37878224866535,
		"lng": 4.900374412536621,
		"address": "Stationsplein 15",
		"postalCode": "1012 AB",
		"city": "Amsterdam",
		"country": "Nederland",
		"categories": ["Train Station"]
	},
	{
		"date": "2018-01-24T08:24+0100",
		"name": "Station Haarlem",
		"id": "4a8c3036f964a5203a0d20e3",
		"lat": 52.387919728928985,
		"lng": 4.638276517449355,
		"address": "Stationsplein 11 L",
		"postalCode": "2011 LR",
		"city": "Haarlem",
		"country": "Nederland",
		"categories": ["Train Station"]
	},
	{
		"date": "2018-01-23T18:40+0100",
		"name": "Albert Heijn",
		"id": "4b9a4b64f964a52066aa35e3",
		"lat": 52.38445463709139,
		"lng": 4.635787640721933,
		"address": "Kruisstraat 10",
		"postalCode": "2011 PX",
		"city": "Haarlem",
		"country": "Nederland",
		"categories": ["Supermarket"]
	},
	{
		"date": "2018-01-22T20:54+0100",
		"name": "Station Amsterdam Centraal",
		"id": "4a688ba1f964a52088ca1fe3",
		"lat": 52.37878224866535,
		"lng": 4.900374412536621,
		"address": "Stationsplein 15",
		"postalCode": "1012 AB",
		"city": "Amsterdam",
		"country": "Nederland",
		"categories": ["Train Station"]
	},
	{
		"date": "2018-01-22T12:44+0100",
		"name": "Docler Holding Amsterdam",
		"id": "58b684db52a051661da12674",
		"lat": 52.36505739184381,
		"lng": 4.906015988886142,
		"address": "Weespertraat 61",
		"postalCode": "1018 VN",
		"city": "Amsterdam",
		"country": "Nederland",
		"categories": ["Tech Startup"]
	},
	{
		"date": "2018-01-22T11:31+0100",
		"name": "WeWork Metropool",
		"id": "56a14a68498e77945ee2ced1",
		"lat": 52.36480793621647,
		"lng": 4.906191453337669,
		"address": "Weesperstraat 61",
		"postalCode": "1018 VN",
		"city": "Amsterdam",
		"country": "Nederland",
		"categories": ["Coworking Space", "Building"]
	},
	{
		"date": "2018-01-22T08:40+0100",
		"name": "Station Amsterdam Centraal",
		"id": "4a688ba1f964a52088ca1fe3",
		"lat": 52.37878224866535,
		"lng": 4.900374412536621,
		"address": "Stationsplein 15",
		"postalCode": "1012 AB",
		"city": "Amsterdam",
		"country": "Nederland",
		"categories": ["Train Station"]
	},
	{
		"date": "2018-01-21T18:42+0100",
		"name": "SLA",
		"id": "57caa839498e1f871ab5ad3c",
		"lat": 52.38599600064496,
		"lng": 4.63620111519587,
		"address": "Kruisweg 68A",
		"postalCode": "2011 LE",
		"city": "Haarlem",
		"country": "Nederland",
		"categories": ["Salad Place"]
	},
	{
		"date": "2018-01-20T20:08+0100",
		"name": "India Palace",
		"id": "4c5057673a6f2d7f60a06877",
		"lat": 52.38126838250037,
		"lng": 4.632222643743207,
		"address": "Gedempte Oude Gracht 29",
		"postalCode": "2011 GL",
		"city": "Haarlem",
		"country": "Nederland",
		"categories": ["Indian Restaurant"]
	},
	{
		"date": "2018-01-19T16:48+0100",
		"name": "Home Stock",
		"id": "5479de1e498ecfcbffe5b573",
		"lat": 52.38154299620425,
		"lng": 4.631030875896852,
		"country": "Nederland",
		"categories": ["Furniture / Home Store"]
	},
	{
		"date": "2018-01-19T16:38+0100",
		"name": "HEMA",
		"id": "4b210645f964a520213624e3",
		"lat": 52.383033153121,
		"lng": 4.635406049613837,
		"address": "Kruisstraat 51",
		"postalCode": "2011 PW",
		"city": "Haarlem",
		"country": "Nederland",
		"categories": ["Department Store"]
	},
	{
		"date": "2018-01-18T22:10+0100",
		"name": "Sultan shoarma",
		"id": "573362de498e4009791e56a8",
		"lat": 52.386933,
		"lng": 4.636699,
		"country": "Nederland",
		"categories": ["Snack Place"]
	},
	{
		"date": "2018-01-18T22:07+0100",
		"name": "Station Haarlem",
		"id": "4a8c3036f964a5203a0d20e3",
		"lat": 52.387919728928985,
		"lng": 4.638276517449355,
		"address": "Stationsplein 11 L",
		"postalCode": "2011 LR",
		"city": "Haarlem",
		"country": "Nederland",
		"categories": ["Train Station"]
	},
	{
		"date": "2018-01-18T20:40+0100",
		"name": "Station Amsterdam Bijlmer ArenA",
		"id": "4a73fd66f964a520a8dd1fe3",
		"lat": 52.31199014460334,
		"lng": 4.947332715427504,
		"address": "Hoogoordplein 1",
		"postalCode": "1102 BH",
		"city": "Amsterdam",
		"country": "Nederland",
		"categories": ["Train Station"]
	},
	{
		"date": "2018-01-18T20:15+0100",
		"name": "Docler Holding Amsterdam",
		"id": "58b684db52a051661da12674",
		"lat": 52.36505739184381,
		"lng": 4.906015988886142,
		"address": "Weespertraat 61",
		"postalCode": "1018 VN",
		"city": "Amsterdam",
		"country": "Nederland",
		"categories": ["Tech Startup"]
	},
	{
		"date": "2018-01-18T10:59+0100",
		"name": "WeWork Metropool",
		"id": "56a14a68498e77945ee2ced1",
		"lat": 52.36480793621647,
		"lng": 4.906191453337669,
		"address": "Weesperstraat 61",
		"postalCode": "1018 VN",
		"city": "Amsterdam",
		"country": "Nederland",
		"categories": ["Coworking Space", "Building"]
	},
	{
		"date": "2018-01-18T09:27+0100",
		"name": "Primera",
		"id": "4b75441ef964a52082032ee3",
		"lat": 52.368295728326196,
		"lng": 4.9023278028934625,
		"address": "Waterlooplein 169",
		"postalCode": "1011 PG",
		"city": "Amsterdam",
		"country": "Nederland",
		"categories": ["Bookstore", "Smoke Shop", "Post Office"]
	},
	{
		"date": "2018-01-18T09:11+0100",
		"name": "Station Amsterdam Centraal",
		"id": "4a688ba1f964a52088ca1fe3",
		"lat": 52.37878224866535,
		"lng": 4.900374412536621,
		"address": "Stationsplein 15",
		"postalCode": "1012 AB",
		"city": "Amsterdam",
		"country": "Nederland",
		"categories": ["Train Station"]
	},
	{
		"date": "2018-01-18T08:19+0100",
		"name": "Station Haarlem",
		"id": "4a8c3036f964a5203a0d20e3",
		"lat": 52.387919728928985,
		"lng": 4.638276517449355,
		"address": "Stationsplein 11 L",
		"postalCode": "2011 LR",
		"city": "Haarlem",
		"country": "Nederland",
		"categories": ["Train Station"]
	},
	{
		"date": "2018-01-17T19:03+0100",
		"name": "Station Haarlem",
		"id": "4a8c3036f964a5203a0d20e3",
		"lat": 52.387919728928985,
		"lng": 4.638276517449355,
		"address": "Stationsplein 11 L",
		"postalCode": "2011 LR",
		"city": "Haarlem",
		"country": "Nederland",
		"categories": ["Train Station"]
	},
	{
		"date": "2018-01-17T18:19+0100",
		"name": "WeWork Metropool",
		"id": "56a14a68498e77945ee2ced1",
		"lat": 52.36480793621647,
		"lng": 4.906191453337669,
		"address": "Weesperstraat 61",
		"postalCode": "1018 VN",
		"city": "Amsterdam",
		"country": "Nederland",
		"categories": ["Coworking Space", "Building"]
	},
	{
		"date": "2018-01-17T18:19+0100",
		"name": "Docler Holding Amsterdam",
		"id": "58b684db52a051661da12674",
		"lat": 52.36505739184381,
		"lng": 4.906015988886142,
		"address": "Weespertraat 61",
		"postalCode": "1018 VN",
		"city": "Amsterdam",
		"country": "Nederland",
		"categories": ["Tech Startup"]
	},
	{
		"date": "2018-01-17T09:11+0100",
		"name": "Station Amsterdam Centraal",
		"id": "4a688ba1f964a52088ca1fe3",
		"lat": 52.37878224866535,
		"lng": 4.900374412536621,
		"address": "Stationsplein 15",
		"postalCode": "1012 AB",
		"city": "Amsterdam",
		"country": "Nederland",
		"categories": ["Train Station"]
	},
	{
		"date": "2018-01-17T08:43+0100",
		"name": "Station Haarlem",
		"id": "4a8c3036f964a5203a0d20e3",
		"lat": 52.387919728928985,
		"lng": 4.638276517449355,
		"address": "Stationsplein 11 L",
		"postalCode": "2011 LR",
		"city": "Haarlem",
		"country": "Nederland",
		"categories": ["Train Station"]
	},
	{
		"date": "2018-01-16T19:58+0100",
		"name": "WeWork Metropool",
		"id": "56a14a68498e77945ee2ced1",
		"lat": 52.36480793621647,
		"lng": 4.906191453337669,
		"address": "Weesperstraat 61",
		"postalCode": "1018 VN",
		"city": "Amsterdam",
		"country": "Nederland",
		"categories": ["Coworking Space", "Building"]
	},
	{
		"date": "2018-01-16T09:16+0100",
		"name": "Station Amsterdam Centraal",
		"id": "4a688ba1f964a52088ca1fe3",
		"lat": 52.37878224866535,
		"lng": 4.900374412536621,
		"address": "Stationsplein 15",
		"postalCode": "1012 AB",
		"city": "Amsterdam",
		"country": "Nederland",
		"categories": ["Train Station"]
	},
	{
		"date": "2018-01-16T08:49+0100",
		"name": "Station Haarlem",
		"id": "4a8c3036f964a5203a0d20e3",
		"lat": 52.387919728928985,
		"lng": 4.638276517449355,
		"address": "Stationsplein 11 L",
		"postalCode": "2011 LR",
		"city": "Haarlem",
		"country": "Nederland",
		"categories": ["Train Station"]
	},
	{
		"date": "2018-01-15T19:45+0100",
		"name": "Station Amsterdam Centraal",
		"id": "4a688ba1f964a52088ca1fe3",
		"lat": 52.37878224866535,
		"lng": 4.900374412536621,
		"address": "Stationsplein 15",
		"postalCode": "1012 AB",
		"city": "Amsterdam",
		"country": "Nederland",
		"categories": ["Train Station"]
	},
	{
		"date": "2018-01-15T15:06+0100",
		"name": "WeWork Metropool",
		"id": "56a14a68498e77945ee2ced1",
		"lat": 52.36480793621647,
		"lng": 4.906191453337669,
		"address": "Weesperstraat 61",
		"postalCode": "1018 VN",
		"city": "Amsterdam",
		"country": "Nederland",
		"categories": ["Coworking Space", "Building"]
	},
	{
		"date": "2018-01-15T11:29+0100",
		"name": "Salsa Shop",
		"id": "53c3ca66498ea876ac0e1349",
		"lat": 52.36622550874323,
		"lng": 4.899968972243181,
		"address": "Amstelstraat 32A",
		"postalCode": "1017 DA",
		"city": "Amsterdam",
		"country": "Nederland",
		"categories": ["Mexican Restaurant"]
	},
	{
		"date": "2018-01-15T09:01+0100",
		"name": "Station Amsterdam Centraal",
		"id": "4a688ba1f964a52088ca1fe3",
		"lat": 52.37878224866535,
		"lng": 4.900374412536621,
		"address": "Stationsplein 15",
		"postalCode": "1012 AB",
		"city": "Amsterdam",
		"country": "Nederland",
		"categories": ["Train Station"]
	},
	{
		"date": "2018-01-15T08:40+0100",
		"name": "Station Haarlem",
		"id": "4a8c3036f964a5203a0d20e3",
		"lat": 52.387919728928985,
		"lng": 4.638276517449355,
		"address": "Stationsplein 11 L",
		"postalCode": "2011 LR",
		"city": "Haarlem",
		"country": "Nederland",
		"categories": ["Train Station"]
	},
	{
		"date": "2018-01-13T21:04+0100",
		"name": "Woodstone Pizza And Wine",
		"id": "4d7ba00ef260a093c3922aba",
		"lat": 52.38142433800417,
		"lng": 4.629887062490495,
		"address": "Hortusplein 2",
		"postalCode": "2019 XV",
		"city": "Haarlem",
		"country": "Nederland",
		"categories": ["Pizza Place", "Wine Bar"]
	},
	{
		"date": "2018-01-12T17:44+0100",
		"name": "Station Amsterdam Centraal",
		"id": "4a688ba1f964a52088ca1fe3",
		"lat": 52.37878224866535,
		"lng": 4.900374412536621,
		"address": "Stationsplein 15",
		"postalCode": "1012 AB",
		"city": "Amsterdam",
		"country": "Nederland",
		"categories": ["Train Station"]
	},
	{
		"date": "2018-01-12T12:14+0100",
		"name": "Bagels & Beans",
		"id": "5124b2ffe4b09ac38ea39ef7",
		"lat": 52.364046730172916,
		"lng": 4.910781025648928,
		"country": "Nederland",
		"categories": ["Bagel Shop"]
	},
	{
		"date": "2018-01-12T12:00+0100",
		"name": "Docler Holding Amsterdam",
		"id": "58b684db52a051661da12674",
		"lat": 52.36505739184381,
		"lng": 4.906015988886142,
		"address": "Weespertraat 61",
		"postalCode": "1018 VN",
		"city": "Amsterdam",
		"country": "Nederland",
		"categories": ["Tech Startup"]
	},
	{
		"date": "2018-01-12T09:32+0100",
		"name": "WeWork Metropool",
		"id": "56a14a68498e77945ee2ced1",
		"lat": 52.36480793621647,
		"lng": 4.906191453337669,
		"address": "Weesperstraat 61",
		"postalCode": "1018 VN",
		"city": "Amsterdam",
		"country": "Nederland",
		"categories": ["Coworking Space", "Building"]
	},
	{
		"date": "2018-01-12T09:12+0100",
		"name": "Station Amsterdam Centraal",
		"id": "4a688ba1f964a52088ca1fe3",
		"lat": 52.37878224866535,
		"lng": 4.900374412536621,
		"address": "Stationsplein 15",
		"postalCode": "1012 AB",
		"city": "Amsterdam",
		"country": "Nederland",
		"categories": ["Train Station"]
	},
	{
		"date": "2018-01-12T08:50+0100",
		"name": "Station Haarlem",
		"id": "4a8c3036f964a5203a0d20e3",
		"lat": 52.387919728928985,
		"lng": 4.638276517449355,
		"address": "Stationsplein 11 L",
		"postalCode": "2011 LR",
		"city": "Haarlem",
		"country": "Nederland",
		"categories": ["Train Station"]
	},
	{
		"date": "2018-01-11T18:54+0100",
		"name": "Station Amsterdam Centraal",
		"id": "4a688ba1f964a52088ca1fe3",
		"lat": 52.37878224866535,
		"lng": 4.900374412536621,
		"address": "Stationsplein 15",
		"postalCode": "1012 AB",
		"city": "Amsterdam",
		"country": "Nederland",
		"categories": ["Train Station"]
	},
	{
		"date": "2018-01-11T12:31+0100",
		"name": "The Burrito Maker",
		"id": "54e2314b498e6c6790ffa4ac",
		"lat": 52.36677,
		"lng": 4.9252243,
		"address": "Haarlemmerplein 29",
		"postalCode": "1013 HP",
		"city": "Amsterdam",
		"country": "Nederland",
		"categories": ["Taco Place"]
	},
	{
		"date": "2018-01-11T09:08+0100",
		"name": "WeWork Metropool",
		"id": "56a14a68498e77945ee2ced1",
		"lat": 52.36480793621647,
		"lng": 4.906191453337669,
		"address": "Weesperstraat 61",
		"postalCode": "1018 VN",
		"city": "Amsterdam",
		"country": "Nederland",
		"categories": ["Coworking Space", "Building"]
	},
	{
		"date": "2018-01-11T08:49+0100",
		"name": "Station Amsterdam Centraal",
		"id": "4a688ba1f964a52088ca1fe3",
		"lat": 52.37878224866535,
		"lng": 4.900374412536621,
		"address": "Stationsplein 15",
		"postalCode": "1012 AB",
		"city": "Amsterdam",
		"country": "Nederland",
		"categories": ["Train Station"]
	},
	{
		"date": "2018-01-11T08:25+0100",
		"name": "Station Haarlem",
		"id": "4a8c3036f964a5203a0d20e3",
		"lat": 52.387919728928985,
		"lng": 4.638276517449355,
		"address": "Stationsplein 11 L",
		"postalCode": "2011 LR",
		"city": "Haarlem",
		"country": "Nederland",
		"categories": ["Train Station"]
	},
	{
		"date": "2018-01-10T19:52+0100",
		"name": "Café de Vijfhoek",
		"id": "4a7b53d1f964a520b1ea1fe3",
		"lat": 52.37887462473104,
		"lng": 4.6301965984374895,
		"address": "Wolstraat 20",
		"postalCode": "2011ZA",
		"city": "Haarlem",
		"country": "Nederland",
		"categories": ["Bar"]
	},
	{
		"date": "2018-01-10T18:55+0100",
		"name": "Jopenkerk",
		"id": "4c727bda2b7fef3bdc3c8e1d",
		"lat": 52.3811792255139,
		"lng": 4.630007743835449,
		"address": "Gedempte Voldersgracht 2",
		"postalCode": "2011 WD",
		"city": "Haarlem",
		"country": "Nederland",
		"categories": ["Brewery", "Bar", "Restaurant"]
	},
	{
		"date": "2018-01-10T18:04+0100",
		"name": "Station Amsterdam Centraal",
		"id": "4a688ba1f964a52088ca1fe3",
		"lat": 52.37878224866535,
		"lng": 4.900374412536621,
		"address": "Stationsplein 15",
		"postalCode": "1012 AB",
		"city": "Amsterdam",
		"country": "Nederland",
		"categories": ["Train Station"]
	},
	{
		"date": "2018-01-10T12:35+0100",
		"name": "Vapiano",
		"id": "4fb28f2be4b0e2be9a5f1f6f",
		"lat": 52.36612800819601,
		"lng": 4.897454374802111,
		"address": "Amstelstraat 2-4",
		"postalCode": "1017 DA",
		"city": "Amsterdam",
		"country": "Nederland",
		"categories": ["Italian Restaurant", "Pizza Place"]
	},
	{
		"date": "2018-01-09T18:39+0100",
		"name": "Station Haarlem",
		"id": "4a8c3036f964a5203a0d20e3",
		"lat": 52.387919728928985,
		"lng": 4.638276517449355,
		"address": "Stationsplein 11 L",
		"postalCode": "2011 LR",
		"city": "Haarlem",
		"country": "Nederland",
		"categories": ["Train Station"]
	},
	{
		"date": "2018-01-09T18:13+0100",
		"name": "Station Amsterdam Centraal",
		"id": "4a688ba1f964a52088ca1fe3",
		"lat": 52.37878224866535,
		"lng": 4.900374412536621,
		"address": "Stationsplein 15",
		"postalCode": "1012 AB",
		"city": "Amsterdam",
		"country": "Nederland",
		"categories": ["Train Station"]
	},
	{
		"date": "2018-01-09T11:59+0100",
		"name": "Water & Brood",
		"id": "590c4ecfcad1b67f0cc84943",
		"lat": 52.36423552187337,
		"lng": 4.905926229851091,
		"address": "Nieuwe Kerkstraat 84",
		"postalCode": "1018 EC",
		"city": "Amsterdam",
		"country": "Nederland",
		"categories": ["Breakfast Spot"]
	},
	{
		"date": "2018-01-09T09:21+0100",
		"name": "WeWork Metropool",
		"id": "56a14a68498e77945ee2ced1",
		"lat": 52.36480793621647,
		"lng": 4.906191453337669,
		"address": "Weesperstraat 61",
		"postalCode": "1018 VN",
		"city": "Amsterdam",
		"country": "Nederland",
		"categories": ["Coworking Space", "Building"]
	},
	{
		"date": "2018-01-09T08:50+0100",
		"name": "Station Amsterdam Centraal",
		"id": "4a688ba1f964a52088ca1fe3",
		"lat": 52.37878224866535,
		"lng": 4.900374412536621,
		"address": "Stationsplein 15",
		"postalCode": "1012 AB",
		"city": "Amsterdam",
		"country": "Nederland",
		"categories": ["Train Station"]
	},
	{
		"date": "2018-01-09T08:17+0100",
		"name": "Station Haarlem",
		"id": "4a8c3036f964a5203a0d20e3",
		"lat": 52.387919728928985,
		"lng": 4.638276517449355,
		"address": "Stationsplein 11 L",
		"postalCode": "2011 LR",
		"city": "Haarlem",
		"country": "Nederland",
		"categories": ["Train Station"]
	},
	{
		"date": "2018-01-08T20:23+0100",
		"name": "Station Haarlem",
		"id": "4a8c3036f964a5203a0d20e3",
		"lat": 52.387919728928985,
		"lng": 4.638276517449355,
		"address": "Stationsplein 11 L",
		"postalCode": "2011 LR",
		"city": "Haarlem",
		"country": "Nederland",
		"categories": ["Train Station"]
	},
	{
		"date": "2018-01-08T19:46+0100",
		"name": "Station Amsterdam Centraal",
		"id": "4a688ba1f964a52088ca1fe3",
		"lat": 52.37878224866535,
		"lng": 4.900374412536621,
		"address": "Stationsplein 15",
		"postalCode": "1012 AB",
		"city": "Amsterdam",
		"country": "Nederland",
		"categories": ["Train Station"]
	},
	{
		"date": "2018-01-08T11:47+0100",
		"name": "Salsa Shop",
		"id": "53c3ca66498ea876ac0e1349",
		"lat": 52.36622550874323,
		"lng": 4.899968972243181,
		"address": "Amstelstraat 32A",
		"postalCode": "1017 DA",
		"city": "Amsterdam",
		"country": "Nederland",
		"categories": ["Mexican Restaurant"]
	},
	{
		"date": "2018-01-08T09:44+0100",
		"name": "Station Amsterdam Centraal",
		"id": "4a688ba1f964a52088ca1fe3",
		"lat": 52.37878224866535,
		"lng": 4.900374412536621,
		"address": "Stationsplein 15",
		"postalCode": "1012 AB",
		"city": "Amsterdam",
		"country": "Nederland",
		"categories": ["Train Station"]
	},
	{
		"date": "2018-01-08T08:32+0100",
		"name": "Amsterdam Airport Schiphol (AMS) (Amsterdam Airport Schiphol)",
		"id": "4a84e798f964a520defd1fe3",
		"lat": 52.3085704596075,
		"lng": 4.762122631072998,
		"address": "Aankomstpassage",
		"postalCode": "1118 CP",
		"city": "Schiphol",
		"country": "Nederland",
		"categories": ["Airport"]
	},
	{
		"date": "2018-01-08T05:28+0100",
		"name": "Food Court",
		"id": "57fa1ad4498eb0c4e6e570cd",
		"lat": 47.43324471866434,
		"lng": 19.261294958863196,
		"address": "Budapest Liszt Ferenc Nemzetközi Repülőtér",
		"postalCode": "1185",
		"city": "Budapest",
		"country": "Magyarország",
		"categories": ["Food Court"]
	},
	{
		"date": "2018-01-08T05:05+0100",
		"name": "Budapest Liszt Ferenc International Airport (BUD) (Budapest Liszt Ferenc nemzetközi repülőtér)",
		"id": "4b61c2daf964a5200f212ae3",
		"lat": 47.4331855826648,
		"lng": 19.261276141427583,
		"address": "Budapest Airport",
		"postalCode": "1185",
		"city": "Budapest",
		"country": "Magyarország",
		"categories": ["Airport"]
	},
	{
		"date": "2018-01-07T15:04+0100",
		"name": "Fusion Élményközpont",
		"id": "5967673b60d11b0ba1f2c55c",
		"lat": 47.45858326535675,
		"lng": 18.89523983001709,
		"address": "Keleti utca 1",
		"postalCode": "2040",
		"city": "Budaörs",
		"country": "Magyarország",
		"categories": ["General Entertainment"]
	},
	{
		"date": "2018-01-07T13:38+0100",
		"name": "Pasarét",
		"id": "4e995d7cb634d75c1877d46d",
		"lat": 47.5166518264976,
		"lng": 19.00454739178946,
		"city": "Budapest",
		"country": "Magyarország",
		"categories": ["Neighborhood", "Other Great Outdoors"]
	},
	{
		"date": "2018-01-07T12:26+0100",
		"name": "Lush",
		"id": "52864fe511d2de449c416146",
		"lat": 47.51329709837049,
		"lng": 19.058861519841628,
		"address": "Váci út 1-3.",
		"postalCode": "1062",
		"city": "Budapest",
		"country": "Magyarország",
		"categories": ["Cosmetics Shop"]
	},
	{
		"date": "2018-01-07T12:03+0100",
		"name": "Vapiano",
		"id": "527ab0ff11d2fb4fb97a42c8",
		"lat": 47.513767,
		"lng": 19.05876,
		"address": "WestEnd City Center",
		"postalCode": "1062",
		"city": "Budapest",
		"country": "Magyarország",
		"categories": ["Italian Restaurant"]
	},
	{
		"date": "2018-01-06T18:05+0100",
		"name": "Auróra",
		"id": "540342b3498e46786b318f01",
		"lat": 47.49415804648905,
		"lng": 19.076033700423636,
		"address": "Auróra u. 11.",
		"postalCode": "1084",
		"city": "Budapest",
		"country": "Magyarország",
		"categories": ["Social Club", "Coworking Space", "Café"]
	},
	{
		"date": "2018-01-06T15:31+0100",
		"name": "Andrássy Gyvla",
		"id": "58f0988851950e59f0adb9a6",
		"lat": 47.5052,
		"lng": 19.045614,
		"address": "Budapest",
		"postalCode": "1055",
		"city": "Budapest",
		"country": "Magyarország",
		"categories": ["Outdoor Sculpture"]
	},
	{
		"date": "2018-01-06T15:14+0100",
		"name": "Kossuth Lajos tér",
		"id": "4d879a9f5ad3a093d10d0ffe",
		"lat": 47.50689598568434,
		"lng": 19.047106504440308,
		"address": "Kossuth Lajos tér",
		"postalCode": "1055",
		"city": "Budapest",
		"country": "Magyarország",
		"categories": ["Plaza"]
	},
	{
		"date": "2018-01-06T15:14+0100",
		"name": "Tisza István emlékmű",
		"id": "5391f807498ea90b2e3faad1",
		"lat": 47.50847588300414,
		"lng": 19.045872688293457,
		"country": "Magyarország",
		"categories": ["Outdoor Sculpture"]
	},
	{
		"date": "2018-01-06T13:05+0100",
		"name": "Hummus Bar",
		"id": "4bdaac6d63c5c9b68c962468",
		"lat": 47.507808226793976,
		"lng": 19.054428247338695,
		"address": "Alkotmány u. 20",
		"postalCode": "1054",
		"city": "Budapest",
		"country": "Magyarország",
		"categories": ["Vegetarian / Vegan Restaurant"]
	},
	{
		"date": "2018-01-06T12:33+0100",
		"name": "Digitcam",
		"id": "51973667498e640995852aa8",
		"lat": 47.50701905482179,
		"lng": 19.05404881943634,
		"country": "Magyarország",
		"categories": ["Camera Store"]
	},
	{
		"date": "2018-01-06T12:13+0100",
		"name": "Media Markt",
		"id": "4cc6c1b61e596dcb5936e067",
		"lat": 47.514151737535414,
		"lng": 19.059880939067412,
		"address": "Váci út 1-3. (Westend 1. emelet)",
		"postalCode": "1062",
		"city": "Budapest",
		"country": "Magyarország",
		"categories": ["Electronics Store"]
	},
	{
		"date": "2018-01-06T12:04+0100",
		"name": "WestEnd City Center",
		"id": "4bcc1b343740b71309846365",
		"lat": 47.51335036278374,
		"lng": 19.05910205286379,
		"address": "Váci út 1-3.",
		"postalCode": "1062",
		"city": "Budapest",
		"country": "Magyarország",
		"categories": ["Shopping Mall"]
	},
	{
		"date": "2018-01-05T21:48+0100",
		"name": "Széll Kálmán tér",
		"id": "4b4cc7dff964a5209abe26e3",
		"lat": 47.506890027000544,
		"lng": 19.02481591861899,
		"address": "Széll Kálmán tér",
		"postalCode": "1014",
		"city": "Budapest",
		"country": "Magyarország",
		"categories": ["Plaza"]
	},
	{
		"date": "2018-01-05T19:35+0100",
		"name": "Jamie's Italian Restaurant",
		"id": "572caba6498e93bc8f43f0e0",
		"lat": 47.50109345413448,
		"lng": 19.032776759566097,
		"address": "Szentháromság u. 9-11.",
		"postalCode": "1014",
		"city": "Budapest",
		"country": "Magyarország",
		"categories": ["Italian Restaurant"]
	},
	{
		"date": "2018-01-05T16:35+0100",
		"name": "Pillangó utca (M2)",
		"id": "4b5ddadbf964a520117029e3",
		"lat": 47.50120288788079,
		"lng": 19.120030403137207,
		"address": "Kerepesi út",
		"postalCode": "1101",
		"city": "Budapest",
		"country": "Magyarország",
		"categories": ["Metro Station"]
	},
	{
		"date": "2018-01-05T12:40+0100",
		"name": "Docler Holding Irodaház",
		"id": "4b503f8af964a520171f27e3",
		"lat": 47.49694118099851,
		"lng": 19.117601577085395,
		"address": "Expó tér 5-7.",
		"postalCode": "1101",
		"city": "Budapest",
		"country": "Magyarország",
		"categories": ["Office"]
	},
	{
		"date": "2018-01-05T11:52+0100",
		"name": "Docler Cafeteria",
		"id": "505847b7e4b0b9424ea6a1cf",
		"lat": 47.49688493788501,
		"lng": 19.11765951368387,
		"address": "Expo tér 5-7.",
		"postalCode": "1101",
		"city": "Budapest",
		"country": "Magyarország",
		"categories": ["Cafeteria"]
	},
	{
		"date": "2018-01-04T23:13+0100",
		"name": "StarKebab",
		"id": "4c3822d60a71c9b6243a40c9",
		"lat": 47.50941054322815,
		"lng": 19.05708260012198,
		"address": "Teréz krt. 62.",
		"postalCode": "1062",
		"city": "Budapest",
		"country": "Magyarország",
		"categories": [
			"Turkish Restaurant",
			"Doner Restaurant",
			"Middle Eastern Restaurant"
		]
	},
	{
		"date": "2018-01-04T20:28+0100",
		"name": "Művész ArtMozi",
		"id": "4c9a411fa004a1cddbbf466e",
		"lat": 47.50669234055676,
		"lng": 19.06119684234176,
		"address": "Teréz krt. 30.",
		"postalCode": "1066",
		"city": "Budapest",
		"country": "Magyarország",
		"categories": ["Indie Movie Theater"]
	},
	{
		"date": "2018-01-04T13:12+0100",
		"name": "Docler Holding Irodaház",
		"id": "4b503f8af964a520171f27e3",
		"lat": 47.49694118099851,
		"lng": 19.117601577085395,
		"address": "Expó tér 5-7.",
		"postalCode": "1101",
		"city": "Budapest",
		"country": "Magyarország",
		"categories": ["Office"]
	},
	{
		"date": "2018-01-04T08:31+0100",
		"name": "Nyugati tér",
		"id": "4c04bf449a7920a1e5aad179",
		"lat": 47.510273139564326,
		"lng": 19.05600070953369,
		"address": "Nyugati tér",
		"city": "Budapest",
		"country": "Magyarország",
		"categories": ["Plaza"]
	},
	{
		"date": "2018-01-03T23:24+0100",
		"name": "Deák Ferenc tér",
		"id": "4d52c0d74015b1f7b1017ecf",
		"lat": 47.497560593384,
		"lng": 19.054577366898226,
		"address": "Deák Ferenc tér",
		"postalCode": "1052",
		"city": "Budapest",
		"country": "Magyarország",
		"categories": ["Plaza"]
	},
	{
		"date": "2018-01-03T22:18+0100",
		"name": "Éjjeli Bagoly Falatozó",
		"id": "4cf246498333224b136a0f8e",
		"lat": 47.50305474226807,
		"lng": 19.11833476281414,
		"address": "Fogarasi út 13.",
		"postalCode": "1148",
		"city": "Budapest",
		"country": "Magyarország",
		"categories": ["Hungarian Restaurant"]
	},
	{
		"date": "2018-01-03T22:18+0100",
		"name": "TESCO Extra",
		"id": "4b9932e4f964a520186935e3",
		"lat": 47.50479421370602,
		"lng": 19.11694049835205,
		"address": "Pillangó u. 15.",
		"postalCode": "1149",
		"city": "Budapest",
		"country": "Magyarország",
		"categories": ["Supermarket"]
	},
	{
		"date": "2018-01-03T18:16+0100",
		"name": "Flakon",
		"id": "583dca1872714f255c7a41cd",
		"lat": 47.504550003883125,
		"lng": 19.135087413280594,
		"address": "Örs vezér tere 2",
		"postalCode": "1148",
		"city": "Budapest",
		"country": "Magyarország",
		"categories": ["Pub", "Burger Joint"]
	},
	{
		"date": "2018-01-03T11:18+0100",
		"name": "Docler Holding Irodaház",
		"id": "4b503f8af964a520171f27e3",
		"lat": 47.49694118099851,
		"lng": 19.117601577085395,
		"address": "Expó tér 5-7.",
		"postalCode": "1101",
		"city": "Budapest",
		"country": "Magyarország",
		"categories": ["Office"]
	},
	{
		"date": "2018-01-03T07:40+0100",
		"name": "Nyugati tér",
		"id": "4c04bf449a7920a1e5aad179",
		"lat": 47.510273139564326,
		"lng": 19.05600070953369,
		"address": "Nyugati tér",
		"city": "Budapest",
		"country": "Magyarország",
		"categories": ["Plaza"]
	},
	{
		"date": "2018-01-02T18:14+0100",
		"name": "WestEnd City Center",
		"id": "4bcc1b343740b71309846365",
		"lat": 47.51335036278374,
		"lng": 19.05910205286379,
		"address": "Váci út 1-3.",
		"postalCode": "1062",
		"city": "Budapest",
		"country": "Magyarország",
		"categories": ["Shopping Mall"]
	},
	{
		"date": "2018-01-02T09:06+0100",
		"name": "Docler Holding Irodaház",
		"id": "4b503f8af964a520171f27e3",
		"lat": 47.49694118099851,
		"lng": 19.117601577085395,
		"address": "Expó tér 5-7.",
		"postalCode": "1101",
		"city": "Budapest",
		"country": "Magyarország",
		"categories": ["Office"]
	},
	{
		"date": "2018-01-02T08:29+0100",
		"name": "Pillangó utca (M2)",
		"id": "4b5ddadbf964a520117029e3",
		"lat": 47.50120288788079,
		"lng": 19.120030403137207,
		"address": "Kerepesi út",
		"postalCode": "1101",
		"city": "Budapest",
		"country": "Magyarország",
		"categories": ["Metro Station"]
	},
	{
		"date": "2018-01-01T17:51+0100",
		"name": "Padthai Wokbar Mammut",
		"id": "57d02fe5498e2f96f326ba81",
		"lat": 47.50922579375727,
		"lng": 19.026883337728556,
		"city": "Budapest",
		"country": "Magyarország",
		"categories": ["Thai Restaurant"]
	},
	{
		"date": "2018-01-01T17:28+0100",
		"name": "Mammut II.",
		"id": "4be47ec4d4f7c9b6563b2420",
		"lat": 47.50891554717574,
		"lng": 19.026785923674826,
		"address": "Lövőház u. 2-6.",
		"postalCode": "1024",
		"city": "Budapest",
		"country": "Magyarország",
		"categories": ["Shopping Mall"]
	},
	{
		"date": "2018-01-01T16:02+0100",
		"name": "Budavári Palota",
		"id": "4bc9f998937ca59338c2a692",
		"lat": 47.496197815204255,
		"lng": 19.03954267501831,
		"address": "Budai Vár",
		"postalCode": "1014",
		"city": "Budapest",
		"country": "Magyarország",
		"categories": ["Castle", "Museum", "Monument / Landmark"]
	},
	{
		"date": "2018-01-01T14:32+0100",
		"name": "Nyugati tér",
		"id": "4c04bf449a7920a1e5aad179",
		"lat": 47.510273139564326,
		"lng": 19.05600070953369,
		"address": "Nyugati tér",
		"city": "Budapest",
		"country": "Magyarország",
		"categories": ["Plaza"]
	},
	{
		"date": "2018-01-01T13:43+0100",
		"name": "Vapiano",
		"id": "527ab0ff11d2fb4fb97a42c8",
		"lat": 47.513767,
		"lng": 19.05876,
		"address": "WestEnd City Center",
		"postalCode": "1062",
		"city": "Budapest",
		"country": "Magyarország",
		"categories": ["Italian Restaurant"]
	},
	{
		"date": "2018-01-01T13:40+0100",
		"name": "WestEnd City Center",
		"id": "4bcc1b343740b71309846365",
		"lat": 47.51335036278374,
		"lng": 19.05910205286379,
		"address": "Váci út 1-3.",
		"postalCode": "1062",
		"city": "Budapest",
		"country": "Magyarország",
		"categories": ["Shopping Mall"]
	},
	{
		"date": "2018-01-01T00:39+0100",
		"name": "Majorka Kávézó és Söröző",
		"id": "4b72e923f964a5200c8f2de3",
		"lat": 47.50964628085839,
		"lng": 19.01032269001007,
		"address": "Szilágyi Erzsébet fasor 16.",
		"postalCode": "1125",
		"city": "Budapest",
		"country": "Magyarország",
		"categories": ["Beer Garden", "Pub"]
	}
]
