[
	{
		"date": "2010-10-01T06:20:54.000Z",
		"name": "BME I épület",
		"id": "4bcd89a5fb84c9b6311c223e",
		"lat": 47.472654177471675,
		"lng": 19.059821807961907,
		"address": "Magyar tudósok körútja 2.",
		"postalCode": "1117",
		"city": "Budapest",
		"country": "Magyarország",
		"categories": [
			"College Technology Building"
		]
	},
	{
		"date": "2010-10-01T08:17:50.000Z",
		"name": "Schönherz Zoltán Kollégium",
		"id": "4b70505ff964a520f8112de3",
		"lat": 47.47289320855564,
		"lng": 19.053094108014353,
		"address": "Irinyi József u. 42.",
		"postalCode": "1117",
		"city": "Budapest",
		"country": "Magyarország",
		"categories": [
			"College Residence Hall",
			"College Engineering Building",
			"Student Center"
		]
	},
	{
		"date": "2010-10-04T08:12:33.000Z",
		"name": "BME K épület",
		"id": "4cb41c0adb32f04dd23adb4d",
		"lat": 47.4812486178674,
		"lng": 19.055142402648926,
		"address": "Műegyetem rkp. 3.",
		"postalCode": "1111",
		"city": "Budapest",
		"country": "Magyarország",
		"categories": [
			"University",
			"College Academic Building",
			"College Engineering Building"
		]
	},
	{
		"date": "2010-10-04T11:30:34.000Z",
		"name": "BME V2 épület",
		"id": "4ba8eb34f964a52016fa39e3",
		"lat": 47.47700088828759,
		"lng": 19.05879297637843,
		"address": "Goldmann György tér 3.",
		"postalCode": "1111",
		"city": "Budapest",
		"country": "Magyarország",
		"categories": [
			"College Academic Building"
		]
	},
	{
		"date": "2010-10-04T11:42:26.000Z",
		"name": "BME T épület",
		"id": "4ba8e9eff964a52097f939e3",
		"lat": 47.47838140943124,
		"lng": 19.05867709631912,
		"address": "Egry József utca 1.",
		"postalCode": "1111",
		"city": "Budapest",
		"country": "Magyarország",
		"categories": [
			"College Academic Building"
		]
	},
	{
		"date": "2010-10-04T14:15:45.000Z",
		"name": "BME I épület",
		"id": "4bcd89a5fb84c9b6311c223e",
		"lat": 47.472654177471675,
		"lng": 19.059821807961907,
		"address": "Magyar tudósok körútja 2.",
		"postalCode": "1117",
		"city": "Budapest",
		"country": "Magyarország",
		"categories": [
			"College Technology Building"
		]
	},
	{
		"date": "2010-10-05T06:23:07.000Z",
		"name": "BME V2 épület",
		"id": "4ba8eb34f964a52016fa39e3",
		"lat": 47.47700088828759,
		"lng": 19.05879297637843,
		"address": "Goldmann György tér 3.",
		"postalCode": "1111",
		"city": "Budapest",
		"country": "Magyarország",
		"categories": [
			"College Academic Building"
		]
	},
	{
		"date": "2010-10-05T08:27:41.000Z",
		"name": "BME E épület",
		"id": "4ba8e6fbf964a5208ef839e3",
		"lat": 47.477616135843945,
		"lng": 19.057630443325607,
		"address": "Egry József u. 1.",
		"postalCode": "1111",
		"city": "Budapest",
		"country": "Magyarország",
		"categories": [
			"College Academic Building"
		]
	},
	{
		"date": "2010-10-05T09:07:26.000Z",
		"name": "BME Q épület",
		"id": "4c85f24fd4e23704bdf58688",
		"lat": 47.473393661934686,
		"lng": 19.059766255018825,
		"address": "Magyar tudósok körútja 2.",
		"postalCode": "1117",
		"city": "Budapest",
		"country": "Magyarország",
		"categories": [
			"College Academic Building"
		]
	},
	{
		"date": "2010-10-05T11:51:37.000Z",
		"name": "BME I épület",
		"id": "4bcd89a5fb84c9b6311c223e",
		"lat": 47.472654177471675,
		"lng": 19.059821807961907,
		"address": "Magyar tudósok körútja 2.",
		"postalCode": "1117",
		"city": "Budapest",
		"country": "Magyarország",
		"categories": [
			"College Technology Building"
		]
	},
	{
		"date": "2010-10-06T06:45:13.000Z",
		"name": "BME E épület",
		"id": "4ba8e6fbf964a5208ef839e3",
		"lat": 47.477616135843945,
		"lng": 19.057630443325607,
		"address": "Egry József u. 1.",
		"postalCode": "1111",
		"city": "Budapest",
		"country": "Magyarország",
		"categories": [
			"College Academic Building"
		]
	},
	{
		"date": "2010-10-06T08:14:18.000Z",
		"name": "Schönherz Zoltán Kollégium",
		"id": "4b70505ff964a520f8112de3",
		"lat": 47.47289320855564,
		"lng": 19.053094108014353,
		"address": "Irinyi József u. 42.",
		"postalCode": "1117",
		"city": "Budapest",
		"country": "Magyarország",
		"categories": [
			"College Residence Hall",
			"College Engineering Building",
			"Student Center"
		]
	},
	{
		"date": "2010-10-06T12:26:35.000Z",
		"name": "BME I épület",
		"id": "4bcd89a5fb84c9b6311c223e",
		"lat": 47.472654177471675,
		"lng": 19.059821807961907,
		"address": "Magyar tudósok körútja 2.",
		"postalCode": "1117",
		"city": "Budapest",
		"country": "Magyarország",
		"categories": [
			"College Technology Building"
		]
	},
	{
		"date": "2010-10-06T18:50:36.000Z",
		"name": "Schönherz Zoltán Kollégium",
		"id": "4b70505ff964a520f8112de3",
		"lat": 47.47289320855564,
		"lng": 19.053094108014353,
		"address": "Irinyi József u. 42.",
		"postalCode": "1117",
		"city": "Budapest",
		"country": "Magyarország",
		"categories": [
			"College Residence Hall",
			"College Engineering Building",
			"Student Center"
		]
	},
	{
		"date": "2010-10-11T08:11:14.000Z",
		"name": "BME K épület",
		"id": "4cb41c0adb32f04dd23adb4d",
		"lat": 47.4812486178674,
		"lng": 19.055142402648926,
		"address": "Műegyetem rkp. 3.",
		"postalCode": "1111",
		"city": "Budapest",
		"country": "Magyarország",
		"categories": [
			"University",
			"College Academic Building",
			"College Engineering Building"
		]
	},
	{
		"date": "2010-10-11T11:56:19.000Z",
		"name": "BME T épület",
		"id": "4ba8e9eff964a52097f939e3",
		"lat": 47.47838140943124,
		"lng": 19.05867709631912,
		"address": "Egry József utca 1.",
		"postalCode": "1111",
		"city": "Budapest",
		"country": "Magyarország",
		"categories": [
			"College Academic Building"
		]
	},
	{
		"date": "2010-10-11T14:05:46.000Z",
		"name": "BME I épület",
		"id": "4bcd89a5fb84c9b6311c223e",
		"lat": 47.472654177471675,
		"lng": 19.059821807961907,
		"address": "Magyar tudósok körútja 2.",
		"postalCode": "1117",
		"city": "Budapest",
		"country": "Magyarország",
		"categories": [
			"College Technology Building"
		]
	},
	{
		"date": "2010-10-12T10:01:45.000Z",
		"name": "BME Q épület",
		"id": "4c85f24fd4e23704bdf58688",
		"lat": 47.473393661934686,
		"lng": 19.059766255018825,
		"address": "Magyar tudósok körútja 2.",
		"postalCode": "1117",
		"city": "Budapest",
		"country": "Magyarország",
		"categories": [
			"College Academic Building"
		]
	},
	{
		"date": "2010-10-12T11:21:58.000Z",
		"name": "Schönherz Zoltán Kollégium",
		"id": "4b70505ff964a520f8112de3",
		"lat": 47.47289320855564,
		"lng": 19.053094108014353,
		"address": "Irinyi József u. 42.",
		"postalCode": "1117",
		"city": "Budapest",
		"country": "Magyarország",
		"categories": [
			"College Residence Hall",
			"College Engineering Building",
			"Student Center"
		]
	},
	{
		"date": "2010-10-13T06:14:46.000Z",
		"name": "BME E épület",
		"id": "4ba8e6fbf964a5208ef839e3",
		"lat": 47.477616135843945,
		"lng": 19.057630443325607,
		"address": "Egry József u. 1.",
		"postalCode": "1111",
		"city": "Budapest",
		"country": "Magyarország",
		"categories": [
			"College Academic Building"
		]
	},
	{
		"date": "2010-10-13T10:19:39.000Z",
		"name": "BME T épület",
		"id": "4ba8e9eff964a52097f939e3",
		"lat": 47.47838140943124,
		"lng": 19.05867709631912,
		"address": "Egry József utca 1.",
		"postalCode": "1111",
		"city": "Budapest",
		"country": "Magyarország",
		"categories": [
			"College Academic Building"
		]
	},
	{
		"date": "2010-10-13T12:45:42.000Z",
		"name": "BME I épület",
		"id": "4bcd89a5fb84c9b6311c223e",
		"lat": 47.472654177471675,
		"lng": 19.059821807961907,
		"address": "Magyar tudósok körútja 2.",
		"postalCode": "1117",
		"city": "Budapest",
		"country": "Magyarország",
		"categories": [
			"College Technology Building"
		]
	},
	{
		"date": "2010-10-14T08:37:53.000Z",
		"name": "BME E épület",
		"id": "4ba8e6fbf964a5208ef839e3",
		"lat": 47.477616135843945,
		"lng": 19.057630443325607,
		"address": "Egry József u. 1.",
		"postalCode": "1111",
		"city": "Budapest",
		"country": "Magyarország",
		"categories": [
			"College Academic Building"
		]
	},
	{
		"date": "2010-10-14T11:18:55.000Z",
		"name": "BME I épület",
		"id": "4bcd89a5fb84c9b6311c223e",
		"lat": 47.472654177471675,
		"lng": 19.059821807961907,
		"address": "Magyar tudósok körútja 2.",
		"postalCode": "1117",
		"city": "Budapest",
		"country": "Magyarország",
		"categories": [
			"College Technology Building"
		]
	},
	{
		"date": "2010-10-14T12:27:10.000Z",
		"name": "Schönherz Zoltán Kollégium",
		"id": "4b70505ff964a520f8112de3",
		"lat": 47.47289320855564,
		"lng": 19.053094108014353,
		"address": "Irinyi József u. 42.",
		"postalCode": "1117",
		"city": "Budapest",
		"country": "Magyarország",
		"categories": [
			"College Residence Hall",
			"College Engineering Building",
			"Student Center"
		]
	},
	{
		"date": "2010-10-15T06:12:11.000Z",
		"name": "BME F épület",
		"id": "4c19da436a21c9b68330cb97",
		"lat": 47.47997076094497,
		"lng": 19.05389783043149,
		"address": "Budafoki út 21-27.",
		"postalCode": "1111",
		"city": "Budapest",
		"country": "Magyarország",
		"categories": [
			"College Science Building"
		]
	},
	{
		"date": "2010-10-15T09:22:25.000Z",
		"name": "Schönherz Zoltán Kollégium",
		"id": "4b70505ff964a520f8112de3",
		"lat": 47.47289320855564,
		"lng": 19.053094108014353,
		"address": "Irinyi József u. 42.",
		"postalCode": "1117",
		"city": "Budapest",
		"country": "Magyarország",
		"categories": [
			"College Residence Hall",
			"College Engineering Building",
			"Student Center"
		]
	},
	{
		"date": "2010-10-15T10:57:21.000Z",
		"name": "BME Q épület",
		"id": "4c85f24fd4e23704bdf58688",
		"lat": 47.473393661934686,
		"lng": 19.059766255018825,
		"address": "Magyar tudósok körútja 2.",
		"postalCode": "1117",
		"city": "Budapest",
		"country": "Magyarország",
		"categories": [
			"College Academic Building"
		]
	},
	{
		"date": "2010-10-15T12:30:19.000Z",
		"name": "Libri",
		"id": "4bc60c5bb387d13a3a34c1e8",
		"lat": 47.47555651679843,
		"lng": 19.048859316904515,
		"address": "Allee Bevásárlóközpont, földszint / 1. emelet",
		"postalCode": "1117",
		"city": "Budapest",
		"country": "Magyarország",
		"categories": [
			"Bookstore"
		]
	},
	{
		"date": "2010-10-15T12:30:44.000Z",
		"name": "Allee Bevásárlóközpont",
		"id": "4ba35913f964a520883638e3",
		"lat": 47.47540787650971,
		"lng": 19.048983750822984,
		"address": "Október huszonharmadika u. 8-10.",
		"postalCode": "1117",
		"city": "Budapest",
		"country": "Magyarország",
		"categories": [
			"Shopping Mall"
		]
	},
	{
		"date": "2010-10-15T12:52:05.000Z",
		"name": "Schönherz Zoltán Kollégium",
		"id": "4b70505ff964a520f8112de3",
		"lat": 47.47289320855564,
		"lng": 19.053094108014353,
		"address": "Irinyi József u. 42.",
		"postalCode": "1117",
		"city": "Budapest",
		"country": "Magyarország",
		"categories": [
			"College Residence Hall",
			"College Engineering Building",
			"Student Center"
		]
	},
	{
		"date": "2010-10-15T13:31:01.000Z",
		"name": "Eastern Railway Station (Keleti pályaudvar)",
		"id": "4b6e7d14f964a52065bf2ce3",
		"lat": 47.50041327485257,
		"lng": 19.083804935752624,
		"address": "Baross tér 10.",
		"postalCode": "1083",
		"city": "Budapest",
		"country": "Magyarország",
		"categories": [
			"Train Station"
		]
	},
	{
		"date": "2010-10-15T17:14:26.000Z",
		"name": "Sopron vasútállomás",
		"id": "4bd6fe6529eb9c749dee95e1",
		"lat": 47.67771249028291,
		"lng": 16.58738136291504,
		"address": "Állomás u. 2.",
		"postalCode": "9400",
		"city": "Sopron",
		"country": "Magyarország",
		"categories": [
			"Train Station"
		]
	},
	{
		"date": "2010-10-15T17:50:51.000Z",
		"name": "Villa Polgar",
		"id": "4caaebc0965c9c74f70dcbfa",
		"lat": 47.671899642379415,
		"lng": 16.611052697881373,
		"city": "Sopron",
		"country": "Magyarország",
		"categories": [
			"Home (private)"
		]
	},
	{
		"date": "2010-10-17T18:50:02.000Z",
		"name": "Schönherz Zoltán Kollégium",
		"id": "4b70505ff964a520f8112de3",
		"lat": 47.47289320855564,
		"lng": 19.053094108014353,
		"address": "Irinyi József u. 42.",
		"postalCode": "1117",
		"city": "Budapest",
		"country": "Magyarország",
		"categories": [
			"College Residence Hall",
			"College Engineering Building",
			"Student Center"
		]
	},
	{
		"date": "2010-10-18T08:04:38.000Z",
		"name": "BME K épület",
		"id": "4cb41c0adb32f04dd23adb4d",
		"lat": 47.4812486178674,
		"lng": 19.055142402648926,
		"address": "Műegyetem rkp. 3.",
		"postalCode": "1111",
		"city": "Budapest",
		"country": "Magyarország",
		"categories": [
			"University",
			"College Academic Building",
			"College Engineering Building"
		]
	},
	{
		"date": "2010-10-18T12:08:27.000Z",
		"name": "BME T épület",
		"id": "4ba8e9eff964a52097f939e3",
		"lat": 47.47838140943124,
		"lng": 19.05867709631912,
		"address": "Egry József utca 1.",
		"postalCode": "1111",
		"city": "Budapest",
		"country": "Magyarország",
		"categories": [
			"College Academic Building"
		]
	},
	{
		"date": "2010-10-18T14:07:24.000Z",
		"name": "BME I épület",
		"id": "4bcd89a5fb84c9b6311c223e",
		"lat": 47.472654177471675,
		"lng": 19.059821807961907,
		"address": "Magyar tudósok körútja 2.",
		"postalCode": "1117",
		"city": "Budapest",
		"country": "Magyarország",
		"categories": [
			"College Technology Building"
		]
	},
	{
		"date": "2010-10-18T18:54:22.000Z",
		"name": "Schönherz Zoltán Kollégium",
		"id": "4b70505ff964a520f8112de3",
		"lat": 47.47289320855564,
		"lng": 19.053094108014353,
		"address": "Irinyi József u. 42.",
		"postalCode": "1117",
		"city": "Budapest",
		"country": "Magyarország",
		"categories": [
			"College Residence Hall",
			"College Engineering Building",
			"Student Center"
		]
	},
	{
		"date": "2010-10-19T09:10:00.000Z",
		"name": "BME E épület",
		"id": "4ba8e6fbf964a5208ef839e3",
		"lat": 47.477616135843945,
		"lng": 19.057630443325607,
		"address": "Egry József u. 1.",
		"postalCode": "1111",
		"city": "Budapest",
		"country": "Magyarország",
		"categories": [
			"College Academic Building"
		]
	},
	{
		"date": "2010-10-19T10:38:48.000Z",
		"name": "BME Q épület",
		"id": "4c85f24fd4e23704bdf58688",
		"lat": 47.473393661934686,
		"lng": 19.059766255018825,
		"address": "Magyar tudósok körútja 2.",
		"postalCode": "1117",
		"city": "Budapest",
		"country": "Magyarország",
		"categories": [
			"College Academic Building"
		]
	},
	{
		"date": "2010-10-19T11:56:09.000Z",
		"name": "BME I épület",
		"id": "4bcd89a5fb84c9b6311c223e",
		"lat": 47.472654177471675,
		"lng": 19.059821807961907,
		"address": "Magyar tudósok körútja 2.",
		"postalCode": "1117",
		"city": "Budapest",
		"country": "Magyarország",
		"categories": [
			"College Technology Building"
		]
	},
	{
		"date": "2010-10-19T14:16:49.000Z",
		"name": "Schönherz Zoltán Kollégium",
		"id": "4b70505ff964a520f8112de3",
		"lat": 47.47289320855564,
		"lng": 19.053094108014353,
		"address": "Irinyi József u. 42.",
		"postalCode": "1117",
		"city": "Budapest",
		"country": "Magyarország",
		"categories": [
			"College Residence Hall",
			"College Engineering Building",
			"Student Center"
		]
	},
	{
		"date": "2010-10-19T14:20:49.000Z",
		"name": "iPon Computer",
		"id": "4c12274ba9c220a11166539d",
		"lat": 47.51011827041639,
		"lng": 19.102112509617456,
		"address": "Francia út 40/b.",
		"postalCode": "1143",
		"city": "Budapest",
		"country": "Magyarország",
		"categories": [
			"Electronics Store",
			"Hardware Store"
		]
	},
	{
		"date": "2010-10-20T05:07:41.000Z",
		"name": "Schönherz Zoltán Kollégium",
		"id": "4b70505ff964a520f8112de3",
		"lat": 47.47289320855564,
		"lng": 19.053094108014353,
		"address": "Irinyi József u. 42.",
		"postalCode": "1117",
		"city": "Budapest",
		"country": "Magyarország",
		"categories": [
			"College Residence Hall",
			"College Engineering Building",
			"Student Center"
		]
	},
	{
		"date": "2010-10-20T06:14:17.000Z",
		"name": "BME E épület",
		"id": "4ba8e6fbf964a5208ef839e3",
		"lat": 47.477616135843945,
		"lng": 19.057630443325607,
		"address": "Egry József u. 1.",
		"postalCode": "1111",
		"city": "Budapest",
		"country": "Magyarország",
		"categories": [
			"College Academic Building"
		]
	},
	{
		"date": "2010-10-20T09:02:55.000Z",
		"name": "Schönherz Zoltán Kollégium",
		"id": "4b70505ff964a520f8112de3",
		"lat": 47.47289320855564,
		"lng": 19.053094108014353,
		"address": "Irinyi József u. 42.",
		"postalCode": "1117",
		"city": "Budapest",
		"country": "Magyarország",
		"categories": [
			"College Residence Hall",
			"College Engineering Building",
			"Student Center"
		]
	},
	{
		"date": "2010-10-20T10:11:15.000Z",
		"name": "BME K épület",
		"id": "4cb41c0adb32f04dd23adb4d",
		"lat": 47.4812486178674,
		"lng": 19.055142402648926,
		"address": "Műegyetem rkp. 3.",
		"postalCode": "1111",
		"city": "Budapest",
		"country": "Magyarország",
		"categories": [
			"University",
			"College Academic Building",
			"College Engineering Building"
		]
	},
	{
		"date": "2010-10-20T12:11:33.000Z",
		"name": "BME I épület",
		"id": "4bcd89a5fb84c9b6311c223e",
		"lat": 47.472654177471675,
		"lng": 19.059821807961907,
		"address": "Magyar tudósok körútja 2.",
		"postalCode": "1117",
		"city": "Budapest",
		"country": "Magyarország",
		"categories": [
			"College Technology Building"
		]
	},
	{
		"date": "2010-10-20T12:24:03.000Z",
		"name": "BME I épület",
		"id": "4bcd89a5fb84c9b6311c223e",
		"lat": 47.472654177471675,
		"lng": 19.059821807961907,
		"address": "Magyar tudósok körútja 2.",
		"postalCode": "1117",
		"city": "Budapest",
		"country": "Magyarország",
		"categories": [
			"College Technology Building"
		]
	},
	{
		"date": "2010-10-20T15:56:04.000Z",
		"name": "Allee Bevásárlóközpont",
		"id": "4ba35913f964a520883638e3",
		"lat": 47.47540787650971,
		"lng": 19.048983750822984,
		"address": "Október huszonharmadika u. 8-10.",
		"postalCode": "1117",
		"city": "Budapest",
		"country": "Magyarország",
		"categories": [
			"Shopping Mall"
		]
	},
	{
		"date": "2010-10-20T15:56:46.000Z",
		"name": "INTERSPAR",
		"id": "4bdabddf63c5c9b699c22468",
		"lat": 47.475299241950985,
		"lng": 19.049000550751416,
		"address": "Allee Bevásárlóközpont",
		"postalCode": "1117",
		"city": "Budapest",
		"country": "Magyarország",
		"categories": [
			"Supermarket"
		]
	},
	{
		"date": "2010-10-21T07:24:44.000Z",
		"name": "Goldmann Menza",
		"id": "4cb440fd1168a093dd0a4723",
		"lat": 47.47731123979614,
		"lng": 19.058393239974976,
		"address": "Goldmann György tér 1.",
		"postalCode": "1111",
		"city": "Budapest",
		"country": "Magyarország",
		"categories": [
			"College Cafeteria",
			"Diner"
		]
	},
	{
		"date": "2010-10-21T07:29:29.000Z",
		"name": "Goldmann György tér",
		"id": "4cd2da5221d94688e0d2ec90",
		"lat": 47.47716427032586,
		"lng": 19.058825025626813,
		"address": "Goldmann György tér",
		"postalCode": "1111",
		"city": "Budapest",
		"country": "Magyarország",
		"categories": [
			"Plaza",
			"Park"
		]
	},
	{
		"date": "2010-10-21T07:42:43.000Z",
		"name": "BME E épület",
		"id": "4ba8e6fbf964a5208ef839e3",
		"lat": 47.477616135843945,
		"lng": 19.057630443325607,
		"address": "Egry József u. 1.",
		"postalCode": "1111",
		"city": "Budapest",
		"country": "Magyarország",
		"categories": [
			"College Academic Building"
		]
	},
	{
		"date": "2010-10-21T10:18:22.000Z",
		"name": "BME I épület",
		"id": "4bcd89a5fb84c9b6311c223e",
		"lat": 47.472654177471675,
		"lng": 19.059821807961907,
		"address": "Magyar tudósok körútja 2.",
		"postalCode": "1117",
		"city": "Budapest",
		"country": "Magyarország",
		"categories": [
			"College Technology Building"
		]
	},
	{
		"date": "2010-10-21T12:48:51.000Z",
		"name": "Schönherz Zoltán Kollégium",
		"id": "4b70505ff964a520f8112de3",
		"lat": 47.47289320855564,
		"lng": 19.053094108014353,
		"address": "Irinyi József u. 42.",
		"postalCode": "1117",
		"city": "Budapest",
		"country": "Magyarország",
		"categories": [
			"College Residence Hall",
			"College Engineering Building",
			"Student Center"
		]
	},
	{
		"date": "2010-10-21T14:12:08.000Z",
		"name": "BME F épület",
		"id": "4c19da436a21c9b68330cb97",
		"lat": 47.47997076094497,
		"lng": 19.05389783043149,
		"address": "Budafoki út 21-27.",
		"postalCode": "1111",
		"city": "Budapest",
		"country": "Magyarország",
		"categories": [
			"College Science Building"
		]
	},
	{
		"date": "2010-10-21T21:06:41.000Z",
		"name": "Schönherz Zoltán Kollégium",
		"id": "4b70505ff964a520f8112de3",
		"lat": 47.47289320855564,
		"lng": 19.053094108014353,
		"address": "Irinyi József u. 42.",
		"postalCode": "1117",
		"city": "Budapest",
		"country": "Magyarország",
		"categories": [
			"College Residence Hall",
			"College Engineering Building",
			"Student Center"
		]
	},
	{
		"date": "2010-10-22T06:10:43.000Z",
		"name": "BME I épület",
		"id": "4bcd89a5fb84c9b6311c223e",
		"lat": 47.472654177471675,
		"lng": 19.059821807961907,
		"address": "Magyar tudósok körútja 2.",
		"postalCode": "1117",
		"city": "Budapest",
		"country": "Magyarország",
		"categories": [
			"College Technology Building"
		]
	},
	{
		"date": "2010-10-22T09:10:10.000Z",
		"name": "Schönherz Zoltán Kollégium",
		"id": "4b70505ff964a520f8112de3",
		"lat": 47.47289320855564,
		"lng": 19.053094108014353,
		"address": "Irinyi József u. 42.",
		"postalCode": "1117",
		"city": "Budapest",
		"country": "Magyarország",
		"categories": [
			"College Residence Hall",
			"College Engineering Building",
			"Student Center"
		]
	},
	{
		"date": "2010-10-22T16:53:30.000Z",
		"name": "Villa Polgar",
		"id": "4caaebc0965c9c74f70dcbfa",
		"lat": 47.671899642379415,
		"lng": 16.611052697881373,
		"city": "Sopron",
		"country": "Magyarország",
		"categories": [
			"Home (private)"
		]
	},
	{
		"date": "2010-10-22T17:04:07.000Z",
		"name": "Pannonia Hotel **** - Sopron",
		"id": "4bcf492c0ffdce729859b2c0",
		"lat": 47.683699782495566,
		"lng": 16.5922281879955,
		"address": "Várkerület 75.",
		"postalCode": "9400",
		"city": "Sopron",
		"country": "Magyarország",
		"categories": [
			"Hotel",
			"Spa"
		]
	},
	{
		"date": "2010-10-23T10:43:53.000Z",
		"name": "Villa Polgar",
		"id": "4caaebc0965c9c74f70dcbfa",
		"lat": 47.671899642379415,
		"lng": 16.611052697881373,
		"city": "Sopron",
		"country": "Magyarország",
		"categories": [
			"Home (private)"
		]
	},
	{
		"date": "2010-10-24T10:03:17.000Z",
		"name": "Schönherz Zoltán Kollégium",
		"id": "4b70505ff964a520f8112de3",
		"lat": 47.47289320855564,
		"lng": 19.053094108014353,
		"address": "Irinyi József u. 42.",
		"postalCode": "1117",
		"city": "Budapest",
		"country": "Magyarország",
		"categories": [
			"College Residence Hall",
			"College Engineering Building",
			"Student Center"
		]
	},
	{
		"date": "2010-10-25T08:12:51.000Z",
		"name": "BME K épület",
		"id": "4cb41c0adb32f04dd23adb4d",
		"lat": 47.4812486178674,
		"lng": 19.055142402648926,
		"address": "Műegyetem rkp. 3.",
		"postalCode": "1111",
		"city": "Budapest",
		"country": "Magyarország",
		"categories": [
			"University",
			"College Academic Building",
			"College Engineering Building"
		]
	},
	{
		"date": "2010-10-25T09:55:11.000Z",
		"name": "BME V2 épület",
		"id": "4ba8eb34f964a52016fa39e3",
		"lat": 47.47700088828759,
		"lng": 19.05879297637843,
		"address": "Goldmann György tér 3.",
		"postalCode": "1111",
		"city": "Budapest",
		"country": "Magyarország",
		"categories": [
			"College Academic Building"
		]
	},
	{
		"date": "2010-10-25T11:43:58.000Z",
		"name": "BME T épület",
		"id": "4ba8e9eff964a52097f939e3",
		"lat": 47.47838140943124,
		"lng": 19.05867709631912,
		"address": "Egry József utca 1.",
		"postalCode": "1111",
		"city": "Budapest",
		"country": "Magyarország",
		"categories": [
			"College Academic Building"
		]
	},
	{
		"date": "2010-10-25T14:11:23.000Z",
		"name": "BME I épület",
		"id": "4bcd89a5fb84c9b6311c223e",
		"lat": 47.472654177471675,
		"lng": 19.059821807961907,
		"address": "Magyar tudósok körútja 2.",
		"postalCode": "1117",
		"city": "Budapest",
		"country": "Magyarország",
		"categories": [
			"College Technology Building"
		]
	},
	{
		"date": "2010-10-25T15:59:51.000Z",
		"name": "Goldmann György tér",
		"id": "4cd2da5221d94688e0d2ec90",
		"lat": 47.47716427032586,
		"lng": 19.058825025626813,
		"address": "Goldmann György tér",
		"postalCode": "1111",
		"city": "Budapest",
		"country": "Magyarország",
		"categories": [
			"Plaza",
			"Park"
		]
	},
	{
		"date": "2010-10-26T08:03:01.000Z",
		"name": "BME Q épület",
		"id": "4c85f24fd4e23704bdf58688",
		"lat": 47.473393661934686,
		"lng": 19.059766255018825,
		"address": "Magyar tudósok körútja 2.",
		"postalCode": "1117",
		"city": "Budapest",
		"country": "Magyarország",
		"categories": [
			"College Academic Building"
		]
	},
	{
		"date": "2010-10-26T08:03:05.000Z",
		"name": "BME Q épület",
		"id": "4c85f24fd4e23704bdf58688",
		"lat": 47.473393661934686,
		"lng": 19.059766255018825,
		"address": "Magyar tudósok körútja 2.",
		"postalCode": "1117",
		"city": "Budapest",
		"country": "Magyarország",
		"categories": [
			"College Academic Building"
		]
	},
	{
		"date": "2010-10-26T08:12:50.000Z",
		"name": "BME E épület",
		"id": "4ba8e6fbf964a5208ef839e3",
		"lat": 47.477616135843945,
		"lng": 19.057630443325607,
		"address": "Egry József u. 1.",
		"postalCode": "1111",
		"city": "Budapest",
		"country": "Magyarország",
		"categories": [
			"College Academic Building"
		]
	},
	{
		"date": "2010-10-26T10:15:16.000Z",
		"name": "BME Q épület",
		"id": "4c85f24fd4e23704bdf58688",
		"lat": 47.473393661934686,
		"lng": 19.059766255018825,
		"address": "Magyar tudósok körútja 2.",
		"postalCode": "1117",
		"city": "Budapest",
		"country": "Magyarország",
		"categories": [
			"College Academic Building"
		]
	},
	{
		"date": "2010-10-26T13:02:16.000Z",
		"name": "Schönherz Zoltán Kollégium",
		"id": "4b70505ff964a520f8112de3",
		"lat": 47.47289320855564,
		"lng": 19.053094108014353,
		"address": "Irinyi József u. 42.",
		"postalCode": "1117",
		"city": "Budapest",
		"country": "Magyarország",
		"categories": [
			"College Residence Hall",
			"College Engineering Building",
			"Student Center"
		]
	},
	{
		"date": "2010-10-27T06:16:36.000Z",
		"name": "BME E épület",
		"id": "4ba8e6fbf964a5208ef839e3",
		"lat": 47.477616135843945,
		"lng": 19.057630443325607,
		"address": "Egry József u. 1.",
		"postalCode": "1111",
		"city": "Budapest",
		"country": "Magyarország",
		"categories": [
			"College Academic Building"
		]
	},
	{
		"date": "2010-10-27T10:12:19.000Z",
		"name": "BME K épület",
		"id": "4cb41c0adb32f04dd23adb4d",
		"lat": 47.4812486178674,
		"lng": 19.055142402648926,
		"address": "Műegyetem rkp. 3.",
		"postalCode": "1111",
		"city": "Budapest",
		"country": "Magyarország",
		"categories": [
			"University",
			"College Academic Building",
			"College Engineering Building"
		]
	},
	{
		"date": "2010-10-27T12:24:56.000Z",
		"name": "BME I épület",
		"id": "4bcd89a5fb84c9b6311c223e",
		"lat": 47.472654177471675,
		"lng": 19.059821807961907,
		"address": "Magyar tudósok körútja 2.",
		"postalCode": "1117",
		"city": "Budapest",
		"country": "Magyarország",
		"categories": [
			"College Technology Building"
		]
	},
	{
		"date": "2010-10-28T08:21:11.000Z",
		"name": "BME E épület",
		"id": "4ba8e6fbf964a5208ef839e3",
		"lat": 47.477616135843945,
		"lng": 19.057630443325607,
		"address": "Egry József u. 1.",
		"postalCode": "1111",
		"city": "Budapest",
		"country": "Magyarország",
		"categories": [
			"College Academic Building"
		]
	},
	{
		"date": "2010-10-28T10:17:32.000Z",
		"name": "BME I épület",
		"id": "4bcd89a5fb84c9b6311c223e",
		"lat": 47.472654177471675,
		"lng": 19.059821807961907,
		"address": "Magyar tudósok körútja 2.",
		"postalCode": "1117",
		"city": "Budapest",
		"country": "Magyarország",
		"categories": [
			"College Technology Building"
		]
	},
	{
		"date": "2010-10-28T13:59:51.000Z",
		"name": "BME R épület",
		"id": "4ba8e306f964a5202cf739e3",
		"lat": 47.47900888118355,
		"lng": 19.058887218991554,
		"address": "Műegyetem rakpart 7-9.",
		"postalCode": "1111",
		"city": "Budapest",
		"country": "Magyarország",
		"categories": [
			"College Academic Building",
			"College Administrative Building",
			"Student Center"
		]
	},
	{
		"date": "2010-10-28T16:35:48.000Z",
		"name": "Schönherz Zoltán Kollégium",
		"id": "4b70505ff964a520f8112de3",
		"lat": 47.47289320855564,
		"lng": 19.053094108014353,
		"address": "Irinyi József u. 42.",
		"postalCode": "1117",
		"city": "Budapest",
		"country": "Magyarország",
		"categories": [
			"College Residence Hall",
			"College Engineering Building",
			"Student Center"
		]
	},
	{
		"date": "2010-10-29T06:07:20.000Z",
		"name": "BME I épület",
		"id": "4bcd89a5fb84c9b6311c223e",
		"lat": 47.472654177471675,
		"lng": 19.059821807961907,
		"address": "Magyar tudósok körútja 2.",
		"postalCode": "1117",
		"city": "Budapest",
		"country": "Magyarország",
		"categories": [
			"College Technology Building"
		]
	},
	{
		"date": "2010-10-29T08:23:38.000Z",
		"name": "Schönherz Zoltán Kollégium",
		"id": "4b70505ff964a520f8112de3",
		"lat": 47.47289320855564,
		"lng": 19.053094108014353,
		"address": "Irinyi József u. 42.",
		"postalCode": "1117",
		"city": "Budapest",
		"country": "Magyarország",
		"categories": [
			"College Residence Hall",
			"College Engineering Building",
			"Student Center"
		]
	},
	{
		"date": "2010-10-30T18:33:19.000Z",
		"name": "Starbucks",
		"id": "4be6d3fc910020a1d2a5d414",
		"lat": 47.51194774839248,
		"lng": 19.05724984341424,
		"address": "WestEnd City Center",
		"postalCode": "1062",
		"city": "Budapest",
		"country": "Magyarország",
		"categories": [
			"Coffee Shop"
		]
	},
	{
		"date": "2010-10-31T09:53:58.000Z",
		"name": "Schönherz Zoltán Kollégium",
		"id": "4b70505ff964a520f8112de3",
		"lat": 47.47289320855564,
		"lng": 19.053094108014353,
		"address": "Irinyi József u. 42.",
		"postalCode": "1117",
		"city": "Budapest",
		"country": "Magyarország",
		"categories": [
			"College Residence Hall",
			"College Engineering Building",
			"Student Center"
		]
	},
	{
		"date": "2010-10-31T12:51:32.000Z",
		"name": "Allee Bevásárlóközpont",
		"id": "4ba35913f964a520883638e3",
		"lat": 47.47540787650971,
		"lng": 19.048983750822984,
		"address": "Október huszonharmadika u. 8-10.",
		"postalCode": "1117",
		"city": "Budapest",
		"country": "Magyarország",
		"categories": [
			"Shopping Mall"
		]
	},
	{
		"date": "2010-10-31T12:52:59.000Z",
		"name": "INTERSPAR",
		"id": "4bdabddf63c5c9b699c22468",
		"lat": 47.475299241950985,
		"lng": 19.049000550751416,
		"address": "Allee Bevásárlóközpont",
		"postalCode": "1117",
		"city": "Budapest",
		"country": "Magyarország",
		"categories": [
			"Supermarket"
		]
	},
	{
		"date": "2010-10-31T13:19:27.000Z",
		"name": "Schönherz Zoltán Kollégium",
		"id": "4b70505ff964a520f8112de3",
		"lat": 47.47289320855564,
		"lng": 19.053094108014353,
		"address": "Irinyi József u. 42.",
		"postalCode": "1117",
		"city": "Budapest",
		"country": "Magyarország",
		"categories": [
			"College Residence Hall",
			"College Engineering Building",
			"Student Center"
		]
	}
]