[
	{
		"date": "2010-09-24T13:15:53.000Z",
		"name": "Schönherz Zoltán Kollégium",
		"id": "4b70505ff964a520f8112de3",
		"lat": 47.47289320855564,
		"lng": 19.053094108014353,
		"address": "Irinyi József u. 42.",
		"postalCode": "1117",
		"city": "Budapest",
		"country": "Magyarország",
		"categories": [
			"College Residence Hall",
			"College Engineering Building",
			"Student Center"
		]
	},
	{
		"date": "2010-09-27T12:37:31.000Z",
		"name": "BME T épület",
		"id": "4ba8e9eff964a52097f939e3",
		"lat": 47.47838140943124,
		"lng": 19.05867709631912,
		"address": "Egry József utca 1.",
		"postalCode": "1111",
		"city": "Budapest",
		"country": "Magyarország",
		"categories": [
			"College Academic Building"
		]
	},
	{
		"date": "2010-09-27T14:07:09.000Z",
		"name": "BME I épület",
		"id": "4bcd89a5fb84c9b6311c223e",
		"lat": 47.472654177471675,
		"lng": 19.059821807961907,
		"address": "Magyar tudósok körútja 2.",
		"postalCode": "1117",
		"city": "Budapest",
		"country": "Magyarország",
		"categories": [
			"College Technology Building"
		]
	},
	{
		"date": "2010-09-27T16:23:31.000Z",
		"name": "Schönherz Zoltán Kollégium",
		"id": "4b70505ff964a520f8112de3",
		"lat": 47.47289320855564,
		"lng": 19.053094108014353,
		"address": "Irinyi József u. 42.",
		"postalCode": "1117",
		"city": "Budapest",
		"country": "Magyarország",
		"categories": [
			"College Residence Hall",
			"College Engineering Building",
			"Student Center"
		]
	},
	{
		"date": "2010-09-27T16:30:51.000Z",
		"name": "INTERSPAR",
		"id": "4bdabddf63c5c9b699c22468",
		"lat": 47.475299241950985,
		"lng": 19.049000550751416,
		"address": "Allee Bevásárlóközpont",
		"postalCode": "1117",
		"city": "Budapest",
		"country": "Magyarország",
		"categories": [
			"Supermarket"
		]
	},
	{
		"date": "2010-09-27T17:30:28.000Z",
		"name": "Schönherz Zoltán Kollégium",
		"id": "4b70505ff964a520f8112de3",
		"lat": 47.47289320855564,
		"lng": 19.053094108014353,
		"address": "Irinyi József u. 42.",
		"postalCode": "1117",
		"city": "Budapest",
		"country": "Magyarország",
		"categories": [
			"College Residence Hall",
			"College Engineering Building",
			"Student Center"
		]
	},
	{
		"date": "2010-09-29T06:55:54.000Z",
		"name": "BME E épület",
		"id": "4ba8e6fbf964a5208ef839e3",
		"lat": 47.477616135843945,
		"lng": 19.057630443325607,
		"address": "Egry József u. 1.",
		"postalCode": "1111",
		"city": "Budapest",
		"country": "Magyarország",
		"categories": [
			"College Academic Building"
		]
	},
	{
		"date": "2010-09-29T10:09:53.000Z",
		"name": "BME K épület",
		"id": "4cb41c0adb32f04dd23adb4d",
		"lat": 47.4812486178674,
		"lng": 19.055142402648926,
		"address": "Műegyetem rkp. 3.",
		"postalCode": "1111",
		"city": "Budapest",
		"country": "Magyarország",
		"categories": [
			"University",
			"College Academic Building",
			"College Engineering Building"
		]
	},
	{
		"date": "2010-09-29T12:12:30.000Z",
		"name": "BME I épület",
		"id": "4bcd89a5fb84c9b6311c223e",
		"lat": 47.472654177471675,
		"lng": 19.059821807961907,
		"address": "Magyar tudósok körútja 2.",
		"postalCode": "1117",
		"city": "Budapest",
		"country": "Magyarország",
		"categories": [
			"College Technology Building"
		]
	},
	{
		"date": "2010-09-29T14:11:15.000Z",
		"name": "BME R épület",
		"id": "4ba8e306f964a5202cf739e3",
		"lat": 47.47900888118355,
		"lng": 19.058887218991554,
		"address": "Műegyetem rakpart 7-9.",
		"postalCode": "1111",
		"city": "Budapest",
		"country": "Magyarország",
		"categories": [
			"College Academic Building",
			"College Administrative Building",
			"Student Center"
		]
	},
	{
		"date": "2010-09-29T20:21:26.000Z",
		"name": "Schönherz Zoltán Kollégium",
		"id": "4b70505ff964a520f8112de3",
		"lat": 47.47289320855564,
		"lng": 19.053094108014353,
		"address": "Irinyi József u. 42.",
		"postalCode": "1117",
		"city": "Budapest",
		"country": "Magyarország",
		"categories": [
			"College Residence Hall",
			"College Engineering Building",
			"Student Center"
		]
	},
	{
		"date": "2010-09-30T07:51:45.000Z",
		"name": "BME E épület",
		"id": "4ba8e6fbf964a5208ef839e3",
		"lat": 47.477616135843945,
		"lng": 19.057630443325607,
		"address": "Egry József u. 1.",
		"postalCode": "1111",
		"city": "Budapest",
		"country": "Magyarország",
		"categories": [
			"College Academic Building"
		]
	},
	{
		"date": "2010-09-30T10:34:20.000Z",
		"name": "BME I épület",
		"id": "4bcd89a5fb84c9b6311c223e",
		"lat": 47.472654177471675,
		"lng": 19.059821807961907,
		"address": "Magyar tudósok körútja 2.",
		"postalCode": "1117",
		"city": "Budapest",
		"country": "Magyarország",
		"categories": [
			"College Technology Building"
		]
	},
	{
		"date": "2010-09-30T12:19:17.000Z",
		"name": "Schönherz Zoltán Kollégium",
		"id": "4b70505ff964a520f8112de3",
		"lat": 47.47289320855564,
		"lng": 19.053094108014353,
		"address": "Irinyi József u. 42.",
		"postalCode": "1117",
		"city": "Budapest",
		"country": "Magyarország",
		"categories": [
			"College Residence Hall",
			"College Engineering Building",
			"Student Center"
		]
	},
	{
		"date": "2010-09-30T13:23:16.000Z",
		"name": "BME R épület",
		"id": "4ba8e306f964a5202cf739e3",
		"lat": 47.47900888118355,
		"lng": 19.058887218991554,
		"address": "Műegyetem rakpart 7-9.",
		"postalCode": "1111",
		"city": "Budapest",
		"country": "Magyarország",
		"categories": [
			"College Academic Building",
			"College Administrative Building",
			"Student Center"
		]
	},
	{
		"date": "2010-09-30T17:19:46.000Z",
		"name": "Schönherz Zoltán Kollégium",
		"id": "4b70505ff964a520f8112de3",
		"lat": 47.47289320855564,
		"lng": 19.053094108014353,
		"address": "Irinyi József u. 42.",
		"postalCode": "1117",
		"city": "Budapest",
		"country": "Magyarország",
		"categories": [
			"College Residence Hall",
			"College Engineering Building",
			"Student Center"
		]
	}
]