[
	{
		"date": "2013-02-01T12:37:19.000Z",
		"name": "Bem tér",
		"id": "4ca58b7da6e08cfa1b387294",
		"lat": 47.51205584131837,
		"lng": 19.03879165649414,
		"address": "Bem tér",
		"city": "Budapest",
		"country": "Magyarország",
		"categories": [
			"Park"
		]
	},
	{
		"date": "2013-02-01T16:16:23.000Z",
		"name": "IKEA",
		"id": "4b927ec0f964a5202ffe33e3",
		"lat": 47.4536952631931,
		"lng": 18.940242823431984,
		"address": "Sport u. 2-4.",
		"postalCode": "2040",
		"city": "Budaörs",
		"country": "Magyarország",
		"categories": [
			"Furniture / Home Store"
		]
	},
	{
		"date": "2013-02-01T19:02:20.000Z",
		"name": "Villa Polgar",
		"id": "4caaebc0965c9c74f70dcbfa",
		"lat": 47.671899642379415,
		"lng": 16.611052697881373,
		"city": "Sopron",
		"country": "Magyarország",
		"categories": [
			"Home (private)"
		]
	},
	{
		"date": "2013-02-03T11:13:54.000Z",
		"name": "Grandma's Place",
		"id": "4f5c86b7e4b086681c0fa476",
		"lat": 47.685079492343135,
		"lng": 16.59042726764715,
		"country": "Magyarország",
		"categories": [
			"Home (private)"
		]
	},
	{
		"date": "2013-02-03T17:47:16.000Z",
		"name": "Villa Polgar",
		"id": "4caaebc0965c9c74f70dcbfa",
		"lat": 47.671899642379415,
		"lng": 16.611052697881373,
		"city": "Sopron",
		"country": "Magyarország",
		"categories": [
			"Home (private)"
		]
	},
	{
		"date": "2013-02-04T08:58:44.000Z",
		"name": "Vattacukor Rezidencia",
		"id": "50434c04e4b03ccc1763379d",
		"lat": 47.48882521834965,
		"lng": 19.08135897878659,
		"city": "Budapest",
		"country": "Magyarország",
		"categories": [
			"Home (private)"
		]
	},
	{
		"date": "2013-02-04T19:20:24.000Z",
		"name": "Losonci tér",
		"id": "4d9d5189a695721e11340f0d",
		"lat": 47.48958911031985,
		"lng": 19.08032029942558,
		"address": "Losonci tér",
		"postalCode": "1083",
		"city": "Budapest",
		"country": "Magyarország",
		"categories": [
			"Plaza",
			"Park"
		]
	},
	{
		"date": "2013-02-04T19:21:19.000Z",
		"name": "SPAR",
		"id": "4be83036c5220f476867a9ca",
		"lat": 47.486964687669555,
		"lng": 19.080367093254154,
		"address": "Szigony utca 12.",
		"postalCode": "1083",
		"city": "Budapest VIII.",
		"country": "Magyarország",
		"categories": [
			"Supermarket",
			"Grocery Store"
		]
	},
	{
		"date": "2013-02-05T08:30:36.000Z",
		"name": "Vattacukor Rezidencia",
		"id": "50434c04e4b03ccc1763379d",
		"lat": 47.48882521834965,
		"lng": 19.08135897878659,
		"city": "Budapest",
		"country": "Magyarország",
		"categories": [
			"Home (private)"
		]
	},
	{
		"date": "2013-02-05T10:51:28.000Z",
		"name": "Wesselényi utca (4, 6)",
		"id": "4c96548b6b35a14324e12cdc",
		"lat": 47.50039106917211,
		"lng": 19.06885988353938,
		"address": "Wesselényi u.",
		"postalCode": "1073",
		"city": "Budapest",
		"country": "Magyarország",
		"categories": [
			"Tram Station"
		]
	},
	{
		"date": "2013-02-05T15:17:57.000Z",
		"name": "Vattacukor Rezidencia",
		"id": "50434c04e4b03ccc1763379d",
		"lat": 47.48882521834965,
		"lng": 19.08135897878659,
		"city": "Budapest",
		"country": "Magyarország",
		"categories": [
			"Home (private)"
		]
	},
	{
		"date": "2013-02-05T22:28:54.000Z",
		"name": "Harminckettesek tere (4, 6)",
		"id": "4c41fa8ce26920a1614f5fe7",
		"lat": 47.491346061078474,
		"lng": 19.07721140890305,
		"address": "József krt.",
		"postalCode": "1085",
		"city": "Budapest",
		"country": "Magyarország",
		"categories": [
			"Tram Station"
		]
	},
	{
		"date": "2013-02-05T22:29:24.000Z",
		"name": "Harminckettesek tere",
		"id": "4bf6a540bfeac92810af9436",
		"lat": 47.48950129908545,
		"lng": 19.071492778445887,
		"address": "Harminckettesek tere",
		"postalCode": "1083",
		"city": "Budapest",
		"country": "Magyarország",
		"categories": [
			"Plaza"
		]
	},
	{
		"date": "2013-02-06T09:56:22.000Z",
		"name": "Vattacukor Rezidencia",
		"id": "50434c04e4b03ccc1763379d",
		"lat": 47.48882521834965,
		"lng": 19.08135897878659,
		"city": "Budapest",
		"country": "Magyarország",
		"categories": [
			"Home (private)"
		]
	},
	{
		"date": "2013-02-06T15:39:09.000Z",
		"name": "SPAR",
		"id": "4be83036c5220f476867a9ca",
		"lat": 47.486964687669555,
		"lng": 19.080367093254154,
		"address": "Szigony utca 12.",
		"postalCode": "1083",
		"city": "Budapest VIII.",
		"country": "Magyarország",
		"categories": [
			"Supermarket",
			"Grocery Store"
		]
	},
	{
		"date": "2013-02-06T19:11:34.000Z",
		"name": "Vattacukor Rezidencia",
		"id": "50434c04e4b03ccc1763379d",
		"lat": 47.48882521834965,
		"lng": 19.08135897878659,
		"city": "Budapest",
		"country": "Magyarország",
		"categories": [
			"Home (private)"
		]
	},
	{
		"date": "2013-02-07T21:04:48.000Z",
		"name": "Vattacukor Rezidencia",
		"id": "50434c04e4b03ccc1763379d",
		"lat": 47.48882521834965,
		"lng": 19.08135897878659,
		"city": "Budapest",
		"country": "Magyarország",
		"categories": [
			"Home (private)"
		]
	},
	{
		"date": "2013-02-08T18:40:03.000Z",
		"name": "SPAR",
		"id": "4be83036c5220f476867a9ca",
		"lat": 47.486964687669555,
		"lng": 19.080367093254154,
		"address": "Szigony utca 12.",
		"postalCode": "1083",
		"city": "Budapest VIII.",
		"country": "Magyarország",
		"categories": [
			"Supermarket",
			"Grocery Store"
		]
	},
	{
		"date": "2013-02-09T10:07:47.000Z",
		"name": "Losonci tér",
		"id": "4d9d5189a695721e11340f0d",
		"lat": 47.48958911031985,
		"lng": 19.08032029942558,
		"address": "Losonci tér",
		"postalCode": "1083",
		"city": "Budapest",
		"country": "Magyarország",
		"categories": [
			"Plaza",
			"Park"
		]
	},
	{
		"date": "2013-02-09T10:08:17.000Z",
		"name": "SPAR",
		"id": "4be83036c5220f476867a9ca",
		"lat": 47.486964687669555,
		"lng": 19.080367093254154,
		"address": "Szigony utca 12.",
		"postalCode": "1083",
		"city": "Budapest VIII.",
		"country": "Magyarország",
		"categories": [
			"Supermarket",
			"Grocery Store"
		]
	},
	{
		"date": "2013-02-09T15:26:17.000Z",
		"name": "Vattacukor Rezidencia",
		"id": "50434c04e4b03ccc1763379d",
		"lat": 47.48882521834965,
		"lng": 19.08135897878659,
		"city": "Budapest",
		"country": "Magyarország",
		"categories": [
			"Home (private)"
		]
	},
	{
		"date": "2013-02-11T08:48:59.000Z",
		"name": "BME E épület",
		"id": "4ba8e6fbf964a5208ef839e3",
		"lat": 47.477616135843945,
		"lng": 19.057630443325607,
		"address": "Egry József u. 1.",
		"postalCode": "1111",
		"city": "Budapest",
		"country": "Magyarország",
		"categories": [
			"College Academic Building"
		]
	},
	{
		"date": "2013-02-11T09:08:06.000Z",
		"name": "BME E1.B előadóterem",
		"id": "4e799da9aeb79f7dab8b437b",
		"lat": 47.477768,
		"lng": 19.057303,
		"address": "BME E épület",
		"postalCode": "1111",
		"city": "Budapest XI. kerület",
		"country": "Magyarország",
		"categories": [
			"College Auditorium"
		]
	},
	{
		"date": "2013-02-11T11:20:43.000Z",
		"name": "BME CHMAX",
		"id": "4fd5d705e4b0abd665ea4592",
		"lat": 47.48273006694391,
		"lng": 19.05433780804033,
		"address": "BME CH épület",
		"country": "Magyarország",
		"categories": [
			"College Auditorium"
		]
	},
	{
		"date": "2013-02-11T11:22:24.000Z",
		"name": "BME CH205",
		"id": "5118d466e4b0d42479eac0aa",
		"lat": 47.48368912309758,
		"lng": 19.053957462444423,
		"country": "Magyarország",
		"categories": [
			"College Classroom"
		]
	},
	{
		"date": "2013-02-11T13:20:57.000Z",
		"name": "BME Q épület",
		"id": "4c85f24fd4e23704bdf58688",
		"lat": 47.473393661934686,
		"lng": 19.059766255018825,
		"address": "Magyar tudósok körútja 2.",
		"postalCode": "1117",
		"city": "Budapest",
		"country": "Magyarország",
		"categories": [
			"College Academic Building"
		]
	},
	{
		"date": "2013-02-11T13:24:07.000Z",
		"name": "BME I épület",
		"id": "4bcd89a5fb84c9b6311c223e",
		"lat": 47.472654177471675,
		"lng": 19.059821807961907,
		"address": "Magyar tudósok körútja 2.",
		"postalCode": "1117",
		"city": "Budapest",
		"country": "Magyarország",
		"categories": [
			"College Technology Building"
		]
	},
	{
		"date": "2013-02-11T13:26:03.000Z",
		"name": "IB028 - Kozma László nagyelőadó",
		"id": "4de4d643d164df857532987b",
		"lat": 47.472822016033966,
		"lng": 19.060108883515067,
		"country": "Magyarország",
		"categories": [
			"College Auditorium"
		]
	},
	{
		"date": "2013-02-11T15:01:09.000Z",
		"name": "Magyar tudósok körútja",
		"id": "4e86b5a04fc6432751d92f35",
		"lat": 47.4732285270181,
		"lng": 19.059047698974606,
		"address": "Magyar tudósok körútja",
		"postalCode": "1117",
		"city": "Budapest",
		"country": "Magyarország",
		"categories": [
			"Road"
		]
	},
	{
		"date": "2013-02-11T15:40:43.000Z",
		"name": "Vattacukor Rezidencia",
		"id": "50434c04e4b03ccc1763379d",
		"lat": 47.48882521834965,
		"lng": 19.08135897878659,
		"city": "Budapest",
		"country": "Magyarország",
		"categories": [
			"Home (private)"
		]
	},
	{
		"date": "2013-02-12T14:30:33.000Z",
		"name": "SPAR",
		"id": "4be83036c5220f476867a9ca",
		"lat": 47.486964687669555,
		"lng": 19.080367093254154,
		"address": "Szigony utca 12.",
		"postalCode": "1083",
		"city": "Budapest VIII.",
		"country": "Magyarország",
		"categories": [
			"Supermarket",
			"Grocery Store"
		]
	},
	{
		"date": "2013-02-13T09:17:14.000Z",
		"name": "BME I épület",
		"id": "4bcd89a5fb84c9b6311c223e",
		"lat": 47.472654177471675,
		"lng": 19.059821807961907,
		"address": "Magyar tudósok körútja 2.",
		"postalCode": "1117",
		"city": "Budapest",
		"country": "Magyarország",
		"categories": [
			"College Technology Building"
		]
	},
	{
		"date": "2013-02-13T09:18:07.000Z",
		"name": "BME IB025",
		"id": "4fd5a21fe4b034e1fafcecb4",
		"lat": 47.47263453447567,
		"lng": 19.059688263931424,
		"address": "BME I épület",
		"city": "Budapest",
		"country": "Magyarország",
		"categories": [
			"College Auditorium"
		]
	},
	{
		"date": "2013-02-13T12:50:24.000Z",
		"name": "IB028 - Kozma László nagyelőadó",
		"id": "4de4d643d164df857532987b",
		"lat": 47.472822016033966,
		"lng": 19.060108883515067,
		"country": "Magyarország",
		"categories": [
			"College Auditorium"
		]
	},
	{
		"date": "2013-02-13T15:05:00.000Z",
		"name": "Corvin Plaza",
		"id": "4cc701eabe40a35d1d6a8d4c",
		"lat": 47.486046352980296,
		"lng": 19.07288581182118,
		"address": "Futó u. 37-45.",
		"postalCode": "1083",
		"city": "Budapest",
		"country": "Magyarország",
		"categories": [
			"Shopping Mall"
		]
	},
	{
		"date": "2013-02-13T15:05:27.000Z",
		"name": "CBA Príma",
		"id": "4cd037a59d87224b14ce533b",
		"lat": 47.48601991975846,
		"lng": 19.073800320225235,
		"address": "Corvin Bevásárlóközpont",
		"postalCode": "1085",
		"city": "Budapest",
		"country": "Magyarország",
		"categories": [
			"Grocery Store"
		]
	},
	{
		"date": "2013-02-13T16:22:55.000Z",
		"name": "Vattacukor Rezidencia",
		"id": "50434c04e4b03ccc1763379d",
		"lat": 47.48882521834965,
		"lng": 19.08135897878659,
		"city": "Budapest",
		"country": "Magyarország",
		"categories": [
			"Home (private)"
		]
	},
	{
		"date": "2013-02-14T08:54:20.000Z",
		"name": "BME Q épület",
		"id": "4c85f24fd4e23704bdf58688",
		"lat": 47.473393661934686,
		"lng": 19.059766255018825,
		"address": "Magyar tudósok körútja 2.",
		"postalCode": "1117",
		"city": "Budapest",
		"country": "Magyarország",
		"categories": [
			"College Academic Building"
		]
	},
	{
		"date": "2013-02-14T08:56:45.000Z",
		"name": "QBP108",
		"id": "4f45fff4e4b007cd8cd1fd87",
		"lat": 47.47337354217068,
		"lng": 19.05939130676707,
		"country": "Magyarország",
		"categories": [
			"College Lab"
		]
	},
	{
		"date": "2013-02-14T10:56:46.000Z",
		"name": "QI - Simonyi Károly nagyelőadó",
		"id": "4e78d5bd15207e35d98f9cbb",
		"lat": 47.47343860625082,
		"lng": 19.059689850959558,
		"address": "BME Q épület",
		"postalCode": "1117",
		"city": "Budapest",
		"country": "Magyarország",
		"categories": [
			"College Auditorium"
		]
	},
	{
		"date": "2013-02-14T13:56:29.000Z",
		"name": "BME I épület",
		"id": "4bcd89a5fb84c9b6311c223e",
		"lat": 47.472654177471675,
		"lng": 19.059821807961907,
		"address": "Magyar tudósok körútja 2.",
		"postalCode": "1117",
		"city": "Budapest",
		"country": "Magyarország",
		"categories": [
			"College Technology Building"
		]
	},
	{
		"date": "2013-02-14T13:57:00.000Z",
		"name": "BME IB026",
		"id": "4f3b973be4b04e90d76db8d3",
		"lat": 47.47282447600605,
		"lng": 19.059547324692293,
		"address": "BME I épület",
		"city": "Budapest XI. kerület",
		"country": "Magyarország",
		"categories": [
			"College Auditorium"
		]
	},
	{
		"date": "2013-02-14T16:53:30.000Z",
		"name": "BME Q épület",
		"id": "4c85f24fd4e23704bdf58688",
		"lat": 47.473393661934686,
		"lng": 19.059766255018825,
		"address": "Magyar tudósok körútja 2.",
		"postalCode": "1117",
		"city": "Budapest",
		"country": "Magyarország",
		"categories": [
			"College Academic Building"
		]
	},
	{
		"date": "2013-02-14T16:54:34.000Z",
		"name": "QBF14",
		"id": "50769a92e4b0c37028cdd12f",
		"lat": 47.473650194750256,
		"lng": 19.06043627890616,
		"country": "Magyarország",
		"categories": [
			"College Classroom"
		]
	},
	{
		"date": "2013-02-14T17:25:24.000Z",
		"name": "Corvin Plaza",
		"id": "4cc701eabe40a35d1d6a8d4c",
		"lat": 47.486046352980296,
		"lng": 19.07288581182118,
		"address": "Futó u. 37-45.",
		"postalCode": "1083",
		"city": "Budapest",
		"country": "Magyarország",
		"categories": [
			"Shopping Mall"
		]
	},
	{
		"date": "2013-02-14T17:25:34.000Z",
		"name": "CBA Príma",
		"id": "4cd037a59d87224b14ce533b",
		"lat": 47.48601991975846,
		"lng": 19.073800320225235,
		"address": "Corvin Bevásárlóközpont",
		"postalCode": "1085",
		"city": "Budapest",
		"country": "Magyarország",
		"categories": [
			"Grocery Store"
		]
	},
	{
		"date": "2013-02-14T18:02:00.000Z",
		"name": "Vattacukor Rezidencia",
		"id": "50434c04e4b03ccc1763379d",
		"lat": 47.48882521834965,
		"lng": 19.08135897878659,
		"city": "Budapest",
		"country": "Magyarország",
		"categories": [
			"Home (private)"
		]
	},
	{
		"date": "2013-02-14T23:44:05.000Z",
		"name": "Harminckettesek tere (4, 6)",
		"id": "4c41fa8ce26920a1614f5fe7",
		"lat": 47.491346061078474,
		"lng": 19.07721140890305,
		"address": "József krt.",
		"postalCode": "1085",
		"city": "Budapest",
		"country": "Magyarország",
		"categories": [
			"Tram Station"
		]
	},
	{
		"date": "2013-02-15T00:01:27.000Z",
		"name": "Vattacukor Rezidencia",
		"id": "50434c04e4b03ccc1763379d",
		"lat": 47.48882521834965,
		"lng": 19.08135897878659,
		"city": "Budapest",
		"country": "Magyarország",
		"categories": [
			"Home (private)"
		]
	},
	{
		"date": "2013-02-15T08:48:00.000Z",
		"name": "BME R épület",
		"id": "4ba8e306f964a5202cf739e3",
		"lat": 47.47900888118355,
		"lng": 19.058887218991554,
		"address": "Műegyetem rakpart 7-9.",
		"postalCode": "1111",
		"city": "Budapest",
		"country": "Magyarország",
		"categories": [
			"College Academic Building",
			"College Administrative Building",
			"Student Center"
		]
	},
	{
		"date": "2013-02-15T11:02:23.000Z",
		"name": "Harminckettesek tere (4, 6)",
		"id": "4c41fa8ce26920a1614f5fe7",
		"lat": 47.491346061078474,
		"lng": 19.07721140890305,
		"address": "József krt.",
		"postalCode": "1085",
		"city": "Budapest",
		"country": "Magyarország",
		"categories": [
			"Tram Station"
		]
	},
	{
		"date": "2013-02-15T11:02:58.000Z",
		"name": "Harminckettesek tere",
		"id": "4bf6a540bfeac92810af9436",
		"lat": 47.48950129908545,
		"lng": 19.071492778445887,
		"address": "Harminckettesek tere",
		"postalCode": "1083",
		"city": "Budapest",
		"country": "Magyarország",
		"categories": [
			"Plaza"
		]
	},
	{
		"date": "2013-02-15T12:47:49.000Z",
		"name": "Vattacukor Rezidencia",
		"id": "50434c04e4b03ccc1763379d",
		"lat": 47.48882521834965,
		"lng": 19.08135897878659,
		"city": "Budapest",
		"country": "Magyarország",
		"categories": [
			"Home (private)"
		]
	},
	{
		"date": "2013-02-15T18:06:29.000Z",
		"name": "Gastland Bisztró Oktogon",
		"id": "4ff192ebe4b0b5102ef9dba5",
		"lat": 47.50634225087913,
		"lng": 19.062211236476262,
		"address": "Teréz krt. 23.",
		"postalCode": "1067",
		"city": "Budapest",
		"country": "Magyarország",
		"categories": [
			"BBQ Joint",
			"Deli / Bodega",
			"Breakfast Spot"
		]
	},
	{
		"date": "2013-02-15T22:54:17.000Z",
		"name": "Vattacukor Rezidencia",
		"id": "50434c04e4b03ccc1763379d",
		"lat": 47.48882521834965,
		"lng": 19.08135897878659,
		"city": "Budapest",
		"country": "Magyarország",
		"categories": [
			"Home (private)"
		]
	},
	{
		"date": "2013-02-16T11:40:55.000Z",
		"name": "Gyémánt Strand-és Élményfürdő",
		"id": "4d73596fd145a1cdd007c2f3",
		"lat": 47.55389206739634,
		"lng": 18.418955492951202,
		"address": "Cseri u. 33.",
		"postalCode": "2800",
		"city": "Tatabánya",
		"country": "Magyarország",
		"categories": [
			"Water Park",
			"Pool"
		]
	},
	{
		"date": "2013-02-16T18:41:38.000Z",
		"name": "Ciano Kúria",
		"id": "502e1ee2e4b00d67edf0008f",
		"lat": 47.54498888001689,
		"lng": 18.264753297830538,
		"country": "Magyarország",
		"categories": [
			"Home (private)"
		]
	},
	{
		"date": "2013-02-17T09:50:52.000Z",
		"name": "Vértes Center",
		"id": "4cf26461e9425481f2f46fc5",
		"lat": 47.58627385111341,
		"lng": 18.393827125687846,
		"address": "Győri út 7-9.",
		"postalCode": "2800",
		"city": "Tatabánya",
		"country": "Magyarország",
		"categories": [
			"Shopping Mall"
		]
	},
	{
		"date": "2013-02-17T10:27:14.000Z",
		"name": "Ciano Kúria",
		"id": "502e1ee2e4b00d67edf0008f",
		"lat": 47.54498888001689,
		"lng": 18.264753297830538,
		"country": "Magyarország",
		"categories": [
			"Home (private)"
		]
	},
	{
		"date": "2013-02-17T20:03:18.000Z",
		"name": "Vattacukor Rezidencia",
		"id": "50434c04e4b03ccc1763379d",
		"lat": 47.48882521834965,
		"lng": 19.08135897878659,
		"city": "Budapest",
		"country": "Magyarország",
		"categories": [
			"Home (private)"
		]
	},
	{
		"date": "2013-02-19T08:51:40.000Z",
		"name": "Webtown-Informatika Kft.",
		"id": "4de493697d8b2547eb3621e9",
		"lat": 47.48420113028805,
		"lng": 19.024801110978895,
		"address": "Muskotály utca 11.",
		"postalCode": "1118",
		"city": "Budapest",
		"country": "Magyarország",
		"categories": [
			"Coworking Space"
		]
	},
	{
		"date": "2013-02-19T12:07:53.000Z",
		"name": "Vattacukor Rezidencia",
		"id": "50434c04e4b03ccc1763379d",
		"lat": 47.48882521834965,
		"lng": 19.08135897878659,
		"city": "Budapest",
		"country": "Magyarország",
		"categories": [
			"Home (private)"
		]
	},
	{
		"date": "2013-02-19T19:14:39.000Z",
		"name": "SPAR",
		"id": "4be83036c5220f476867a9ca",
		"lat": 47.486964687669555,
		"lng": 19.080367093254154,
		"address": "Szigony utca 12.",
		"postalCode": "1083",
		"city": "Budapest VIII.",
		"country": "Magyarország",
		"categories": [
			"Supermarket",
			"Grocery Store"
		]
	},
	{
		"date": "2013-02-20T11:22:36.000Z",
		"name": "BME E épület",
		"id": "4ba8e6fbf964a5208ef839e3",
		"lat": 47.477616135843945,
		"lng": 19.057630443325607,
		"address": "Egry József u. 1.",
		"postalCode": "1111",
		"city": "Budapest",
		"country": "Magyarország",
		"categories": [
			"College Academic Building"
		]
	},
	{
		"date": "2013-02-20T11:24:09.000Z",
		"name": "BME E épület",
		"id": "4ba8e6fbf964a5208ef839e3",
		"lat": 47.477616135843945,
		"lng": 19.057630443325607,
		"address": "Egry József u. 1.",
		"postalCode": "1111",
		"city": "Budapest",
		"country": "Magyarország",
		"categories": [
			"College Academic Building"
		]
	},
	{
		"date": "2013-02-20T13:30:19.000Z",
		"name": "BME I épület",
		"id": "4bcd89a5fb84c9b6311c223e",
		"lat": 47.472654177471675,
		"lng": 19.059821807961907,
		"address": "Magyar tudósok körútja 2.",
		"postalCode": "1117",
		"city": "Budapest",
		"country": "Magyarország",
		"categories": [
			"College Technology Building"
		]
	},
	{
		"date": "2013-02-20T13:31:51.000Z",
		"name": "IB028 - Kozma László nagyelőadó",
		"id": "4de4d643d164df857532987b",
		"lat": 47.472822016033966,
		"lng": 19.060108883515067,
		"country": "Magyarország",
		"categories": [
			"College Auditorium"
		]
	},
	{
		"date": "2013-02-20T14:53:37.000Z",
		"name": "BME Q épület",
		"id": "4c85f24fd4e23704bdf58688",
		"lat": 47.473393661934686,
		"lng": 19.059766255018825,
		"address": "Magyar tudósok körútja 2.",
		"postalCode": "1117",
		"city": "Budapest",
		"country": "Magyarország",
		"categories": [
			"College Academic Building"
		]
	},
	{
		"date": "2013-02-20T15:05:25.000Z",
		"name": "BME QBF10 terem",
		"id": "4f4f7347e4b083dcf292ccce",
		"lat": 47.47330981364062,
		"lng": 19.059228667527282,
		"address": "BME Q épület",
		"postalCode": "1117",
		"city": "Budapest XI. kerület",
		"country": "Magyarország",
		"categories": [
			"College Classroom"
		]
	},
	{
		"date": "2013-02-20T17:10:49.000Z",
		"name": "CBA Príma",
		"id": "4cd037a59d87224b14ce533b",
		"lat": 47.48601991975846,
		"lng": 19.073800320225235,
		"address": "Corvin Bevásárlóközpont",
		"postalCode": "1085",
		"city": "Budapest",
		"country": "Magyarország",
		"categories": [
			"Grocery Store"
		]
	},
	{
		"date": "2013-02-20T17:24:34.000Z",
		"name": "Corvin Plaza",
		"id": "4cc701eabe40a35d1d6a8d4c",
		"lat": 47.486046352980296,
		"lng": 19.07288581182118,
		"address": "Futó u. 37-45.",
		"postalCode": "1083",
		"city": "Budapest",
		"country": "Magyarország",
		"categories": [
			"Shopping Mall"
		]
	},
	{
		"date": "2013-02-20T17:50:44.000Z",
		"name": "Vattacukor Rezidencia",
		"id": "50434c04e4b03ccc1763379d",
		"lat": 47.48882521834965,
		"lng": 19.08135897878659,
		"city": "Budapest",
		"country": "Magyarország",
		"categories": [
			"Home (private)"
		]
	},
	{
		"date": "2013-02-21T21:22:56.000Z",
		"name": "BlackSheep Hostel & Bar",
		"id": "4e423cfa18a8627fce43b6f5",
		"lat": 47.49760507676708,
		"lng": 19.069012116620886,
		"address": "Akácfa utca 7.",
		"postalCode": "1072",
		"city": "Budapest",
		"country": "Magyarország",
		"categories": [
			"Hostel",
			"Bar",
			"Lounge"
		]
	},
	{
		"date": "2013-02-22T01:48:29.000Z",
		"name": "Vattacukor Rezidencia",
		"id": "50434c04e4b03ccc1763379d",
		"lat": 47.48882521834965,
		"lng": 19.08135897878659,
		"city": "Budapest",
		"country": "Magyarország",
		"categories": [
			"Home (private)"
		]
	},
	{
		"date": "2013-02-23T13:40:21.000Z",
		"name": "Vattacukor Rezidencia",
		"id": "50434c04e4b03ccc1763379d",
		"lat": 47.48882521834965,
		"lng": 19.08135897878659,
		"city": "Budapest",
		"country": "Magyarország",
		"categories": [
			"Home (private)"
		]
	},
	{
		"date": "2013-02-23T13:40:51.000Z",
		"name": "SPAR",
		"id": "4be83036c5220f476867a9ca",
		"lat": 47.486964687669555,
		"lng": 19.080367093254154,
		"address": "Szigony utca 12.",
		"postalCode": "1083",
		"city": "Budapest VIII.",
		"country": "Magyarország",
		"categories": [
			"Supermarket",
			"Grocery Store"
		]
	},
	{
		"date": "2013-02-23T19:40:44.000Z",
		"name": "Corvin Plaza",
		"id": "4cc701eabe40a35d1d6a8d4c",
		"lat": 47.486046352980296,
		"lng": 19.07288581182118,
		"address": "Futó u. 37-45.",
		"postalCode": "1083",
		"city": "Budapest",
		"country": "Magyarország",
		"categories": [
			"Shopping Mall"
		]
	},
	{
		"date": "2013-02-23T19:44:06.000Z",
		"name": "Corvin sétány",
		"id": "4bd025fab221c9b62f24d3d0",
		"lat": 47.48591798026536,
		"lng": 19.07603144645691,
		"address": "Futó u. 34-36",
		"postalCode": "1082",
		"city": "Budapest",
		"country": "Magyarország",
		"categories": [
			"Pedestrian Plaza"
		]
	},
	{
		"date": "2013-02-24T10:16:04.000Z",
		"name": "Vattacukor Rezidencia",
		"id": "50434c04e4b03ccc1763379d",
		"lat": 47.48882521834965,
		"lng": 19.08135897878659,
		"city": "Budapest",
		"country": "Magyarország",
		"categories": [
			"Home (private)"
		]
	},
	{
		"date": "2013-02-25T16:21:46.000Z",
		"name": "Corvin Plaza",
		"id": "4cc701eabe40a35d1d6a8d4c",
		"lat": 47.486046352980296,
		"lng": 19.07288581182118,
		"address": "Futó u. 37-45.",
		"postalCode": "1083",
		"city": "Budapest",
		"country": "Magyarország",
		"categories": [
			"Shopping Mall"
		]
	},
	{
		"date": "2013-02-26T12:48:56.000Z",
		"name": "BME R épület",
		"id": "4ba8e306f964a5202cf739e3",
		"lat": 47.47900888118355,
		"lng": 19.058887218991554,
		"address": "Műegyetem rakpart 7-9.",
		"postalCode": "1111",
		"city": "Budapest",
		"country": "Magyarország",
		"categories": [
			"College Academic Building",
			"College Administrative Building",
			"Student Center"
		]
	},
	{
		"date": "2013-02-26T12:49:27.000Z",
		"name": "BME Központi Tanulmányi Hivatal",
		"id": "4f059727d3e321b78f7a6655",
		"lat": 47.4788083981257,
		"lng": 19.059548863408434,
		"address": "BME R épület, földszint",
		"postalCode": "1111",
		"city": "Budapest XI. kerület",
		"country": "Magyarország",
		"categories": [
			"College Administrative Building"
		]
	},
	{
		"date": "2013-02-26T14:31:14.000Z",
		"name": "RESIDENCE 1 Irodaház",
		"id": "4e6e0158fa768e6cee4d6eae",
		"lat": 47.50998991891814,
		"lng": 19.03644395337415,
		"address": "Kacsa u. 15-23.",
		"country": "Magyarország",
		"categories": [
			"Office"
		]
	},
	{
		"date": "2013-02-26T15:57:57.000Z",
		"name": "Vattacukor Rezidencia",
		"id": "50434c04e4b03ccc1763379d",
		"lat": 47.48882521834965,
		"lng": 19.08135897878659,
		"city": "Budapest",
		"country": "Magyarország",
		"categories": [
			"Home (private)"
		]
	},
	{
		"date": "2013-02-28T07:05:46.000Z",
		"name": "BME Q épület",
		"id": "4c85f24fd4e23704bdf58688",
		"lat": 47.473393661934686,
		"lng": 19.059766255018825,
		"address": "Magyar tudósok körútja 2.",
		"postalCode": "1117",
		"city": "Budapest",
		"country": "Magyarország",
		"categories": [
			"College Academic Building"
		]
	},
	{
		"date": "2013-02-28T07:16:00.000Z",
		"name": "QBP108",
		"id": "4f45fff4e4b007cd8cd1fd87",
		"lat": 47.47337354217068,
		"lng": 19.05939130676707,
		"country": "Magyarország",
		"categories": [
			"College Lab"
		]
	},
	{
		"date": "2013-02-28T14:22:39.000Z",
		"name": "Vattacukor Rezidencia",
		"id": "50434c04e4b03ccc1763379d",
		"lat": 47.48882521834965,
		"lng": 19.08135897878659,
		"city": "Budapest",
		"country": "Magyarország",
		"categories": [
			"Home (private)"
		]
	}
]