[
	{
		"date": "2013-01-01T15:05:25.000Z",
		"name": "Vattacukor Rezidencia",
		"id": "50434c04e4b03ccc1763379d",
		"lat": 47.48882521834965,
		"lng": 19.08135897878659,
		"city": "Budapest",
		"country": "Magyarország",
		"categories": [
			"Home (private)"
		]
	},
	{
		"date": "2013-01-02T16:57:52.000Z",
		"name": "Vattacukor Rezidencia",
		"id": "50434c04e4b03ccc1763379d",
		"lat": 47.48882521834965,
		"lng": 19.08135897878659,
		"city": "Budapest",
		"country": "Magyarország",
		"categories": [
			"Home (private)"
		]
	},
	{
		"date": "2013-01-05T11:53:28.000Z",
		"name": "SPAR",
		"id": "4be83036c5220f476867a9ca",
		"lat": 47.486964687669555,
		"lng": 19.080367093254154,
		"address": "Szigony utca 12.",
		"postalCode": "1083",
		"city": "Budapest VIII.",
		"country": "Magyarország",
		"categories": [
			"Supermarket",
			"Grocery Store"
		]
	},
	{
		"date": "2013-01-05T11:53:28.000Z",
		"name": "SPAR",
		"id": "4be83036c5220f476867a9ca",
		"lat": 47.486964687669555,
		"lng": 19.080367093254154,
		"address": "Szigony utca 12.",
		"postalCode": "1083",
		"city": "Budapest VIII.",
		"country": "Magyarország",
		"categories": [
			"Supermarket",
			"Grocery Store"
		]
	},
	{
		"date": "2013-01-06T14:57:56.000Z",
		"name": "Pepsi ABC",
		"id": "4ca57bf6a6e08cfa90c87194",
		"lat": 47.48790215068848,
		"lng": 19.081916674868864,
		"country": "Magyarország",
		"categories": [
			"Deli / Bodega"
		]
	},
	{
		"date": "2013-01-07T12:51:13.000Z",
		"name": "Vattacukor Rezidencia",
		"id": "50434c04e4b03ccc1763379d",
		"lat": 47.48882521834965,
		"lng": 19.08135897878659,
		"city": "Budapest",
		"country": "Magyarország",
		"categories": [
			"Home (private)"
		]
	},
	{
		"date": "2013-01-07T15:46:01.000Z",
		"name": "SPAR",
		"id": "4be83036c5220f476867a9ca",
		"lat": 47.486964687669555,
		"lng": 19.080367093254154,
		"address": "Szigony utca 12.",
		"postalCode": "1083",
		"city": "Budapest VIII.",
		"country": "Magyarország",
		"categories": [
			"Supermarket",
			"Grocery Store"
		]
	},
	{
		"date": "2013-01-07T15:46:01.000Z",
		"name": "SPAR",
		"id": "4be83036c5220f476867a9ca",
		"lat": 47.486964687669555,
		"lng": 19.080367093254154,
		"address": "Szigony utca 12.",
		"postalCode": "1083",
		"city": "Budapest VIII.",
		"country": "Magyarország",
		"categories": [
			"Supermarket",
			"Grocery Store"
		]
	},
	{
		"date": "2013-01-07T18:49:58.000Z",
		"name": "Vattacukor Rezidencia",
		"id": "50434c04e4b03ccc1763379d",
		"lat": 47.48882521834965,
		"lng": 19.08135897878659,
		"city": "Budapest",
		"country": "Magyarország",
		"categories": [
			"Home (private)"
		]
	},
	{
		"date": "2013-01-10T11:12:45.000Z",
		"name": "BME R épület",
		"id": "4ba8e306f964a5202cf739e3",
		"lat": 47.47900888118355,
		"lng": 19.058887218991554,
		"address": "Műegyetem rakpart 7-9.",
		"postalCode": "1111",
		"city": "Budapest",
		"country": "Magyarország",
		"categories": [
			"College Academic Building",
			"College Administrative Building",
			"Student Center"
		]
	},
	{
		"date": "2013-01-10T11:13:11.000Z",
		"name": "BME Központi Tanulmányi Hivatal",
		"id": "4f059727d3e321b78f7a6655",
		"lat": 47.4788083981257,
		"lng": 19.059548863408434,
		"address": "BME R épület, földszint",
		"postalCode": "1111",
		"city": "Budapest XI. kerület",
		"country": "Magyarország",
		"categories": [
			"College Administrative Building"
		]
	},
	{
		"date": "2013-01-10T11:35:38.000Z",
		"name": "BME Hallgatói Számítógép Központ",
		"id": "4ea694f07ee5bebc94b27a20",
		"lat": 47.4787908396799,
		"lng": 19.05989973266769,
		"address": "BME R épület III.-IV. emelet",
		"postalCode": "1111",
		"city": "Budapest XI. kerület",
		"country": "Magyarország",
		"categories": [
			"Student Center"
		]
	},
	{
		"date": "2013-01-10T11:45:04.000Z",
		"name": "Goldmann Menza",
		"id": "4cb440fd1168a093dd0a4723",
		"lat": 47.47731123979614,
		"lng": 19.058393239974976,
		"address": "Goldmann György tér 1.",
		"postalCode": "1111",
		"city": "Budapest",
		"country": "Magyarország",
		"categories": [
			"College Cafeteria",
			"Diner"
		]
	},
	{
		"date": "2013-01-10T15:40:56.000Z",
		"name": "Vattacukor Rezidencia",
		"id": "50434c04e4b03ccc1763379d",
		"lat": 47.48882521834965,
		"lng": 19.08135897878659,
		"city": "Budapest",
		"country": "Magyarország",
		"categories": [
			"Home (private)"
		]
	},
	{
		"date": "2013-01-10T19:16:19.000Z",
		"name": "SPAR",
		"id": "4be83036c5220f476867a9ca",
		"lat": 47.486964687669555,
		"lng": 19.080367093254154,
		"address": "Szigony utca 12.",
		"postalCode": "1083",
		"city": "Budapest VIII.",
		"country": "Magyarország",
		"categories": [
			"Supermarket",
			"Grocery Store"
		]
	},
	{
		"date": "2013-01-10T19:17:14.000Z",
		"name": "Vattacukor Rezidencia",
		"id": "50434c04e4b03ccc1763379d",
		"lat": 47.48882521834965,
		"lng": 19.08135897878659,
		"city": "Budapest",
		"country": "Magyarország",
		"categories": [
			"Home (private)"
		]
	},
	{
		"date": "2013-01-11T10:25:30.000Z",
		"name": "Bem tér",
		"id": "4ca58b7da6e08cfa1b387294",
		"lat": 47.51205584131837,
		"lng": 19.03879165649414,
		"address": "Bem tér",
		"city": "Budapest",
		"country": "Magyarország",
		"categories": [
			"Park"
		]
	},
	{
		"date": "2013-01-11T10:27:47.000Z",
		"name": "RESIDENCE 1 Irodaház",
		"id": "4e6e0158fa768e6cee4d6eae",
		"lat": 47.50998991891814,
		"lng": 19.03644395337415,
		"address": "Kacsa u. 15-23.",
		"country": "Magyarország",
		"categories": [
			"Office"
		]
	},
	{
		"date": "2013-01-11T13:52:35.000Z",
		"name": "Vattacukor Rezidencia",
		"id": "50434c04e4b03ccc1763379d",
		"lat": 47.48882521834965,
		"lng": 19.08135897878659,
		"city": "Budapest",
		"country": "Magyarország",
		"categories": [
			"Home (private)"
		]
	},
	{
		"date": "2013-01-11T21:51:53.000Z",
		"name": "Szimpla Kert",
		"id": "4b630e1af964a52020602ae3",
		"lat": 47.49689071315625,
		"lng": 19.062936992141815,
		"address": "Kazinczy u. 14.",
		"postalCode": "1075",
		"city": "Budapest",
		"country": "Magyarország",
		"categories": [
			"Pub"
		]
	},
	{
		"date": "2013-01-11T21:52:33.000Z",
		"name": "Szóda Kávézó és Mulató",
		"id": "4cadffc32303a143223cebf0",
		"lat": 47.49720149147911,
		"lng": 19.062019900721054,
		"address": "Wesselényi u. 18.",
		"postalCode": "1075",
		"city": "Budapest",
		"country": "Magyarország",
		"categories": [
			"Bar",
			"Music Venue",
			"Nightclub"
		]
	},
	{
		"date": "2013-01-12T01:51:10.000Z",
		"name": "Harminckettesek tere (4, 6)",
		"id": "4c41fa8ce26920a1614f5fe7",
		"lat": 47.491346061078474,
		"lng": 19.07721140890305,
		"address": "József krt.",
		"postalCode": "1085",
		"city": "Budapest",
		"country": "Magyarország",
		"categories": [
			"Tram Station"
		]
	},
	{
		"date": "2013-01-12T11:05:44.000Z",
		"name": "Vattacukor Rezidencia",
		"id": "50434c04e4b03ccc1763379d",
		"lat": 47.48882521834965,
		"lng": 19.08135897878659,
		"city": "Budapest",
		"country": "Magyarország",
		"categories": [
			"Home (private)"
		]
	},
	{
		"date": "2013-01-12T12:09:34.000Z",
		"name": "SPAR",
		"id": "4be83036c5220f476867a9ca",
		"lat": 47.486964687669555,
		"lng": 19.080367093254154,
		"address": "Szigony utca 12.",
		"postalCode": "1083",
		"city": "Budapest VIII.",
		"country": "Magyarország",
		"categories": [
			"Supermarket",
			"Grocery Store"
		]
	},
	{
		"date": "2013-01-12T13:12:28.000Z",
		"name": "Oktogon M (4, 6)",
		"id": "4d54e68e143ca093235fa9fc",
		"lat": 47.5058173109262,
		"lng": 19.062614255153175,
		"address": "Oktogon",
		"postalCode": "1066",
		"city": "Budapest",
		"country": "Magyarország",
		"categories": [
			"Tram Station"
		]
	},
	{
		"date": "2013-01-12T13:24:37.000Z",
		"name": "Harminckettesek tere (4, 6)",
		"id": "4c41fa8ce26920a1614f5fe7",
		"lat": 47.491346061078474,
		"lng": 19.07721140890305,
		"address": "József krt.",
		"postalCode": "1085",
		"city": "Budapest",
		"country": "Magyarország",
		"categories": [
			"Tram Station"
		]
	},
	{
		"date": "2013-01-12T15:44:35.000Z",
		"name": "Vattacukor Rezidencia",
		"id": "50434c04e4b03ccc1763379d",
		"lat": 47.48882521834965,
		"lng": 19.08135897878659,
		"city": "Budapest",
		"country": "Magyarország",
		"categories": [
			"Home (private)"
		]
	},
	{
		"date": "2013-01-13T11:22:31.000Z",
		"name": "Vattacukor Rezidencia",
		"id": "50434c04e4b03ccc1763379d",
		"lat": 47.48882521834965,
		"lng": 19.08135897878659,
		"city": "Budapest",
		"country": "Magyarország",
		"categories": [
			"Home (private)"
		]
	},
	{
		"date": "2013-01-14T07:14:45.000Z",
		"name": "BME I épület",
		"id": "4bcd89a5fb84c9b6311c223e",
		"lat": 47.472654177471675,
		"lng": 19.059821807961907,
		"address": "Magyar tudósok körútja 2.",
		"postalCode": "1117",
		"city": "Budapest",
		"country": "Magyarország",
		"categories": [
			"College Technology Building"
		]
	},
	{
		"date": "2013-01-14T07:14:45.000Z",
		"name": "BME I épület",
		"id": "4bcd89a5fb84c9b6311c223e",
		"lat": 47.472654177471675,
		"lng": 19.059821807961907,
		"address": "Magyar tudósok körútja 2.",
		"postalCode": "1117",
		"city": "Budapest",
		"country": "Magyarország",
		"categories": [
			"College Technology Building"
		]
	},
	{
		"date": "2013-01-14T07:42:01.000Z",
		"name": "IB028 - Kozma László nagyelőadó",
		"id": "4de4d643d164df857532987b",
		"lat": 47.472822016033966,
		"lng": 19.060108883515067,
		"country": "Magyarország",
		"categories": [
			"College Auditorium"
		]
	},
	{
		"date": "2013-01-14T09:54:28.000Z",
		"name": "Magyar tudósok körútja",
		"id": "4e86b5a04fc6432751d92f35",
		"lat": 47.4732285270181,
		"lng": 19.059047698974606,
		"address": "Magyar tudósok körútja",
		"postalCode": "1117",
		"city": "Budapest",
		"country": "Magyarország",
		"categories": [
			"Road"
		]
	},
	{
		"date": "2013-01-14T10:11:37.000Z",
		"name": "Harminckettesek tere (4, 6)",
		"id": "4c41fa8ce26920a1614f5fe7",
		"lat": 47.491346061078474,
		"lng": 19.07721140890305,
		"address": "József krt.",
		"postalCode": "1085",
		"city": "Budapest",
		"country": "Magyarország",
		"categories": [
			"Tram Station"
		]
	},
	{
		"date": "2013-01-14T18:00:40.000Z",
		"name": "Vattacukor Rezidencia",
		"id": "50434c04e4b03ccc1763379d",
		"lat": 47.48882521834965,
		"lng": 19.08135897878659,
		"city": "Budapest",
		"country": "Magyarország",
		"categories": [
			"Home (private)"
		]
	},
	{
		"date": "2013-01-16T11:57:38.000Z",
		"name": "Margit híd budai hídfő",
		"id": "4ef353445c5cd8c3b37c29a9",
		"lat": 47.51459210123518,
		"lng": 19.03926372528076,
		"city": "Budapest",
		"country": "Magyarország",
		"categories": [
			"Plaza"
		]
	},
	{
		"date": "2013-01-16T11:59:51.000Z",
		"name": "Híd Bistro",
		"id": "4ba7a32af964a520dba439e3",
		"lat": 47.515039,
		"lng": 19.038509,
		"address": "Germanus Gyula park 1.",
		"postalCode": "1027",
		"city": "Budapest",
		"country": "Magyarország",
		"categories": [
			"Bistro",
			"Pizza Place"
		]
	},
	{
		"date": "2013-01-16T14:24:39.000Z",
		"name": "SPAR",
		"id": "4be83036c5220f476867a9ca",
		"lat": 47.486964687669555,
		"lng": 19.080367093254154,
		"address": "Szigony utca 12.",
		"postalCode": "1083",
		"city": "Budapest VIII.",
		"country": "Magyarország",
		"categories": [
			"Supermarket",
			"Grocery Store"
		]
	},
	{
		"date": "2013-01-16T21:02:50.000Z",
		"name": "Vattacukor Rezidencia",
		"id": "50434c04e4b03ccc1763379d",
		"lat": 47.48882521834965,
		"lng": 19.08135897878659,
		"city": "Budapest",
		"country": "Magyarország",
		"categories": [
			"Home (private)"
		]
	},
	{
		"date": "2013-01-17T13:26:33.000Z",
		"name": "SPAR",
		"id": "4be83036c5220f476867a9ca",
		"lat": 47.486964687669555,
		"lng": 19.080367093254154,
		"address": "Szigony utca 12.",
		"postalCode": "1083",
		"city": "Budapest VIII.",
		"country": "Magyarország",
		"categories": [
			"Supermarket",
			"Grocery Store"
		]
	},
	{
		"date": "2013-01-17T13:30:11.000Z",
		"name": "Vattacukor Rezidencia",
		"id": "50434c04e4b03ccc1763379d",
		"lat": 47.48882521834965,
		"lng": 19.08135897878659,
		"city": "Budapest",
		"country": "Magyarország",
		"categories": [
			"Home (private)"
		]
	},
	{
		"date": "2013-01-17T20:23:30.000Z",
		"name": "Blaha Lujza tér M (4, 6)",
		"id": "4d22d6f95c4ca1cd7801b53d",
		"lat": 47.49681104021115,
		"lng": 19.070411510985824,
		"address": "Blaha Lujza tér",
		"postalCode": "1088",
		"city": "Budapest",
		"country": "Magyarország",
		"categories": [
			"Tram Station"
		]
	},
	{
		"date": "2013-01-17T21:10:52.000Z",
		"name": "Vattacukor Rezidencia",
		"id": "50434c04e4b03ccc1763379d",
		"lat": 47.48882521834965,
		"lng": 19.08135897878659,
		"city": "Budapest",
		"country": "Magyarország",
		"categories": [
			"Home (private)"
		]
	},
	{
		"date": "2013-01-19T14:09:35.000Z",
		"name": "Astoria",
		"id": "4bd4c6e9cfa7b71372d924da",
		"lat": 47.49432382237377,
		"lng": 19.060097205975598,
		"address": "Astoria",
		"postalCode": "1088",
		"city": "Budapest",
		"country": "Magyarország",
		"categories": [
			"Plaza"
		]
	},
	{
		"date": "2013-01-20T23:03:40.000Z",
		"name": "Vattacukor Rezidencia",
		"id": "50434c04e4b03ccc1763379d",
		"lat": 47.48882521834965,
		"lng": 19.08135897878659,
		"city": "Budapest",
		"country": "Magyarország",
		"categories": [
			"Home (private)"
		]
	},
	{
		"date": "2013-01-21T07:24:22.000Z",
		"name": "BME I épület",
		"id": "4bcd89a5fb84c9b6311c223e",
		"lat": 47.472654177471675,
		"lng": 19.059821807961907,
		"address": "Magyar tudósok körútja 2.",
		"postalCode": "1117",
		"city": "Budapest",
		"country": "Magyarország",
		"categories": [
			"College Technology Building"
		]
	},
	{
		"date": "2013-01-21T09:44:00.000Z",
		"name": "IB028 - Kozma László nagyelőadó",
		"id": "4de4d643d164df857532987b",
		"lat": 47.472822016033966,
		"lng": 19.060108883515067,
		"country": "Magyarország",
		"categories": [
			"College Auditorium"
		]
	},
	{
		"date": "2013-01-21T10:33:32.000Z",
		"name": "Vattacukor Rezidencia",
		"id": "50434c04e4b03ccc1763379d",
		"lat": 47.48882521834965,
		"lng": 19.08135897878659,
		"city": "Budapest",
		"country": "Magyarország",
		"categories": [
			"Home (private)"
		]
	},
	{
		"date": "2013-01-23T13:27:25.000Z",
		"name": "SPAR",
		"id": "4be83036c5220f476867a9ca",
		"lat": 47.486964687669555,
		"lng": 19.080367093254154,
		"address": "Szigony utca 12.",
		"postalCode": "1083",
		"city": "Budapest VIII.",
		"country": "Magyarország",
		"categories": [
			"Supermarket",
			"Grocery Store"
		]
	},
	{
		"date": "2013-01-23T13:27:25.000Z",
		"name": "SPAR",
		"id": "4be83036c5220f476867a9ca",
		"lat": 47.486964687669555,
		"lng": 19.080367093254154,
		"address": "Szigony utca 12.",
		"postalCode": "1083",
		"city": "Budapest VIII.",
		"country": "Magyarország",
		"categories": [
			"Supermarket",
			"Grocery Store"
		]
	},
	{
		"date": "2013-01-23T13:52:27.000Z",
		"name": "Vattacukor Rezidencia",
		"id": "50434c04e4b03ccc1763379d",
		"lat": 47.48882521834965,
		"lng": 19.08135897878659,
		"city": "Budapest",
		"country": "Magyarország",
		"categories": [
			"Home (private)"
		]
	},
	{
		"date": "2013-01-23T23:20:19.000Z",
		"name": "BlackSheep Hostel & Bar",
		"id": "4e423cfa18a8627fce43b6f5",
		"lat": 47.49760507676708,
		"lng": 19.069012116620886,
		"address": "Akácfa utca 7.",
		"postalCode": "1072",
		"city": "Budapest",
		"country": "Magyarország",
		"categories": [
			"Hostel",
			"Bar",
			"Lounge"
		]
	},
	{
		"date": "2013-01-24T00:24:33.000Z",
		"name": "Vattacukor Rezidencia",
		"id": "50434c04e4b03ccc1763379d",
		"lat": 47.48882521834965,
		"lng": 19.08135897878659,
		"city": "Budapest",
		"country": "Magyarország",
		"categories": [
			"Home (private)"
		]
	},
	{
		"date": "2013-01-24T18:30:35.000Z",
		"name": "SPAR",
		"id": "4be83036c5220f476867a9ca",
		"lat": 47.486964687669555,
		"lng": 19.080367093254154,
		"address": "Szigony utca 12.",
		"postalCode": "1083",
		"city": "Budapest VIII.",
		"country": "Magyarország",
		"categories": [
			"Supermarket",
			"Grocery Store"
		]
	},
	{
		"date": "2013-01-24T18:39:28.000Z",
		"name": "Vattacukor Rezidencia",
		"id": "50434c04e4b03ccc1763379d",
		"lat": 47.48882521834965,
		"lng": 19.08135897878659,
		"city": "Budapest",
		"country": "Magyarország",
		"categories": [
			"Home (private)"
		]
	},
	{
		"date": "2013-01-25T14:29:55.000Z",
		"name": "RESIDENCE 1 Irodaház",
		"id": "4e6e0158fa768e6cee4d6eae",
		"lat": 47.50998991891814,
		"lng": 19.03644395337415,
		"address": "Kacsa u. 15-23.",
		"country": "Magyarország",
		"categories": [
			"Office"
		]
	},
	{
		"date": "2013-01-25T20:37:08.000Z",
		"name": "Villa Polgar",
		"id": "4caaebc0965c9c74f70dcbfa",
		"lat": 47.671899642379415,
		"lng": 16.611052697881373,
		"city": "Sopron",
		"country": "Magyarország",
		"categories": [
			"Home (private)"
		]
	},
	{
		"date": "2013-01-26T21:50:33.000Z",
		"name": "Villa Polgar",
		"id": "4caaebc0965c9c74f70dcbfa",
		"lat": 47.671899642379415,
		"lng": 16.611052697881373,
		"city": "Sopron",
		"country": "Magyarország",
		"categories": [
			"Home (private)"
		]
	},
	{
		"date": "2013-01-27T11:42:15.000Z",
		"name": "Grandma's Place",
		"id": "4f5c86b7e4b086681c0fa476",
		"lat": 47.685079492343135,
		"lng": 16.59042726764715,
		"country": "Magyarország",
		"categories": [
			"Home (private)"
		]
	},
	{
		"date": "2013-01-27T12:57:53.000Z",
		"name": "Sopron vasútállomás",
		"id": "4bd6fe6529eb9c749dee95e1",
		"lat": 47.67771249028291,
		"lng": 16.58738136291504,
		"address": "Állomás u. 2.",
		"postalCode": "9400",
		"city": "Sopron",
		"country": "Magyarország",
		"categories": [
			"Train Station"
		]
	},
	{
		"date": "2013-01-27T13:05:56.000Z",
		"name": "Villa Polgar",
		"id": "4caaebc0965c9c74f70dcbfa",
		"lat": 47.671899642379415,
		"lng": 16.611052697881373,
		"city": "Sopron",
		"country": "Magyarország",
		"categories": [
			"Home (private)"
		]
	},
	{
		"date": "2013-01-27T15:43:30.000Z",
		"name": "Sopron vasútállomás",
		"id": "4bd6fe6529eb9c749dee95e1",
		"lat": 47.67771249028291,
		"lng": 16.58738136291504,
		"address": "Állomás u. 2.",
		"postalCode": "9400",
		"city": "Sopron",
		"country": "Magyarország",
		"categories": [
			"Train Station"
		]
	},
	{
		"date": "2013-01-27T19:28:35.000Z",
		"name": "Vattacukor Rezidencia",
		"id": "50434c04e4b03ccc1763379d",
		"lat": 47.48882521834965,
		"lng": 19.08135897878659,
		"city": "Budapest",
		"country": "Magyarország",
		"categories": [
			"Home (private)"
		]
	},
	{
		"date": "2013-01-28T08:35:20.000Z",
		"name": "WestEnd City Center",
		"id": "4bcc1b343740b71309846365",
		"lat": 47.51328376254626,
		"lng": 19.05914504127989,
		"address": "Váci út 1-3.",
		"postalCode": "1062",
		"city": "Budapest",
		"country": "Magyarország",
		"categories": [
			"Shopping Mall"
		]
	},
	{
		"date": "2013-01-28T10:08:44.000Z",
		"name": "Harminckettesek tere (4, 6)",
		"id": "4c41fa8ce26920a1614f5fe7",
		"lat": 47.491346061078474,
		"lng": 19.07721140890305,
		"address": "József krt.",
		"postalCode": "1085",
		"city": "Budapest",
		"country": "Magyarország",
		"categories": [
			"Tram Station"
		]
	},
	{
		"date": "2013-01-28T13:54:24.000Z",
		"name": "Józsefvárosi piac",
		"id": "4d8a171e4757721ee75faf69",
		"lat": 47.48755650906055,
		"lng": 19.100289344787598,
		"address": "Kőbányai út 29.",
		"postalCode": "1089",
		"city": "Budapest",
		"country": "Magyarország",
		"categories": [
			"Market",
			"Flea Market",
			"Clothing Store"
		]
	},
	{
		"date": "2013-01-28T15:08:26.000Z",
		"name": "Vattacukor Rezidencia",
		"id": "50434c04e4b03ccc1763379d",
		"lat": 47.48882521834965,
		"lng": 19.08135897878659,
		"city": "Budapest",
		"country": "Magyarország",
		"categories": [
			"Home (private)"
		]
	},
	{
		"date": "2013-01-30T21:36:50.000Z",
		"name": "Vattacukor Rezidencia",
		"id": "50434c04e4b03ccc1763379d",
		"lat": 47.48882521834965,
		"lng": 19.08135897878659,
		"city": "Budapest",
		"country": "Magyarország",
		"categories": [
			"Home (private)"
		]
	},
	{
		"date": "2013-01-31T14:17:42.000Z",
		"name": "SPAR",
		"id": "4be83036c5220f476867a9ca",
		"lat": 47.486964687669555,
		"lng": 19.080367093254154,
		"address": "Szigony utca 12.",
		"postalCode": "1083",
		"city": "Budapest VIII.",
		"country": "Magyarország",
		"categories": [
			"Supermarket",
			"Grocery Store"
		]
	},
	{
		"date": "2013-01-31T19:51:20.000Z",
		"name": "Vattacukor Rezidencia",
		"id": "50434c04e4b03ccc1763379d",
		"lat": 47.48882521834965,
		"lng": 19.08135897878659,
		"city": "Budapest",
		"country": "Magyarország",
		"categories": [
			"Home (private)"
		]
	},
	{
		"date": "2013-01-31T21:05:57.000Z",
		"name": "Pepsi ABC",
		"id": "4ca57bf6a6e08cfa90c87194",
		"lat": 47.48790215068848,
		"lng": 19.081916674868864,
		"country": "Magyarország",
		"categories": [
			"Deli / Bodega"
		]
	}
]