[
	{
		"date": "2013-08-02T15:47:43.000Z",
		"name": "Torri d'Europa",
		"id": "4bc06687461576b0e9127a32",
		"lat": 45.63433892921493,
		"lng": 13.78043257772475,
		"address": "Via Italo Svevo, 14",
		"postalCode": "34144",
		"city": "Trieste",
		"country": "Italia",
		"categories": [
			"Shopping Mall"
		]
	},
	{
		"date": "2013-08-02T16:28:23.000Z",
		"name": "McDonald's",
		"id": "4c330cd6ac0ab71318a11c1e",
		"lat": 45.63385663431009,
		"lng": 13.780538503128154,
		"address": "Centro commerciale Torri d'Europa",
		"postalCode": "34144",
		"city": "Trieste",
		"country": "Italia",
		"categories": [
			"Fast Food Restaurant"
		]
	},
	{
		"date": "2013-08-03T14:05:57.000Z",
		"name": "Opatija",
		"id": "4c6e38c3f338236af6f1091b",
		"lat": 45.33504964207912,
		"lng": 14.306132937983332,
		"postalCode": "51410",
		"city": "Opatija",
		"country": "Hrvatska",
		"categories": [
			"Town"
		]
	},
	{
		"date": "2013-08-03T14:06:26.000Z",
		"name": "Opatija Rivera",
		"id": "4ff092a9e4b0b2ab0d6f8838",
		"lat": 45.332221097219346,
		"lng": 14.302976419513534,
		"country": "Hrvatska",
		"categories": [
			"Rest Area"
		]
	},
	{
		"date": "2013-08-03T14:06:56.000Z",
		"name": "Opatija beach",
		"id": "4fe8cdb7e4b06579e2b40803",
		"lat": 45.33286849416833,
		"lng": 14.3031584112528,
		"address": "Maršala Tita",
		"postalCode": "51410",
		"city": "Opatija",
		"country": "Hrvatska",
		"categories": [
			"Beach"
		]
	},
	{
		"date": "2013-08-03T16:56:54.000Z",
		"name": "Slatina",
		"id": "4e18d57cb61c8f9ada5029b3",
		"lat": 45.332845967217835,
		"lng": 14.302938738284716,
		"postalCode": "51410",
		"city": "Opatija",
		"country": "Hrvatska",
		"categories": [
			"Rest Area"
		]
	},
	{
		"date": "2013-08-04T12:05:29.000Z",
		"name": "Caffe bar Kremenko",
		"id": "516eb39de4b0e064b425a8a1",
		"lat": 45.3322,
		"lng": 14.3033,
		"country": "Hrvatska",
		"categories": [
			"Café"
		]
	},
	{
		"date": "2013-08-04T14:51:45.000Z",
		"name": "Kavana Pizzeria Bella Vista",
		"id": "4da1973922a5f04d2ab7fe54",
		"lat": 45.331122017505585,
		"lng": 14.302746157640229,
		"address": "M. Tita 119",
		"postalCode": "51410",
		"city": "Opatija",
		"country": "Hrvatska",
		"categories": [
			"Café"
		]
	},
	{
		"date": "2013-08-04T16:46:59.000Z",
		"name": "Croatian Walk of Fame",
		"id": "4cbdc756c7228cfa1a042cce",
		"lat": 45.332766740542475,
		"lng": 14.30345796699206,
		"address": "Šetalište Matka Laginje",
		"city": "Opatija",
		"country": "Hrvatska",
		"categories": [
			"Plaza"
		]
	},
	{
		"date": "2013-08-05T13:02:24.000Z",
		"name": "Villa Polgar",
		"id": "4caaebc0965c9c74f70dcbfa",
		"lat": 47.671899642379415,
		"lng": 16.611052697881373,
		"city": "Sopron",
		"country": "Magyarország",
		"categories": [
			"Home (private)"
		]
	},
	{
		"date": "2013-08-05T17:13:07.000Z",
		"name": "Cotton Candy Residence 2",
		"id": "51a3ce00498e1300ffabc88e",
		"lat": 47.50928216012272,
		"lng": 19.080727604787995,
		"city": "Budapest",
		"country": "Magyarország",
		"categories": [
			"Home (private)"
		]
	},
	{
		"date": "2013-08-06T08:28:00.000Z",
		"name": "BME R épület",
		"id": "4ba8e306f964a5202cf739e3",
		"lat": 47.47900888118355,
		"lng": 19.058887218991554,
		"address": "Műegyetem rakpart 7-9.",
		"postalCode": "1111",
		"city": "Budapest",
		"country": "Magyarország",
		"categories": [
			"College Academic Building",
			"College Administrative Building",
			"Student Center"
		]
	},
	{
		"date": "2013-08-06T21:01:27.000Z",
		"name": "Cotton Candy Residence 2",
		"id": "51a3ce00498e1300ffabc88e",
		"lat": 47.50928216012272,
		"lng": 19.080727604787995,
		"city": "Budapest",
		"country": "Magyarország",
		"categories": [
			"Home (private)"
		]
	},
	{
		"date": "2013-08-07T07:20:38.000Z",
		"name": "DuoDecad Kft.",
		"id": "4e4b84b5b0fbbc2182acff38",
		"lat": 47.496434392414756,
		"lng": 19.118222320749695,
		"address": "Expo tér 5-7.",
		"postalCode": "1101",
		"city": "Budapest",
		"country": "Magyarország",
		"categories": [
			"Office",
			"Coworking Space"
		]
	},
	{
		"date": "2013-08-07T07:20:54.000Z",
		"name": "Docler Holding Irodaház",
		"id": "4b503f8af964a520171f27e3",
		"lat": 47.49694118099851,
		"lng": 19.117601577085395,
		"address": "Expó tér 5-7.",
		"postalCode": "1101",
		"city": "Budapest",
		"country": "Magyarország",
		"categories": [
			"Office"
		]
	},
	{
		"date": "2013-08-07T17:27:36.000Z",
		"name": "Garay Center és Piac",
		"id": "4bf1d4efa09076b05aef29d4",
		"lat": 47.50401177967707,
		"lng": 19.08554606082026,
		"address": "Garay tér",
		"postalCode": "1076",
		"city": "Budapest",
		"country": "Magyarország",
		"categories": [
			"Farmers Market",
			"Shopping Mall",
			"Shopping Plaza"
		]
	},
	{
		"date": "2013-08-07T17:27:56.000Z",
		"name": "Garay tér",
		"id": "4c0e4fb5c700c9b622a0a3dd",
		"lat": 47.50433649598149,
		"lng": 19.085605332480885,
		"address": "Garay tér",
		"city": "Budapest",
		"country": "Magyarország",
		"categories": [
			"Plaza"
		]
	},
	{
		"date": "2013-08-07T20:28:32.000Z",
		"name": "Cotton Candy Residence 2",
		"id": "51a3ce00498e1300ffabc88e",
		"lat": 47.50928216012272,
		"lng": 19.080727604787995,
		"city": "Budapest",
		"country": "Magyarország",
		"categories": [
			"Home (private)"
		]
	},
	{
		"date": "2013-08-08T06:58:38.000Z",
		"name": "DuoDecad Kft.",
		"id": "4e4b84b5b0fbbc2182acff38",
		"lat": 47.496434392414756,
		"lng": 19.118222320749695,
		"address": "Expo tér 5-7.",
		"postalCode": "1101",
		"city": "Budapest",
		"country": "Magyarország",
		"categories": [
			"Office",
			"Coworking Space"
		]
	},
	{
		"date": "2013-08-08T06:59:21.000Z",
		"name": "Docler Holding Irodaház",
		"id": "4b503f8af964a520171f27e3",
		"lat": 47.49694118099851,
		"lng": 19.117601577085395,
		"address": "Expó tér 5-7.",
		"postalCode": "1101",
		"city": "Budapest",
		"country": "Magyarország",
		"categories": [
			"Office"
		]
	},
	{
		"date": "2013-08-08T18:10:20.000Z",
		"name": "Garay tér",
		"id": "4c0e4fb5c700c9b622a0a3dd",
		"lat": 47.50433649598149,
		"lng": 19.085605332480885,
		"address": "Garay tér",
		"city": "Budapest",
		"country": "Magyarország",
		"categories": [
			"Plaza"
		]
	},
	{
		"date": "2013-08-08T18:43:09.000Z",
		"name": "Cotton Candy Residence 2",
		"id": "51a3ce00498e1300ffabc88e",
		"lat": 47.50928216012272,
		"lng": 19.080727604787995,
		"city": "Budapest",
		"country": "Magyarország",
		"categories": [
			"Home (private)"
		]
	},
	{
		"date": "2013-08-09T09:48:33.000Z",
		"name": "DuoDecad Kft.",
		"id": "4e4b84b5b0fbbc2182acff38",
		"lat": 47.496434392414756,
		"lng": 19.118222320749695,
		"address": "Expo tér 5-7.",
		"postalCode": "1101",
		"city": "Budapest",
		"country": "Magyarország",
		"categories": [
			"Office",
			"Coworking Space"
		]
	},
	{
		"date": "2013-08-09T09:49:00.000Z",
		"name": "Docler Holding Irodaház",
		"id": "4b503f8af964a520171f27e3",
		"lat": 47.49694118099851,
		"lng": 19.117601577085395,
		"address": "Expó tér 5-7.",
		"postalCode": "1101",
		"city": "Budapest",
		"country": "Magyarország",
		"categories": [
			"Office"
		]
	},
	{
		"date": "2013-08-09T18:44:05.000Z",
		"name": "Cotton Candy Residence 2",
		"id": "51a3ce00498e1300ffabc88e",
		"lat": 47.50928216012272,
		"lng": 19.080727604787995,
		"city": "Budapest",
		"country": "Magyarország",
		"categories": [
			"Home (private)"
		]
	},
	{
		"date": "2013-08-10T10:19:59.000Z",
		"name": "IKEA",
		"id": "4baf84eff964a520a3063ce3",
		"lat": 47.505179791600206,
		"lng": 19.137999590978485,
		"address": "Örs vezér tere 22.",
		"postalCode": "1148",
		"city": "Budapest",
		"country": "Magyarország",
		"categories": [
			"Furniture / Home Store"
		]
	},
	{
		"date": "2013-08-10T10:20:25.000Z",
		"name": "IKEA Étterem",
		"id": "4ce91edde888f04db950466b",
		"lat": 47.50525811287078,
		"lng": 19.13843615712221,
		"address": "Örs vezér tere 22.",
		"postalCode": "1148",
		"city": "Budapest",
		"country": "Magyarország",
		"categories": [
			"Scandinavian Restaurant"
		]
	},
	{
		"date": "2013-08-10T12:24:31.000Z",
		"name": "Garay tér",
		"id": "4c0e4fb5c700c9b622a0a3dd",
		"lat": 47.50433649598149,
		"lng": 19.085605332480885,
		"address": "Garay tér",
		"city": "Budapest",
		"country": "Magyarország",
		"categories": [
			"Plaza"
		]
	},
	{
		"date": "2013-08-10T13:38:58.000Z",
		"name": "Cotton Candy Residence 2",
		"id": "51a3ce00498e1300ffabc88e",
		"lat": 47.50928216012272,
		"lng": 19.080727604787995,
		"city": "Budapest",
		"country": "Magyarország",
		"categories": [
			"Home (private)"
		]
	},
	{
		"date": "2013-08-11T14:06:45.000Z",
		"name": "Arena Mall",
		"id": "4b86a275f964a520649331e3",
		"lat": 47.49844483059031,
		"lng": 19.09249868486114,
		"address": "Kerepesi út 9.",
		"postalCode": "1087",
		"city": "Budapest",
		"country": "Magyarország",
		"categories": [
			"Shopping Mall"
		]
	},
	{
		"date": "2013-08-11T14:22:43.000Z",
		"name": "TESCO Hipermarket",
		"id": "4d7143ca722ef04d9fb10e9c",
		"lat": 47.49847499000863,
		"lng": 19.09417747870573,
		"address": "Aréna Pláza földszint",
		"postalCode": "1087",
		"city": "Budapest",
		"country": "Magyarország",
		"categories": [
			"Supermarket"
		]
	},
	{
		"date": "2013-08-11T14:23:47.000Z",
		"name": "New Yorker",
		"id": "4de783e3d4c0086a950b72e2",
		"lat": 47.49841985611123,
		"lng": 19.091116934279356,
		"address": "Aréna Plaza földszint",
		"postalCode": "1087",
		"city": "Budapest",
		"country": "Magyarország",
		"categories": [
			"Clothing Store"
		]
	},
	{
		"date": "2013-08-11T16:47:44.000Z",
		"name": "Cotton Candy Residence 2",
		"id": "51a3ce00498e1300ffabc88e",
		"lat": 47.50928216012272,
		"lng": 19.080727604787995,
		"city": "Budapest",
		"country": "Magyarország",
		"categories": [
			"Home (private)"
		]
	},
	{
		"date": "2013-08-12T10:20:05.000Z",
		"name": "DuoDecad Kft.",
		"id": "4e4b84b5b0fbbc2182acff38",
		"lat": 47.496434392414756,
		"lng": 19.118222320749695,
		"address": "Expo tér 5-7.",
		"postalCode": "1101",
		"city": "Budapest",
		"country": "Magyarország",
		"categories": [
			"Office",
			"Coworking Space"
		]
	},
	{
		"date": "2013-08-12T10:23:15.000Z",
		"name": "Docler Holding Irodaház",
		"id": "4b503f8af964a520171f27e3",
		"lat": 47.49694118099851,
		"lng": 19.117601577085395,
		"address": "Expó tér 5-7.",
		"postalCode": "1101",
		"city": "Budapest",
		"country": "Magyarország",
		"categories": [
			"Office"
		]
	},
	{
		"date": "2013-08-12T18:11:35.000Z",
		"name": "Cotton Candy Residence 2",
		"id": "51a3ce00498e1300ffabc88e",
		"lat": 47.50928216012272,
		"lng": 19.080727604787995,
		"city": "Budapest",
		"country": "Magyarország",
		"categories": [
			"Home (private)"
		]
	},
	{
		"date": "2013-08-13T08:51:28.000Z",
		"name": "DuoDecad Kft.",
		"id": "4e4b84b5b0fbbc2182acff38",
		"lat": 47.496434392414756,
		"lng": 19.118222320749695,
		"address": "Expo tér 5-7.",
		"postalCode": "1101",
		"city": "Budapest",
		"country": "Magyarország",
		"categories": [
			"Office",
			"Coworking Space"
		]
	},
	{
		"date": "2013-08-13T08:52:00.000Z",
		"name": "Docler Holding Irodaház",
		"id": "4b503f8af964a520171f27e3",
		"lat": 47.49694118099851,
		"lng": 19.117601577085395,
		"address": "Expó tér 5-7.",
		"postalCode": "1101",
		"city": "Budapest",
		"country": "Magyarország",
		"categories": [
			"Office"
		]
	},
	{
		"date": "2013-08-13T17:34:28.000Z",
		"name": "Cotton Candy Residence 2",
		"id": "51a3ce00498e1300ffabc88e",
		"lat": 47.50928216012272,
		"lng": 19.080727604787995,
		"city": "Budapest",
		"country": "Magyarország",
		"categories": [
			"Home (private)"
		]
	},
	{
		"date": "2013-08-14T07:33:23.000Z",
		"name": "DuoDecad Kft.",
		"id": "4e4b84b5b0fbbc2182acff38",
		"lat": 47.496434392414756,
		"lng": 19.118222320749695,
		"address": "Expo tér 5-7.",
		"postalCode": "1101",
		"city": "Budapest",
		"country": "Magyarország",
		"categories": [
			"Office",
			"Coworking Space"
		]
	},
	{
		"date": "2013-08-14T07:34:03.000Z",
		"name": "Docler Holding Irodaház",
		"id": "4b503f8af964a520171f27e3",
		"lat": 47.49694118099851,
		"lng": 19.117601577085395,
		"address": "Expó tér 5-7.",
		"postalCode": "1101",
		"city": "Budapest",
		"country": "Magyarország",
		"categories": [
			"Office"
		]
	},
	{
		"date": "2013-08-14T11:08:02.000Z",
		"name": "Docler Holding Irodaház",
		"id": "4b503f8af964a520171f27e3",
		"lat": 47.49694118099851,
		"lng": 19.117601577085395,
		"address": "Expó tér 5-7.",
		"postalCode": "1101",
		"city": "Budapest",
		"country": "Magyarország",
		"categories": [
			"Office"
		]
	},
	{
		"date": "2013-08-14T11:08:17.000Z",
		"name": "Docler Cafeteria",
		"id": "505847b7e4b0b9424ea6a1cf",
		"lat": 47.49688493788501,
		"lng": 19.11765951368387,
		"address": "Expo tér 5-7.",
		"postalCode": "1101",
		"city": "Budapest",
		"country": "Magyarország",
		"categories": [
			"Cafeteria"
		]
	},
	{
		"date": "2013-08-14T17:26:03.000Z",
		"name": "Cotton Candy Residence 2",
		"id": "51a3ce00498e1300ffabc88e",
		"lat": 47.50928216012272,
		"lng": 19.080727604787995,
		"city": "Budapest",
		"country": "Magyarország",
		"categories": [
			"Home (private)"
		]
	},
	{
		"date": "2013-08-15T10:38:40.000Z",
		"name": "DuoDecad Kft.",
		"id": "4e4b84b5b0fbbc2182acff38",
		"lat": 47.496434392414756,
		"lng": 19.118222320749695,
		"address": "Expo tér 5-7.",
		"postalCode": "1101",
		"city": "Budapest",
		"country": "Magyarország",
		"categories": [
			"Office",
			"Coworking Space"
		]
	},
	{
		"date": "2013-08-15T10:44:25.000Z",
		"name": "Docler Holding Irodaház",
		"id": "4b503f8af964a520171f27e3",
		"lat": 47.49694118099851,
		"lng": 19.117601577085395,
		"address": "Expó tér 5-7.",
		"postalCode": "1101",
		"city": "Budapest",
		"country": "Magyarország",
		"categories": [
			"Office"
		]
	},
	{
		"date": "2013-08-15T13:50:07.000Z",
		"name": "Docler Tetőkert",
		"id": "519e2461498ec1672b53406d",
		"lat": 47.49682117733641,
		"lng": 19.117736378648083,
		"address": "Docler Irodaház",
		"city": "Budapest",
		"country": "Magyarország",
		"categories": [
			"Garden"
		]
	},
	{
		"date": "2013-08-15T17:17:47.000Z",
		"name": "Cotton Candy Residence 2",
		"id": "51a3ce00498e1300ffabc88e",
		"lat": 47.50928216012272,
		"lng": 19.080727604787995,
		"city": "Budapest",
		"country": "Magyarország",
		"categories": [
			"Home (private)"
		]
	},
	{
		"date": "2013-08-16T06:48:57.000Z",
		"name": "Docler Holding Irodaház",
		"id": "4b503f8af964a520171f27e3",
		"lat": 47.49694118099851,
		"lng": 19.117601577085395,
		"address": "Expó tér 5-7.",
		"postalCode": "1101",
		"city": "Budapest",
		"country": "Magyarország",
		"categories": [
			"Office"
		]
	},
	{
		"date": "2013-08-16T06:49:21.000Z",
		"name": "DuoDecad Kft.",
		"id": "4e4b84b5b0fbbc2182acff38",
		"lat": 47.496434392414756,
		"lng": 19.118222320749695,
		"address": "Expo tér 5-7.",
		"postalCode": "1101",
		"city": "Budapest",
		"country": "Magyarország",
		"categories": [
			"Office",
			"Coworking Space"
		]
	},
	{
		"date": "2013-08-16T17:20:04.000Z",
		"name": "Cotton Candy Residence 2",
		"id": "51a3ce00498e1300ffabc88e",
		"lat": 47.50928216012272,
		"lng": 19.080727604787995,
		"city": "Budapest",
		"country": "Magyarország",
		"categories": [
			"Home (private)"
		]
	},
	{
		"date": "2013-08-16T22:33:55.000Z",
		"name": "Garay tér",
		"id": "4c0e4fb5c700c9b622a0a3dd",
		"lat": 47.50433649598149,
		"lng": 19.085605332480885,
		"address": "Garay tér",
		"city": "Budapest",
		"country": "Magyarország",
		"categories": [
			"Plaza"
		]
	},
	{
		"date": "2013-08-16T22:39:36.000Z",
		"name": "CBA",
		"id": "4f4fa8abe4b09d63ccb018aa",
		"lat": 47.506660805033846,
		"lng": 19.08577075644528,
		"address": "Dózsa György út 54",
		"postalCode": "1071",
		"city": "Budapest",
		"country": "Magyarország",
		"categories": [
			"Grocery Store"
		]
	},
	{
		"date": "2013-08-16T22:39:53.000Z",
		"name": "Cotton Candy Residence 2",
		"id": "51a3ce00498e1300ffabc88e",
		"lat": 47.50928216012272,
		"lng": 19.080727604787995,
		"city": "Budapest",
		"country": "Magyarország",
		"categories": [
			"Home (private)"
		]
	},
	{
		"date": "2013-08-17T09:23:10.000Z",
		"name": "Ciano Kúria",
		"id": "502e1ee2e4b00d67edf0008f",
		"lat": 47.54498888001689,
		"lng": 18.264753297830538,
		"country": "Magyarország",
		"categories": [
			"Home (private)"
		]
	},
	{
		"date": "2013-08-18T18:38:46.000Z",
		"name": "TESCO Hipermarket",
		"id": "4cf0fb0e6c29236abaca62a2",
		"lat": 47.570816976634646,
		"lng": 18.410846504392712,
		"address": "Bláthy Ottó u. 1.",
		"postalCode": "2800",
		"city": "Tatabánya",
		"country": "Magyarország",
		"categories": [
			"Supermarket",
			"Grocery Store"
		]
	},
	{
		"date": "2013-08-18T19:26:47.000Z",
		"name": "Kömlőd",
		"id": "503b8c5ae4b0d21c218fe9eb",
		"lat": 47.546862852392515,
		"lng": 18.26221506721866,
		"postalCode": "2853",
		"city": "Kömlőd",
		"country": "Magyarország",
		"categories": [
			"Farm"
		]
	},
	{
		"date": "2013-08-18T19:27:04.000Z",
		"name": "Ciano Kúria",
		"id": "502e1ee2e4b00d67edf0008f",
		"lat": 47.54498888001689,
		"lng": 18.264753297830538,
		"country": "Magyarország",
		"categories": [
			"Home (private)"
		]
	},
	{
		"date": "2013-08-20T19:19:12.000Z",
		"name": "Cotton Candy Residence 2",
		"id": "51a3ce00498e1300ffabc88e",
		"lat": 47.50928216012272,
		"lng": 19.080727604787995,
		"city": "Budapest",
		"country": "Magyarország",
		"categories": [
			"Home (private)"
		]
	},
	{
		"date": "2013-08-21T11:03:21.000Z",
		"name": "DuoDecad Kft.",
		"id": "4e4b84b5b0fbbc2182acff38",
		"lat": 47.496434392414756,
		"lng": 19.118222320749695,
		"address": "Expo tér 5-7.",
		"postalCode": "1101",
		"city": "Budapest",
		"country": "Magyarország",
		"categories": [
			"Office",
			"Coworking Space"
		]
	},
	{
		"date": "2013-08-21T11:03:36.000Z",
		"name": "Docler Holding Irodaház",
		"id": "4b503f8af964a520171f27e3",
		"lat": 47.49694118099851,
		"lng": 19.117601577085395,
		"address": "Expó tér 5-7.",
		"postalCode": "1101",
		"city": "Budapest",
		"country": "Magyarország",
		"categories": [
			"Office"
		]
	},
	{
		"date": "2013-08-21T16:18:14.000Z",
		"name": "TESCO Hipermarket",
		"id": "4d7143ca722ef04d9fb10e9c",
		"lat": 47.49847499000863,
		"lng": 19.09417747870573,
		"address": "Aréna Pláza földszint",
		"postalCode": "1087",
		"city": "Budapest",
		"country": "Magyarország",
		"categories": [
			"Supermarket"
		]
	},
	{
		"date": "2013-08-21T16:18:46.000Z",
		"name": "Arena Mall",
		"id": "4b86a275f964a520649331e3",
		"lat": 47.49844483059031,
		"lng": 19.09249868486114,
		"address": "Kerepesi út 9.",
		"postalCode": "1087",
		"city": "Budapest",
		"country": "Magyarország",
		"categories": [
			"Shopping Mall"
		]
	},
	{
		"date": "2013-08-21T17:31:37.000Z",
		"name": "CBA",
		"id": "4f4fa8abe4b09d63ccb018aa",
		"lat": 47.506660805033846,
		"lng": 19.08577075644528,
		"address": "Dózsa György út 54",
		"postalCode": "1071",
		"city": "Budapest",
		"country": "Magyarország",
		"categories": [
			"Grocery Store"
		]
	},
	{
		"date": "2013-08-22T10:39:02.000Z",
		"name": "DuoDecad Kft.",
		"id": "4e4b84b5b0fbbc2182acff38",
		"lat": 47.496434392414756,
		"lng": 19.118222320749695,
		"address": "Expo tér 5-7.",
		"postalCode": "1101",
		"city": "Budapest",
		"country": "Magyarország",
		"categories": [
			"Office",
			"Coworking Space"
		]
	},
	{
		"date": "2013-08-22T10:40:18.000Z",
		"name": "Docler Holding Irodaház",
		"id": "4b503f8af964a520171f27e3",
		"lat": 47.49694118099851,
		"lng": 19.117601577085395,
		"address": "Expó tér 5-7.",
		"postalCode": "1101",
		"city": "Budapest",
		"country": "Magyarország",
		"categories": [
			"Office"
		]
	},
	{
		"date": "2013-08-22T13:17:53.000Z",
		"name": "Docler Tetőkert",
		"id": "519e2461498ec1672b53406d",
		"lat": 47.49682117733641,
		"lng": 19.117736378648083,
		"address": "Docler Irodaház",
		"city": "Budapest",
		"country": "Magyarország",
		"categories": [
			"Garden"
		]
	},
	{
		"date": "2013-08-22T17:09:40.000Z",
		"name": "Garay tér",
		"id": "4c0e4fb5c700c9b622a0a3dd",
		"lat": 47.50433649598149,
		"lng": 19.085605332480885,
		"address": "Garay tér",
		"city": "Budapest",
		"country": "Magyarország",
		"categories": [
			"Plaza"
		]
	},
	{
		"date": "2013-08-22T17:28:58.000Z",
		"name": "Cotton Candy Residence 2",
		"id": "51a3ce00498e1300ffabc88e",
		"lat": 47.50928216012272,
		"lng": 19.080727604787995,
		"city": "Budapest",
		"country": "Magyarország",
		"categories": [
			"Home (private)"
		]
	},
	{
		"date": "2013-08-23T16:43:16.000Z",
		"name": "Docler Holding Irodaház",
		"id": "4b503f8af964a520171f27e3",
		"lat": 47.49694118099851,
		"lng": 19.117601577085395,
		"address": "Expó tér 5-7.",
		"postalCode": "1101",
		"city": "Budapest",
		"country": "Magyarország",
		"categories": [
			"Office"
		]
	},
	{
		"date": "2013-08-23T16:43:27.000Z",
		"name": "DuoDecad Kft.",
		"id": "4e4b84b5b0fbbc2182acff38",
		"lat": 47.496434392414756,
		"lng": 19.118222320749695,
		"address": "Expo tér 5-7.",
		"postalCode": "1101",
		"city": "Budapest",
		"country": "Magyarország",
		"categories": [
			"Office",
			"Coworking Space"
		]
	},
	{
		"date": "2013-08-23T17:16:22.000Z",
		"name": "Garay tér",
		"id": "4c0e4fb5c700c9b622a0a3dd",
		"lat": 47.50433649598149,
		"lng": 19.085605332480885,
		"address": "Garay tér",
		"city": "Budapest",
		"country": "Magyarország",
		"categories": [
			"Plaza"
		]
	},
	{
		"date": "2013-08-23T17:18:00.000Z",
		"name": "Garay Center és Piac",
		"id": "4bf1d4efa09076b05aef29d4",
		"lat": 47.50401177967707,
		"lng": 19.08554606082026,
		"address": "Garay tér",
		"postalCode": "1076",
		"city": "Budapest",
		"country": "Magyarország",
		"categories": [
			"Farmers Market",
			"Shopping Mall",
			"Shopping Plaza"
		]
	},
	{
		"date": "2013-08-23T17:18:16.000Z",
		"name": "Penny Market",
		"id": "4d6e89682e6ea0934c3b1f50",
		"lat": 47.50412171549239,
		"lng": 19.085703573865597,
		"address": "Garay tér 20.",
		"postalCode": "1076",
		"city": "Budapest",
		"country": "Magyarország",
		"categories": [
			"Grocery Store"
		]
	},
	{
		"date": "2013-08-24T07:29:31.000Z",
		"name": "Docler Holding Irodaház",
		"id": "4b503f8af964a520171f27e3",
		"lat": 47.49694118099851,
		"lng": 19.117601577085395,
		"address": "Expó tér 5-7.",
		"postalCode": "1101",
		"city": "Budapest",
		"country": "Magyarország",
		"categories": [
			"Office"
		]
	},
	{
		"date": "2013-08-24T07:29:54.000Z",
		"name": "DuoDecad Kft.",
		"id": "4e4b84b5b0fbbc2182acff38",
		"lat": 47.496434392414756,
		"lng": 19.118222320749695,
		"address": "Expo tér 5-7.",
		"postalCode": "1101",
		"city": "Budapest",
		"country": "Magyarország",
		"categories": [
			"Office",
			"Coworking Space"
		]
	},
	{
		"date": "2013-08-24T18:58:36.000Z",
		"name": "Corvin Plaza",
		"id": "4cc701eabe40a35d1d6a8d4c",
		"lat": 47.486046352980296,
		"lng": 19.07288581182118,
		"address": "Futó u. 37-45.",
		"postalCode": "1083",
		"city": "Budapest",
		"country": "Magyarország",
		"categories": [
			"Shopping Mall"
		]
	},
	{
		"date": "2013-08-24T22:21:16.000Z",
		"name": "Cino HQ",
		"id": "5086dc03b0edaa2ba440e06a",
		"lat": 47.48882521834965,
		"lng": 19.08135897878659,
		"city": "Budapest",
		"country": "Magyarország",
		"categories": [
			"Home (private)"
		]
	},
	{
		"date": "2013-08-25T01:12:15.000Z",
		"name": "Cotton Candy Residence 2",
		"id": "51a3ce00498e1300ffabc88e",
		"lat": 47.50928216012272,
		"lng": 19.080727604787995,
		"city": "Budapest",
		"country": "Magyarország",
		"categories": [
			"Home (private)"
		]
	},
	{
		"date": "2013-08-25T18:09:17.000Z",
		"name": "Corvin Plaza",
		"id": "4cc701eabe40a35d1d6a8d4c",
		"lat": 47.486046352980296,
		"lng": 19.07288581182118,
		"address": "Futó u. 37-45.",
		"postalCode": "1083",
		"city": "Budapest",
		"country": "Magyarország",
		"categories": [
			"Shopping Mall"
		]
	},
	{
		"date": "2013-08-25T18:10:13.000Z",
		"name": "Costa Coffee",
		"id": "4ccaa013b7d9a143b0cefd36",
		"lat": 47.48590107543375,
		"lng": 19.07483582019539,
		"address": "Corvin Sétány",
		"postalCode": "1083",
		"city": "Budapest",
		"country": "Magyarország",
		"categories": [
			"Coffee Shop"
		]
	},
	{
		"date": "2013-08-25T21:32:04.000Z",
		"name": "Cotton Candy Residence 2",
		"id": "51a3ce00498e1300ffabc88e",
		"lat": 47.50928216012272,
		"lng": 19.080727604787995,
		"city": "Budapest",
		"country": "Magyarország",
		"categories": [
			"Home (private)"
		]
	},
	{
		"date": "2013-08-26T15:23:07.000Z",
		"name": "Docler Holding Irodaház",
		"id": "4b503f8af964a520171f27e3",
		"lat": 47.49694118099851,
		"lng": 19.117601577085395,
		"address": "Expó tér 5-7.",
		"postalCode": "1101",
		"city": "Budapest",
		"country": "Magyarország",
		"categories": [
			"Office"
		]
	},
	{
		"date": "2013-08-26T15:23:32.000Z",
		"name": "DuoDecad Kft.",
		"id": "4e4b84b5b0fbbc2182acff38",
		"lat": 47.496434392414756,
		"lng": 19.118222320749695,
		"address": "Expo tér 5-7.",
		"postalCode": "1101",
		"city": "Budapest",
		"country": "Magyarország",
		"categories": [
			"Office",
			"Coworking Space"
		]
	},
	{
		"date": "2013-08-26T17:15:02.000Z",
		"name": "Corvin Plaza",
		"id": "4cc701eabe40a35d1d6a8d4c",
		"lat": 47.486046352980296,
		"lng": 19.07288581182118,
		"address": "Futó u. 37-45.",
		"postalCode": "1083",
		"city": "Budapest",
		"country": "Magyarország",
		"categories": [
			"Shopping Mall"
		]
	},
	{
		"date": "2013-08-26T17:19:21.000Z",
		"name": "Corvin Dumaszínház",
		"id": "4f3123714fc677646e78d598",
		"lat": 47.48576996433174,
		"lng": 19.075656056322988,
		"address": "Corvin sétány 1/b",
		"postalCode": "1083",
		"city": "Budapest",
		"country": "Magyarország",
		"categories": [
			"Comedy Club"
		]
	},
	{
		"date": "2013-08-27T13:08:33.000Z",
		"name": "Docler Holding Irodaház",
		"id": "4b503f8af964a520171f27e3",
		"lat": 47.49694118099851,
		"lng": 19.117601577085395,
		"address": "Expó tér 5-7.",
		"postalCode": "1101",
		"city": "Budapest",
		"country": "Magyarország",
		"categories": [
			"Office"
		]
	},
	{
		"date": "2013-08-27T13:09:23.000Z",
		"name": "DuoDecad Kft.",
		"id": "4e4b84b5b0fbbc2182acff38",
		"lat": 47.496434392414756,
		"lng": 19.118222320749695,
		"address": "Expo tér 5-7.",
		"postalCode": "1101",
		"city": "Budapest",
		"country": "Magyarország",
		"categories": [
			"Office",
			"Coworking Space"
		]
	},
	{
		"date": "2013-08-27T17:30:01.000Z",
		"name": "Cotton Candy Residence 2",
		"id": "51a3ce00498e1300ffabc88e",
		"lat": 47.50928216012272,
		"lng": 19.080727604787995,
		"city": "Budapest",
		"country": "Magyarország",
		"categories": [
			"Home (private)"
		]
	},
	{
		"date": "2013-08-28T09:59:05.000Z",
		"name": "Docler Holding Irodaház",
		"id": "4b503f8af964a520171f27e3",
		"lat": 47.49694118099851,
		"lng": 19.117601577085395,
		"address": "Expó tér 5-7.",
		"postalCode": "1101",
		"city": "Budapest",
		"country": "Magyarország",
		"categories": [
			"Office"
		]
	},
	{
		"date": "2013-08-28T16:41:56.000Z",
		"name": "DuoDecad Kft.",
		"id": "4e4b84b5b0fbbc2182acff38",
		"lat": 47.496434392414756,
		"lng": 19.118222320749695,
		"address": "Expo tér 5-7.",
		"postalCode": "1101",
		"city": "Budapest",
		"country": "Magyarország",
		"categories": [
			"Office",
			"Coworking Space"
		]
	},
	{
		"date": "2013-08-28T17:35:07.000Z",
		"name": "Cotton Candy Residence 2",
		"id": "51a3ce00498e1300ffabc88e",
		"lat": 47.50928216012272,
		"lng": 19.080727604787995,
		"city": "Budapest",
		"country": "Magyarország",
		"categories": [
			"Home (private)"
		]
	},
	{
		"date": "2013-08-29T10:56:10.000Z",
		"name": "Docler Holding Irodaház",
		"id": "4b503f8af964a520171f27e3",
		"lat": 47.49694118099851,
		"lng": 19.117601577085395,
		"address": "Expó tér 5-7.",
		"postalCode": "1101",
		"city": "Budapest",
		"country": "Magyarország",
		"categories": [
			"Office"
		]
	},
	{
		"date": "2013-08-29T10:56:40.000Z",
		"name": "DuoDecad Kft.",
		"id": "4e4b84b5b0fbbc2182acff38",
		"lat": 47.496434392414756,
		"lng": 19.118222320749695,
		"address": "Expo tér 5-7.",
		"postalCode": "1101",
		"city": "Budapest",
		"country": "Magyarország",
		"categories": [
			"Office",
			"Coworking Space"
		]
	},
	{
		"date": "2013-08-29T18:46:13.000Z",
		"name": "Cotton Candy Residence 2",
		"id": "51a3ce00498e1300ffabc88e",
		"lat": 47.50928216012272,
		"lng": 19.080727604787995,
		"city": "Budapest",
		"country": "Magyarország",
		"categories": [
			"Home (private)"
		]
	},
	{
		"date": "2013-08-30T07:40:40.000Z",
		"name": "Docler Holding Irodaház",
		"id": "4b503f8af964a520171f27e3",
		"lat": 47.49694118099851,
		"lng": 19.117601577085395,
		"address": "Expó tér 5-7.",
		"postalCode": "1101",
		"city": "Budapest",
		"country": "Magyarország",
		"categories": [
			"Office"
		]
	},
	{
		"date": "2013-08-30T07:41:02.000Z",
		"name": "DuoDecad Kft.",
		"id": "4e4b84b5b0fbbc2182acff38",
		"lat": 47.496434392414756,
		"lng": 19.118222320749695,
		"address": "Expo tér 5-7.",
		"postalCode": "1101",
		"city": "Budapest",
		"country": "Magyarország",
		"categories": [
			"Office",
			"Coworking Space"
		]
	},
	{
		"date": "2013-08-30T16:40:14.000Z",
		"name": "Árkád",
		"id": "4b633a37f964a520076c2ae3",
		"lat": 47.502778918320374,
		"lng": 19.138653558212173,
		"address": "Örs vezér tere 25.",
		"postalCode": "1106",
		"city": "Budapest",
		"country": "Magyarország",
		"categories": [
			"Shopping Mall"
		]
	},
	{
		"date": "2013-08-30T16:52:47.000Z",
		"name": "Árkád",
		"id": "4b633a37f964a520076c2ae3",
		"lat": 47.502778918320374,
		"lng": 19.138653558212173,
		"address": "Örs vezér tere 25.",
		"postalCode": "1106",
		"city": "Budapest",
		"country": "Magyarország",
		"categories": [
			"Shopping Mall"
		]
	},
	{
		"date": "2013-08-30T16:53:01.000Z",
		"name": "iSTYLE Árkád",
		"id": "5146157ee4b0ff6e337d2b7a",
		"lat": 47.503381878739134,
		"lng": 19.14096428826709,
		"address": "Árkád",
		"postalCode": "1106",
		"city": "Budapest",
		"country": "Magyarország",
		"categories": [
			"Electronics Store"
		]
	},
	{
		"date": "2013-08-30T20:53:17.000Z",
		"name": "Cotton Candy Residence 2",
		"id": "51a3ce00498e1300ffabc88e",
		"lat": 47.50928216012272,
		"lng": 19.080727604787995,
		"city": "Budapest",
		"country": "Magyarország",
		"categories": [
			"Home (private)"
		]
	},
	{
		"date": "2013-08-31T10:42:39.000Z",
		"name": "Garay Center és Piac",
		"id": "4bf1d4efa09076b05aef29d4",
		"lat": 47.50401177967707,
		"lng": 19.08554606082026,
		"address": "Garay tér",
		"postalCode": "1076",
		"city": "Budapest",
		"country": "Magyarország",
		"categories": [
			"Farmers Market",
			"Shopping Mall",
			"Shopping Plaza"
		]
	},
	{
		"date": "2013-08-31T10:47:11.000Z",
		"name": "Garay Center és Piac",
		"id": "4bf1d4efa09076b05aef29d4",
		"lat": 47.50401177967707,
		"lng": 19.08554606082026,
		"address": "Garay tér",
		"postalCode": "1076",
		"city": "Budapest",
		"country": "Magyarország",
		"categories": [
			"Farmers Market",
			"Shopping Mall",
			"Shopping Plaza"
		]
	},
	{
		"date": "2013-08-31T11:30:24.000Z",
		"name": "Cotton Candy Residence 2",
		"id": "51a3ce00498e1300ffabc88e",
		"lat": 47.50928216012272,
		"lng": 19.080727604787995,
		"city": "Budapest",
		"country": "Magyarország",
		"categories": [
			"Home (private)"
		]
	},
	{
		"date": "2013-08-31T22:08:39.000Z",
		"name": "City Park (Városliget)",
		"id": "4b900084f964a520656f33e3",
		"lat": 47.51488195170639,
		"lng": 19.085655212402344,
		"address": "Városliget",
		"postalCode": "1071",
		"city": "Budapest",
		"country": "Magyarország",
		"categories": [
			"Park"
		]
	},
	{
		"date": "2013-08-31T22:09:13.000Z",
		"name": "Vajdahunyad Castle (Vajdahunyad vára)",
		"id": "4bb71e0546d4a593a71bc7c0",
		"lat": 47.51505586122063,
		"lng": 19.082844257354736,
		"address": "Városliget",
		"postalCode": "1146",
		"city": "Budapest",
		"country": "Magyarország",
		"categories": [
			"Castle",
			"Historic Site"
		]
	},
	{
		"date": "2013-08-31T23:15:17.000Z",
		"name": "Cotton Candy Residence 2",
		"id": "51a3ce00498e1300ffabc88e",
		"lat": 47.50928216012272,
		"lng": 19.080727604787995,
		"city": "Budapest",
		"country": "Magyarország",
		"categories": [
			"Home (private)"
		]
	}
]