[
	{
		"name": "Mežpils",
		"date": "2017-09-01T13:55:36.000Z",
		"serving": "Draft",
		"brewery": {
			"name": "Aldaris",
			"country": "Latvia",
			"city": "Riga",
			"state": "Vidzeme"
		},
		"venue": {
			"name": "Il Patio & Planet Sushi",
			"country": "Latvija",
			"city": "Rīga",
			"state": "Riga",
			"lat": 56.948,
			"lng": 24.1131
		},
		"ibu": 0,
		"abv": 5.3,
		"flavor": [
			"malty",
			"light"
		],
		"type": "Pilsner - Other",
		"rating": 3.5
	},
	{
		"name": "Mežpils",
		"date": "2017-09-01T21:10:20.000Z",
		"serving": "Draft",
		"brewery": {
			"name": "Aldaris",
			"country": "Latvia",
			"city": "Riga",
			"state": "Vidzeme"
		},
		"venue": {
			"name": "DEPO",
			"country": "Latvija",
			"city": "Rīga",
			"state": "Riga",
			"lat": 56.9467,
			"lng": 24.114
		},
		"ibu": 0,
		"abv": 5.3,
		"flavor": [
			"malty",
			"light",
			"stale"
		],
		"type": "Pilsner - Other",
		"rating": 3.5
	},
	{
		"name": "1865",
		"date": "2017-09-01T21:11:28.000Z",
		"serving": "Draft",
		"brewery": {
			"name": "Aldaris",
			"country": "Latvia",
			"city": "Riga",
			"state": "Vidzeme"
		},
		"venue": {
			"name": "DEPO",
			"country": "Latvija",
			"city": "Rīga",
			"state": "Riga",
			"lat": 56.9467,
			"lng": 24.114
		},
		"ibu": 20,
		"abv": 4.8,
		"flavor": [
			"herbal",
			"sweet",
			"smooth"
		],
		"type": "Lager - Pale",
		"rating": 3
	},
	{
		"name": "Tattoo Lager",
		"date": "2017-09-02T16:32:13.000Z",
		"serving": "Bottle",
		"brewery": {
			"name": "Genys Brewing Co.",
			"country": "Lithuania",
			"city": "Kaunas",
			"state": "Kauno apskritis"
		},
		"venue": {
			"name": "Knygų Ministerija",
			"country": "Lietuva",
			"city": "Kaunas",
			"state": "Kauno apskritis",
			"lat": 54.8971,
			"lng": 23.9191
		},
		"ibu": 20,
		"abv": 4,
		"flavor": [
			"malty",
			"earthy",
			"light",
			"smooth"
		],
		"type": "Lager - Pale",
		"rating": 3.25
	},
	{
		"name": "Užavas Tumšais",
		"date": "2017-09-03T14:21:17.000Z",
		"serving": "Draft",
		"brewery": {
			"name": "Užavas Alus",
			"country": "Latvia",
			"city": "Ventspils",
			"state": "Kurzeme"
		},
		"venue": {
			"name": "Krogs Zītari",
			"country": "Latvija",
			"city": "Ventspils",
			"state": "Ventspils",
			"lat": 57.3976,
			"lng": 21.567
		},
		"ibu": 0,
		"abv": 4.9,
		"flavor": [
			"malty",
			"light",
			"smooth",
			"dark"
		],
		"type": "Lager - Munich Dunkel",
		"rating": 4
	},
	{
		"name": "Lielvārdes Gaišais",
		"date": "2017-09-04T16:10:59.000Z",
		"serving": "Draft",
		"brewery": {
			"name": "Lāčplēsis",
			"country": "Latvia",
			"city": "Liepāja",
			"state": "Kurzeme"
		},
		"venue": {
			"name": null,
			"country": null,
			"city": null,
			"state": null,
			"lat": null,
			"lng": null
		},
		"ibu": 22,
		"abv": 5.4,
		"flavor": [
			"malty",
			"yeasty",
			"sweet",
			"sour",
			"metallic"
		],
		"type": "Lager - Euro Pale",
		"rating": 3.5
	},
	{
		"name": "Lāčplēsis Ekstra",
		"date": "2017-09-04T19:53:54.000Z",
		"serving": "Draft",
		"brewery": {
			"name": "SIA “Cido Grupa”",
			"country": "Latvia",
			"city": "Riga",
			"state": "Vidzeme"
		},
		"venue": {
			"name": "Bellevue Park Hotel Riga",
			"country": "Latvija",
			"city": "Rīga",
			"state": "Riga",
			"lat": 56.9416,
			"lng": 24.0815
		},
		"ibu": 20,
		"abv": 5.4,
		"flavor": [
			"light",
			"smooth",
			"hoppy",
			"stale"
		],
		"type": "Lager - Euro Pale",
		"rating": 3.5
	},
	{
		"name": "Tripel Karmeliet",
		"date": "2017-09-08T19:11:00.000Z",
		"serving": "",
		"brewery": {
			"name": "Brouwerij Bosteels",
			"country": "Belgium",
			"city": "Buggenhout",
			"state": "Vlaanderen"
		},
		"venue": {
			"name": "Haarlem",
			"country": "Nederland",
			"city": "",
			"state": "Noord-Holland",
			"lat": 52.3892,
			"lng": 4.63838
		},
		"ibu": 16,
		"abv": 8.4,
		"flavor": [
			""
		],
		"type": "Belgian Tripel",
		"rating": 4.25
	},
	{
		"name": "Duvel Tripel Hop Citra",
		"date": "2017-09-08T20:13:08.000Z",
		"serving": "Bottle",
		"brewery": {
			"name": "Duvel Moortgat",
			"country": "Belgium",
			"city": "Puurs",
			"state": "Vlaanderen"
		},
		"venue": {
			"name": "Haarlem",
			"country": "Nederland",
			"city": "",
			"state": "Noord-Holland",
			"lat": 52.3892,
			"lng": 4.63838
		},
		"ibu": 40,
		"abv": 9.5,
		"flavor": [
			"hoppy",
			"citrus",
			"bitter"
		],
		"type": "Belgian Strong Golden Ale",
		"rating": 4
	},
	{
		"name": "Blond",
		"date": "2017-09-08T21:43:50.000Z",
		"serving": "Bottle",
		"brewery": {
			"name": "Koninklijke Brand Bierbrouwerij",
			"country": "Netherlands",
			"city": "Wijlre",
			"state": "Limburg"
		},
		"venue": {
			"name": "Haarlem",
			"country": "Nederland",
			"city": "",
			"state": "Noord-Holland",
			"lat": 52.3892,
			"lng": 4.63838
		},
		"ibu": 36,
		"abv": 8.5,
		"flavor": [
			"fruity",
			"heavy",
			"sweet",
			"hoppy"
		],
		"type": "Belgian Strong Golden Ale",
		"rating": 3.5
	},
	{
		"name": "Southern Pale Ale",
		"date": "2017-09-16T17:54:30.000Z",
		"serving": "Bottle",
		"brewery": {
			"name": "Monteith's Brewing Co. ",
			"country": "New Zealand",
			"city": "Greymouth",
			"state": "West Coast"
		},
		"venue": {
			"name": "Haarlem",
			"country": "Nederland",
			"city": "",
			"state": "Noord-Holland",
			"lat": 52.3892,
			"lng": 4.63838
		},
		"ibu": 23,
		"abv": 4.6,
		"flavor": [
			"light",
			"smooth",
			"hoppy"
		],
		"type": "Pale Ale - New Zealand",
		"rating": 4
	},
	{
		"name": "Witte Vrouwen",
		"date": "2017-09-16T18:15:46.000Z",
		"serving": "Bottle",
		"brewery": {
			"name": "Brouwerij De Leckere",
			"country": "Netherlands",
			"city": "Utrecht",
			"state": "Utrecht"
		},
		"venue": {
			"name": "Haarlem",
			"country": "Nederland",
			"city": "",
			"state": "Noord-Holland",
			"lat": 52.3892,
			"lng": 4.63838
		},
		"ibu": 14,
		"abv": 5,
		"flavor": [
			"light",
			"sour",
			"smooth"
		],
		"type": "Wheat Beer - Witbier",
		"rating": 4.5
	},
	{
		"name": "Westmalle Trappist Dubbel",
		"date": "2017-09-16T19:32:46.000Z",
		"serving": "Bottle",
		"brewery": {
			"name": "Brouwerij der Trappisten van Westmalle",
			"country": "Belgium",
			"city": "Malle",
			"state": "Vlaanderen"
		},
		"venue": {
			"name": "Haarlem",
			"country": "Nederland",
			"city": "",
			"state": "Noord-Holland",
			"lat": 52.3892,
			"lng": 4.63838
		},
		"ibu": 24,
		"abv": 7,
		"flavor": [
			"malty",
			"sweet",
			"strong",
			"smooth",
			"dark"
		],
		"type": "Belgian Dubbel",
		"rating": 4
	},
	{
		"name": "La Goudale - Blonde à l'ancienne",
		"date": "2017-09-16T20:38:58.000Z",
		"serving": "Bottle",
		"brewery": {
			"name": "Brasserie Goudale - Les Brasseurs de Gayant",
			"country": "France",
			"city": "Arques",
			"state": "Hauts-de-France"
		},
		"venue": {
			"name": "Haarlem",
			"country": "Nederland",
			"city": "",
			"state": "Noord-Holland",
			"lat": 52.3892,
			"lng": 4.63838
		},
		"ibu": 28,
		"abv": 7.2,
		"flavor": [
			"malty",
			"sweet",
			"strong",
			"smooth"
		],
		"type": "Farmhouse Ale - Bière de Garde",
		"rating": 4
	},
	{
		"name": "The Last Possession",
		"date": "2017-09-16T21:28:49.000Z",
		"serving": "Bottle",
		"brewery": {
			"name": "Butcher’s Tears",
			"country": "Netherlands",
			"city": "Amsterdam",
			"state": "Noord-Holland"
		},
		"venue": {
			"name": "Haarlem",
			"country": "Nederland",
			"city": "",
			"state": "Noord-Holland",
			"lat": 52.3892,
			"lng": 4.63838
		},
		"ibu": 0,
		"abv": 5,
		"flavor": [
			"malty",
			"full",
			"light",
			"sweet",
			"smooth"
		],
		"type": "Red Ale - Other",
		"rating": 4
	},
	{
		"name": "Trappist Ale",
		"date": "2017-09-16T21:35:27.000Z",
		"serving": "Bottle",
		"brewery": {
			"name": "Spencer Brewery",
			"country": "United States",
			"city": "Spencer",
			"state": "MA"
		},
		"venue": {
			"name": "Haarlem",
			"country": "Nederland",
			"city": "",
			"state": "Noord-Holland",
			"lat": 52.3892,
			"lng": 4.63838
		},
		"ibu": 23,
		"abv": 6.5,
		"flavor": [
			""
		],
		"type": "Patersbier",
		"rating": 4.5
	},
	{
		"name": "Woodchuck Amber Hard Cider",
		"date": "2017-09-20T13:38:25.000Z",
		"serving": "Draft",
		"brewery": {
			"name": "Woodchuck Cidery",
			"country": "United States",
			"city": "Middlebury",
			"state": "VT"
		},
		"venue": {
			"name": "Burgers & Shakes",
			"country": "United States",
			"city": "Miami Beach",
			"state": "FL",
			"lat": 25.8596,
			"lng": -80.121
		},
		"ibu": 0,
		"abv": 5,
		"flavor": [
			"light",
			"sweet",
			"tart",
			"apple",
			"smooth"
		],
		"type": "Cider - Traditional",
		"rating": 4.25
	},
	{
		"name": "Cass Fresh",
		"date": "2017-09-21T15:50:04.000Z",
		"serving": "Bottle",
		"brewery": {
			"name": "Oriental Brewery",
			"country": "South Korea",
			"city": "Seoul",
			"state": "서울특별시"
		},
		"venue": {
			"name": "Choi Ga Nei",
			"country": "United States",
			"city": "Los Angeles",
			"state": "CA",
			"lat": 34.0616,
			"lng": -118.312
		},
		"ibu": 0,
		"abv": 4.5,
		"flavor": [
			"clean",
			"light",
			"sweet",
			"smooth"
		],
		"type": "Lager - American",
		"rating": 3
	},
	{
		"name": "Dos Equis Ambar",
		"date": "2017-09-23T13:09:57.000Z",
		"serving": "Bottle",
		"brewery": {
			"name": "Cervecería Cuauhtémoc Moctezuma S.A. de C.V.",
			"country": "Mexico",
			"city": "Monterrey",
			"state": "Nuevo León"
		},
		"venue": {
			"name": "Black Sheep",
			"country": "United States",
			"city": "North Bay Village",
			"state": "FL",
			"lat": 25.8479,
			"lng": -80.1465
		},
		"ibu": 25,
		"abv": 4.7,
		"flavor": [
			"malty",
			"light",
			"sweet",
			"smooth",
			"dark"
		],
		"type": "Lager - Vienna",
		"rating": 4
	},
	{
		"name": "Bud Light",
		"date": "2017-09-23T21:00:45.000Z",
		"serving": "Can",
		"brewery": {
			"name": "Anheuser-Busch",
			"country": "United States",
			"city": "St. Louis",
			"state": "MO"
		},
		"venue": {
			"name": null,
			"country": null,
			"city": null,
			"state": null,
			"lat": null,
			"lng": null
		},
		"ibu": 6,
		"abv": 4.2,
		"flavor": [
			"light",
			"smooth"
		],
		"type": "Lager - American Light",
		"rating": 2.5
	},
	{
		"name": "Corona Extra",
		"date": "2017-09-25T21:36:42.000Z",
		"serving": "Bottle",
		"brewery": {
			"name": "Grupo Modelo",
			"country": "Mexico",
			"city": "Nava",
			"state": "Coahuila de Zaragoza"
		},
		"venue": {
			"name": "Finnegans Way",
			"country": "United States",
			"city": "Miami Beach",
			"state": "FL",
			"lat": 25.7847,
			"lng": -80.1299
		},
		"ibu": 19,
		"abv": 4.5,
		"flavor": [
			"light",
			"smooth"
		],
		"type": "Lager - American",
		"rating": 4.5
	},
	{
		"name": "Alfa Ongefilterd Puur",
		"date": "2017-09-27T19:14:25.000Z",
		"serving": "Draft",
		"brewery": {
			"name": "Alfa Bierbrouwerij",
			"country": "Netherlands",
			"city": "Schinnen",
			"state": "Limburg"
		},
		"venue": {
			"name": "Bierfabriek",
			"country": "Nederland",
			"city": "Amsterdam",
			"state": "Noord-Holland",
			"lat": 52.3699,
			"lng": 4.89346
		},
		"ibu": 0,
		"abv": 5,
		"flavor": [
			"clean",
			"light",
			"smooth"
		],
		"type": "Kellerbier / Zwickelbier",
		"rating": 4
	},
	{
		"name": "Nero",
		"date": "2017-09-27T20:06:52.000Z",
		"serving": "Draft",
		"brewery": {
			"name": "De Bierfabriek",
			"country": "Netherlands",
			"city": "Amsterdam",
			"state": "Noord-Holland"
		},
		"venue": {
			"name": "Bierfabriek",
			"country": "Nederland",
			"city": "Amsterdam",
			"state": "Noord-Holland",
			"lat": 52.3699,
			"lng": 4.89346
		},
		"ibu": 120,
		"abv": 5.8,
		"flavor": [
			"sweet",
			"smooth",
			"dark",
			"coffee"
		],
		"type": "Porter - Other",
		"rating": 4
	},
	{
		"name": "Smithwick's",
		"date": "2017-09-27T21:02:35.000Z",
		"serving": "Draft",
		"brewery": {
			"name": "Guinness",
			"country": "Ireland",
			"city": "Saint James' Gate",
			"state": "Leinster"
		},
		"venue": {
			"name": "Nelly's Inn",
			"country": "Nederland",
			"city": "Amsterdam",
			"state": "Noord-Holland",
			"lat": 52.3741,
			"lng": 4.89658
		},
		"ibu": 0,
		"abv": 4.5,
		"flavor": [
			"malty",
			"light",
			"smooth"
		],
		"type": "Red Ale - Irish",
		"rating": 4
	},
	{
		"name": "Goose IPA",
		"date": "2017-09-28T16:15:35.000Z",
		"serving": "Draft",
		"brewery": {
			"name": "Goose Island Beer Co.",
			"country": "United States",
			"city": "Chicago",
			"state": "IL"
		},
		"venue": {
			"name": "Cannibale Royale",
			"country": "Nederland",
			"city": "Amsterdam",
			"state": "Noord-Holland",
			"lat": 52.3536,
			"lng": 4.88707
		},
		"ibu": 55,
		"abv": 5.9,
		"flavor": [
			"fruity",
			"light",
			"sweet",
			"smooth",
			"hoppy"
		],
		"type": "IPA - English",
		"rating": 4.25
	},
	{
		"name": "Goose IPA",
		"date": "2017-09-28T17:34:01.000Z",
		"serving": "Draft",
		"brewery": {
			"name": "Goose Island Beer Co.",
			"country": "United States",
			"city": "Chicago",
			"state": "IL"
		},
		"venue": {
			"name": "Cannibale Royale",
			"country": "Nederland",
			"city": "Amsterdam",
			"state": "Noord-Holland",
			"lat": 52.3536,
			"lng": 4.88707
		},
		"ibu": 55,
		"abv": 5.9,
		"flavor": [
			"fruity",
			"light",
			"sweet",
			"smooth",
			"hoppy"
		],
		"type": "IPA - English",
		"rating": 4.25
	},
	{
		"name": "Weizen",
		"date": "2017-09-29T14:30:44.000Z",
		"serving": "Draft",
		"brewery": {
			"name": "Koninklijke Brand Bierbrouwerij",
			"country": "Netherlands",
			"city": "Wijlre",
			"state": "Limburg"
		},
		"venue": {
			"name": "WeWork Metropool",
			"country": "Nederland",
			"city": "Amsterdam",
			"state": "Noord-Holland",
			"lat": 52.3648,
			"lng": 4.90619
		},
		"ibu": 12,
		"abv": 5,
		"flavor": [
			"banana",
			"light",
			"sweet",
			"smooth"
		],
		"type": "Hefeweizen",
		"rating": 4
	}
]