[
	{
		"name": "Yakima Red",
		"date": "2017-07-01T12:44:34.000Z",
		"serving": "Draft",
		"brewery": {
			"name": "Meantime Brewing Company",
			"country": "England",
			"city": "City of London",
			"state": "London"
		},
		"venue": {
			"name": "Park Maasboulevard",
			"country": "Nederland",
			"city": "Schiedam",
			"state": "Zuid-Holland",
			"lat": 51.9014,
			"lng": 4.40308
		},
		"ibu": 45,
		"abv": 4.1,
		"flavor": [
			"fruity",
			"light",
			"hoppy"
		],
		"type": "Red Ale - American Amber / Red",
		"rating": 4
	},
	{
		"name": "Franziskaner Premium Weissbier Dunkel",
		"date": "2017-07-01T19:32:49.000Z",
		"serving": "Bottle",
		"brewery": {
			"name": "Spaten-Franziskaner-Löwenbräu-Gruppe",
			"country": "Germany",
			"city": "Munich",
			"state": "Bayern"
		},
		"venue": {
			"name": "Haarlem",
			"country": "Nederland",
			"city": "",
			"state": "Noord-Holland",
			"lat": 52.3892,
			"lng": 4.63838
		},
		"ibu": 10,
		"abv": 5,
		"flavor": [
			"malty",
			"sweet",
			"smooth",
			"dark"
		],
		"type": "Dunkelweizen",
		"rating": 5
	},
	{
		"name": "Benediktiner Weissbier Dunkel",
		"date": "2017-07-01T20:48:39.000Z",
		"serving": "Bottle",
		"brewery": {
			"name": "Benediktiner Weißbräu",
			"country": "Germany",
			"city": "82488 Ettal",
			"state": ""
		},
		"venue": {
			"name": "Haarlem",
			"country": "Nederland",
			"city": "",
			"state": "Noord-Holland",
			"lat": 52.3892,
			"lng": 4.63838
		},
		"ibu": 13,
		"abv": 5.4,
		"flavor": [
			""
		],
		"type": "Dunkelweizen",
		"rating": 4.5
	},
	{
		"name": "Tripel Karmeliet",
		"date": "2017-07-02T18:24:39.000Z",
		"serving": "Bottle",
		"brewery": {
			"name": "Brouwerij Bosteels",
			"country": "Belgium",
			"city": "Buggenhout",
			"state": "Vlaanderen"
		},
		"venue": {
			"name": "Haarlem",
			"country": "Nederland",
			"city": "",
			"state": "Noord-Holland",
			"lat": 52.3892,
			"lng": 4.63838
		},
		"ibu": 16,
		"abv": 8.4,
		"flavor": [
			"fruity",
			"light",
			"strong",
			"smooth"
		],
		"type": "Belgian Tripel",
		"rating": 4
	},
	{
		"name": "Franziskaner Premium Weissbier Dunkel",
		"date": "2017-07-02T22:38:57.000Z",
		"serving": "Bottle",
		"brewery": {
			"name": "Spaten-Franziskaner-Löwenbräu-Gruppe",
			"country": "Germany",
			"city": "Munich",
			"state": "Bayern"
		},
		"venue": {
			"name": "Haarlem",
			"country": "Nederland",
			"city": "",
			"state": "Noord-Holland",
			"lat": 52.3892,
			"lng": 4.63838
		},
		"ibu": 10,
		"abv": 5,
		"flavor": [
			"malty",
			"smooth",
			"dark"
		],
		"type": "Dunkelweizen",
		"rating": 5
	},
	{
		"name": "Gin Weizen",
		"date": "2017-07-07T17:13:48.000Z",
		"serving": "Bottle",
		"brewery": {
			"name": "Gebrouwen Door Vrouwen",
			"country": "Netherlands",
			"city": "Amsterdam",
			"state": "Noord-Holland"
		},
		"venue": {
			"name": "Lokaal Edel",
			"country": "Nederland",
			"city": "Amsterdam",
			"state": "Noord-Holland",
			"lat": 52.3641,
			"lng": 4.85929
		},
		"ibu": 16,
		"abv": 6,
		"flavor": [
			"juniper",
			"fruity",
			"light"
		],
		"type": "Hefeweizen",
		"rating": 4.5
	},
	{
		"name": "Funky Falcon",
		"date": "2017-07-07T18:18:40.000Z",
		"serving": "Bottle",
		"brewery": {
			"name": "Two Chefs Brewing",
			"country": "Netherlands",
			"city": "Amsterdam",
			"state": "Noord-Holland"
		},
		"venue": {
			"name": "Lokaal Edel",
			"country": "Nederland",
			"city": "Amsterdam",
			"state": "Noord-Holland",
			"lat": 52.3641,
			"lng": 4.85929
		},
		"ibu": 25,
		"abv": 5.2,
		"flavor": [
			"light",
			"hoppy",
			"bitter"
		],
		"type": "Pale Ale - American",
		"rating": 3.75
	},
	{
		"name": "Mannenliefde",
		"date": "2017-07-07T19:33:49.000Z",
		"serving": "Draft",
		"brewery": {
			"name": "Oedipus Brewing",
			"country": "Netherlands",
			"city": "Amsterdam",
			"state": "Noord-Holland"
		},
		"venue": {
			"name": "Radijs",
			"country": "Nederland",
			"city": "Amsterdam",
			"state": "Noord-Holland",
			"lat": 52.371,
			"lng": 4.85676
		},
		"ibu": 25,
		"abv": 6,
		"flavor": [
			"fruity",
			"light",
			"hoppy"
		],
		"type": "Farmhouse Ale - Saison",
		"rating": 3.5
	},
	{
		"name": "La Chouffe Blond",
		"date": "2017-07-15T16:17:38.000Z",
		"serving": "Bottle",
		"brewery": {
			"name": "Brasserie d'Achouffe",
			"country": "Belgium",
			"city": "Achouffe",
			"state": "Wallonie"
		},
		"venue": {
			"name": "Haarlem",
			"country": "Nederland",
			"city": "",
			"state": "Noord-Holland",
			"lat": 52.3892,
			"lng": 4.63838
		},
		"ibu": 20,
		"abv": 8,
		"flavor": [
			"sweet",
			"strong",
			"smooth"
		],
		"type": "Belgian Strong Golden Ale",
		"rating": 4
	},
	{
		"name": "Premium Pils",
		"date": "2017-07-16T12:13:29.000Z",
		"serving": "Bottle",
		"brewery": {
			"name": "Hasseröder Brauerei",
			"country": "Germany",
			"city": "Wernigerode",
			"state": "Sachsen-Anhalt"
		},
		"venue": {
			"name": "Haarlem",
			"country": "Nederland",
			"city": "",
			"state": "Noord-Holland",
			"lat": 52.3892,
			"lng": 4.63838
		},
		"ibu": 28,
		"abv": 4.9,
		"flavor": [
			"clean",
			"light",
			"smooth"
		],
		"type": "Pilsner - German",
		"rating": 4
	},
	{
		"name": "Dutch Eagle (-2018)",
		"date": "2017-07-16T14:59:33.000Z",
		"serving": "",
		"brewery": {
			"name": "Morebeer Brewing",
			"country": "Netherlands",
			"city": "Amsterdam",
			"state": "Noord-Holland"
		},
		"venue": {
			"name": "Proeflokaal Arendsnest",
			"country": "Nederland",
			"city": "Amsterdam",
			"state": "Noord-Holland",
			"lat": 52.3767,
			"lng": 4.88956
		},
		"ibu": 35,
		"abv": 5.5,
		"flavor": [
			"fruity",
			"hoppy",
			"citrus",
			"bitter"
		],
		"type": "Pale Ale - International",
		"rating": 4
	},
	{
		"name": "Gerardus Dubbel",
		"date": "2017-07-16T15:47:29.000Z",
		"serving": "Draft",
		"brewery": {
			"name": "Gulpener Bierbrouwerij",
			"country": "Netherlands",
			"city": "Gulpen",
			"state": "Limburg"
		},
		"venue": {
			"name": "Proeflokaal Arendsnest",
			"country": "Nederland",
			"city": "Amsterdam",
			"state": "Noord-Holland",
			"lat": 52.3767,
			"lng": 4.88956
		},
		"ibu": 0,
		"abv": 7,
		"flavor": [
			"malty",
			"sweet",
			"dark"
		],
		"type": "Belgian Dubbel",
		"rating": 4.5
	},
	{
		"name": "Mongozo Coconut",
		"date": "2017-07-16T18:22:07.000Z",
		"serving": "Bottle",
		"brewery": {
			"name": "Mongozo",
			"country": "Belgium",
			"city": "Melle",
			"state": "Vlaanderen"
		},
		"venue": {
			"name": "Taytu",
			"country": "Nederland",
			"city": "Amsterdam",
			"state": "Noord-Holland",
			"lat": 52.3576,
			"lng": 4.91316
		},
		"ibu": 0,
		"abv": 3.6,
		"flavor": [
			"tropical",
			"fruity",
			"light",
			"sweet",
			"coconut"
		],
		"type": "Fruit Beer",
		"rating": 4
	},
	{
		"name": "La Trappe PUUR",
		"date": "2017-07-20T18:18:21.000Z",
		"serving": "Draft",
		"brewery": {
			"name": "Bierbrouwerij De Koningshoeven",
			"country": "Netherlands",
			"city": "Berkel-Enschot",
			"state": "Noord-Brabant"
		},
		"venue": {
			"name": "Pizzeria Back to Basics",
			"country": "Nederland",
			"city": "",
			"state": "",
			"lat": 52.3827,
			"lng": 4.63148
		},
		"ibu": 25,
		"abv": 4.5,
		"flavor": [
			"clean",
			"light",
			"smooth"
		],
		"type": "Pale Ale - Belgian",
		"rating": 4
	},
	{
		"name": "Malle Babbe",
		"date": "2017-07-26T20:29:53.000Z",
		"serving": "Bottle",
		"brewery": {
			"name": "Jopen",
			"country": "Netherlands",
			"city": "Haarlem",
			"state": "Noord-Holland"
		},
		"venue": {
			"name": "Haarlem",
			"country": "Nederland",
			"city": "",
			"state": "Noord-Holland",
			"lat": 52.3892,
			"lng": 4.63838
		},
		"ibu": 12,
		"abv": 5.5,
		"flavor": [
			"fruity",
			"light",
			"sweet",
			"sour"
		],
		"type": "Dunkelweizen",
		"rating": 4
	},
	{
		"name": "Sommerweiße",
		"date": "2017-07-29T12:34:38.000Z",
		"serving": "Bottle",
		"brewery": {
			"name": "Erdinger Weissbräu",
			"country": "Germany",
			"city": "Erding",
			"state": "Bayern"
		},
		"venue": {
			"name": null,
			"country": null,
			"city": null,
			"state": null,
			"lat": null,
			"lng": null
		},
		"ibu": 10,
		"abv": 4.6,
		"flavor": [
			"citrusy",
			"light",
			"hoppy"
		],
		"type": "Hefeweizen",
		"rating": 4.5
	},
	{
		"name": "Zundert 8",
		"date": "2017-07-29T18:22:50.000Z",
		"serving": "Bottle",
		"brewery": {
			"name": "Trappistenbrouwerij de Kievit B.V.",
			"country": "Netherlands",
			"city": "Klein Zundert",
			"state": "Noord-Brabant"
		},
		"venue": {
			"name": null,
			"country": null,
			"city": null,
			"state": null,
			"lat": null,
			"lng": null
		},
		"ibu": 34,
		"abv": 8,
		"flavor": [
			"fruity",
			"sweet",
			"strong",
			"smooth"
		],
		"type": "Belgian Tripel",
		"rating": 4.5
	},
	{
		"name": "Straffe Hendrik Brugs Tripel Bier 9°",
		"date": "2017-07-29T19:00:34.000Z",
		"serving": "Bottle",
		"brewery": {
			"name": "Brouwerij De Halve Maan",
			"country": "Belgium",
			"city": "Bruges",
			"state": "Vlaanderen"
		},
		"venue": {
			"name": null,
			"country": null,
			"city": null,
			"state": null,
			"lat": null,
			"lng": null
		},
		"ibu": 35,
		"abv": 9,
		"flavor": [
			"light",
			"strong",
			"smooth"
		],
		"type": "Belgian Tripel",
		"rating": 3.75
	},
	{
		"name": "Op & Top",
		"date": "2017-07-30T17:15:38.000Z",
		"serving": "Bottle",
		"brewery": {
			"name": "Brouwerij de Molen",
			"country": "Netherlands",
			"city": "Bodegraven",
			"state": "Zuid-Holland"
		},
		"venue": {
			"name": "Haarlem",
			"country": "Nederland",
			"city": "",
			"state": "Noord-Holland",
			"lat": 52.3892,
			"lng": 4.63838
		},
		"ibu": 38,
		"abv": 4.5,
		"flavor": [
			"fruity",
			"light",
			"dry",
			"hoppy",
			"bitter"
		],
		"type": "Blonde Ale",
		"rating": 3.5
	},
	{
		"name": "Vuur & Vlam",
		"date": "2017-07-30T19:07:48.000Z",
		"serving": "Bottle",
		"brewery": {
			"name": "Brouwerij de Molen",
			"country": "Netherlands",
			"city": "Bodegraven",
			"state": "Zuid-Holland"
		},
		"venue": {
			"name": "Haarlem",
			"country": "Nederland",
			"city": "",
			"state": "Noord-Holland",
			"lat": 52.3892,
			"lng": 4.63838
		},
		"ibu": 63,
		"abv": 6.2,
		"flavor": [
			"dry",
			"hoppy",
			"bitter"
		],
		"type": "IPA - American",
		"rating": 3.5
	},
	{
		"name": "Op & Top",
		"date": "2017-07-31T20:08:07.000Z",
		"serving": "",
		"brewery": {
			"name": "Brouwerij de Molen",
			"country": "Netherlands",
			"city": "Bodegraven",
			"state": "Zuid-Holland"
		},
		"venue": {
			"name": "Haarlem",
			"country": "Nederland",
			"city": "",
			"state": "Noord-Holland",
			"lat": 52.3892,
			"lng": 4.63838
		},
		"ibu": 38,
		"abv": 4.5,
		"flavor": [
			"light",
			"hoppy",
			"bitter"
		],
		"type": "Blonde Ale",
		"rating": 3.5
	}
]