[
	{
		"name": "Bokbier",
		"date": "2017-08-03T19:33:21.000Z",
		"serving": "Bottle",
		"brewery": {
			"name": "Jopen",
			"country": "Netherlands",
			"city": "Haarlem",
			"state": "Noord-Holland"
		},
		"venue": {
			"name": "Haarlem",
			"country": "Nederland",
			"city": "",
			"state": "Noord-Holland",
			"lat": 52.3892,
			"lng": 4.63838
		},
		"ibu": 30,
		"abv": 6.5,
		"flavor": [
			"malty",
			"sweet",
			"smooth",
			"dark"
		],
		"type": "Bock - Single / Traditional",
		"rating": 4
	},
	{
		"name": "Chimay Blue / Bleue / Blauw (Grande Réserve) (2017)",
		"date": "2017-08-04T19:35:03.000Z",
		"serving": "Bottle",
		"brewery": {
			"name": "Bières de Chimay",
			"country": "Belgium",
			"city": "Baileux",
			"state": "Wallonie"
		},
		"venue": {
			"name": "August Allebéplein",
			"country": "Nederland",
			"city": "",
			"state": "",
			"lat": 52.3632,
			"lng": 4.8372
		},
		"ibu": 35,
		"abv": 9,
		"flavor": [
			""
		],
		"type": "Belgian Strong Dark Ale",
		"rating": 4.5
	},
	{
		"name": "Kasteel Donker",
		"date": "2017-08-04T20:12:41.000Z",
		"serving": "Bottle",
		"brewery": {
			"name": "Kasteel Brouwerij Vanhonsebrouck",
			"country": "Belgium",
			"city": "Izegem",
			"state": "Vlaanderen"
		},
		"venue": {
			"name": "August Allebéplein",
			"country": "Nederland",
			"city": "",
			"state": "",
			"lat": 52.3632,
			"lng": 4.8372
		},
		"ibu": 0,
		"abv": 11,
		"flavor": [
			"sweet",
			"strong",
			"dark"
		],
		"type": "Belgian Quadrupel",
		"rating": 4.5
	},
	{
		"name": "Stary Melnik Iz Bochonka Myagkoe (Старый Мельник Из Бочонка Мягкое)",
		"date": "2017-08-05T17:30:22.000Z",
		"serving": "Bottle",
		"brewery": {
			"name": "AB InBev Efes",
			"country": "Russia",
			"city": "Moscow",
			"state": "Москва"
		},
		"venue": {
			"name": "Haarlem",
			"country": "Nederland",
			"city": "",
			"state": "Noord-Holland",
			"lat": 52.3892,
			"lng": 4.63838
		},
		"ibu": 0,
		"abv": 4.3,
		"flavor": [
			"soft",
			"light",
			"watery"
		],
		"type": "Lager - Euro Pale",
		"rating": 4
	},
	{
		"name": "Диканські Вечори",
		"date": "2017-08-05T20:05:35.000Z",
		"serving": "Bottle",
		"brewery": {
			"name": "Полтавпиво (Poltavpivo)",
			"country": "Ukraine",
			"city": "Poltava",
			"state": "Полтавська область"
		},
		"venue": {
			"name": "Haarlem",
			"country": "Nederland",
			"city": "",
			"state": "Noord-Holland",
			"lat": 52.3892,
			"lng": 4.63838
		},
		"ibu": 0,
		"abv": 5.5,
		"flavor": [
			"watery"
		],
		"type": "Lager - Dark",
		"rating": 3.5
	},
	{
		"name": "Adriaan Wit",
		"date": "2017-08-06T20:42:55.000Z",
		"serving": "Bottle",
		"brewery": {
			"name": "Jopen",
			"country": "Netherlands",
			"city": "Haarlem",
			"state": "Noord-Holland"
		},
		"venue": {
			"name": "Haarlem",
			"country": "Nederland",
			"city": "",
			"state": "Noord-Holland",
			"lat": 52.3892,
			"lng": 4.63838
		},
		"ibu": 12,
		"abv": 5,
		"flavor": [
			"fruity",
			"light",
			"smooth"
		],
		"type": "Wheat Beer - Witbier",
		"rating": 4.5
	},
	{
		"name": "Peroni Nastro Azzurro",
		"date": "2017-08-09T19:19:54.000Z",
		"serving": "Bottle",
		"brewery": {
			"name": "Birra Peroni",
			"country": "Italy",
			"city": "Roma",
			"state": "Lazio"
		},
		"venue": {
			"name": "Woodstone Pizza And Wine",
			"country": "Nederland",
			"city": "Haarlem",
			"state": "Noord-Holland",
			"lat": 52.3814,
			"lng": 4.62989
		},
		"ibu": 0,
		"abv": 5.1,
		"flavor": [
			"clean",
			"light"
		],
		"type": "Lager - Euro Pale",
		"rating": 3.5
	},
	{
		"name": "Peroni Nastro Azzurro",
		"date": "2017-08-10T18:11:38.000Z",
		"serving": "Bottle",
		"brewery": {
			"name": "Birra Peroni",
			"country": "Italy",
			"city": "Roma",
			"state": "Lazio"
		},
		"venue": {
			"name": "PvH Europe (Tommy Hilfiger & Calvin Klein)",
			"country": "Nederland",
			"city": "Amsterdam",
			"state": "Noord-Holland",
			"lat": 52.402,
			"lng": 4.87531
		},
		"ibu": 0,
		"abv": 5.1,
		"flavor": [
			"clean",
			"light",
			"smooth"
		],
		"type": "Lager - Euro Pale",
		"rating": 3.75
	},
	{
		"name": "La Trappe Witte Trappist",
		"date": "2017-08-11T21:17:38.000Z",
		"serving": "Bottle",
		"brewery": {
			"name": "Bierbrouwerij De Koningshoeven",
			"country": "Netherlands",
			"city": "Berkel-Enschot",
			"state": "Noord-Brabant"
		},
		"venue": {
			"name": null,
			"country": null,
			"city": null,
			"state": null,
			"lat": null,
			"lng": null
		},
		"ibu": 14,
		"abv": 5.5,
		"flavor": [
			"fruity",
			"light",
			"smooth"
		],
		"type": "Wheat Beer - Witbier",
		"rating": 4.5
	},
	{
		"name": "Zatte",
		"date": "2017-08-11T21:58:07.000Z",
		"serving": "Bottle",
		"brewery": {
			"name": "Brouwerij 't IJ",
			"country": "Netherlands",
			"city": "Amsterdam",
			"state": "Noord-Holland"
		},
		"venue": {
			"name": null,
			"country": null,
			"city": null,
			"state": null,
			"lat": null,
			"lng": null
		},
		"ibu": 19,
		"abv": 8,
		"flavor": [
			"sweet",
			"strong",
			"smooth"
		],
		"type": "Belgian Tripel",
		"rating": 3.75
	},
	{
		"name": "Westmalle Trappist Dubbel",
		"date": "2017-08-11T21:59:14.000Z",
		"serving": "Bottle",
		"brewery": {
			"name": "Brouwerij der Trappisten van Westmalle",
			"country": "Belgium",
			"city": "Malle",
			"state": "Vlaanderen"
		},
		"venue": {
			"name": null,
			"country": null,
			"city": null,
			"state": null,
			"lat": null,
			"lng": null
		},
		"ibu": 24,
		"abv": 7,
		"flavor": [
			"malty",
			"sweet",
			"strong",
			"dark"
		],
		"type": "Belgian Dubbel",
		"rating": 4
	},
	{
		"name": "Witte Vrouwen",
		"date": "2017-08-20T10:56:27.000Z",
		"serving": "Bottle",
		"brewery": {
			"name": "Brouwerij De Leckere",
			"country": "Netherlands",
			"city": "Utrecht",
			"state": "Utrecht"
		},
		"venue": {
			"name": "Haarlem",
			"country": "Nederland",
			"city": "",
			"state": "Noord-Holland",
			"lat": 52.3892,
			"lng": 4.63838
		},
		"ibu": 14,
		"abv": 5,
		"flavor": [
			"light",
			"sour",
			"smooth"
		],
		"type": "Wheat Beer - Witbier",
		"rating": 4.5
	},
	{
		"name": "Guinness Draught",
		"date": "2017-08-20T11:41:00.000Z",
		"serving": "Draft",
		"brewery": {
			"name": "Guinness",
			"country": "Ireland",
			"city": "Saint James' Gate",
			"state": "Leinster"
		},
		"venue": {
			"name": "The Wolfhound",
			"country": "Nederland",
			"city": "Haarlem",
			"state": "Noord-Holland",
			"lat": 52.3814,
			"lng": 4.63799
		},
		"ibu": 45,
		"abv": 4.2,
		"flavor": [
			"creamy",
			"smooth",
			"dark"
		],
		"type": "Stout - Irish Dry",
		"rating": 4.5
	},
	{
		"name": "Meesterstuk (2017)",
		"date": "2017-08-20T14:08:29.000Z",
		"serving": "Draft",
		"brewery": {
			"name": "Jopen",
			"country": "Netherlands",
			"city": "Haarlem",
			"state": "Noord-Holland"
		},
		"venue": {
			"name": "Jopenkerk Haarlem",
			"country": "Nederland",
			"city": "Haarlem",
			"state": "Noord-Holland",
			"lat": 52.3812,
			"lng": 4.62982
		},
		"ibu": 30,
		"abv": 10,
		"flavor": [
			"spicy",
			"heavy",
			"sweet",
			"smooth"
		],
		"type": "Porter - Imperial / Double",
		"rating": 3.5
	},
	{
		"name": "Weizen",
		"date": "2017-08-22T18:43:00.000Z",
		"serving": "Bottle",
		"brewery": {
			"name": "Koninklijke Brand Bierbrouwerij",
			"country": "Netherlands",
			"city": "Wijlre",
			"state": "Limburg"
		},
		"venue": {
			"name": "De Beren",
			"country": "Nederland",
			"city": "Haarlem",
			"state": "Noord-Holland",
			"lat": 52.3815,
			"lng": 4.62969
		},
		"ibu": 12,
		"abv": 5,
		"flavor": [
			"light",
			"sweet",
			"smooth"
		],
		"type": "Hefeweizen",
		"rating": 4
	},
	{
		"name": "Wieckse Witte",
		"date": "2017-08-22T19:02:20.000Z",
		"serving": "Draft",
		"brewery": {
			"name": "Wieckse",
			"country": "Netherlands",
			"city": "Maastricht",
			"state": "Limburg"
		},
		"venue": {
			"name": "De Beren",
			"country": "Nederland",
			"city": "Haarlem",
			"state": "Noord-Holland",
			"lat": 52.3815,
			"lng": 4.62969
		},
		"ibu": 0,
		"abv": 5,
		"flavor": [
			"light",
			"sweet"
		],
		"type": "Wheat Beer - Witbier",
		"rating": 3
	},
	{
		"name": "Kingfisher Premium Lager",
		"date": "2017-08-27T18:34:19.000Z",
		"serving": "Bottle",
		"brewery": {
			"name": "United Breweries",
			"country": "India",
			"city": "",
			"state": "Bangalore"
		},
		"venue": {
			"name": "Haarlem",
			"country": "Nederland",
			"city": "",
			"state": "Noord-Holland",
			"lat": 52.3892,
			"lng": 4.63838
		},
		"ibu": 20,
		"abv": 5,
		"flavor": [
			"malty",
			"light",
			"smooth"
		],
		"type": "Lager - American",
		"rating": 4
	},
	{
		"name": "Kriek Max",
		"date": "2017-08-30T21:32:03.000Z",
		"serving": "Bottle",
		"brewery": {
			"name": "Brouwerij Omer Vander Ghinste",
			"country": "Belgium",
			"city": "Bellegem",
			"state": "Vlaanderen"
		},
		"venue": {
			"name": "Tulip Inn Eindhoven Airport",
			"country": "Nederland",
			"city": "Eindhoven",
			"state": "Noord-Brabant",
			"lat": 51.458,
			"lng": 5.39185
		},
		"ibu": 0,
		"abv": 3.5,
		"flavor": [
			"fruity",
			"sweet",
			"sour"
		],
		"type": "Lambic - Kriek",
		"rating": 3.5
	},
	{
		"name": "Mežpils Tumšais",
		"date": "2017-08-31T14:55:34.000Z",
		"serving": "Draft",
		"brewery": {
			"name": "Aldaris",
			"country": "Latvia",
			"city": "Riga",
			"state": "Vidzeme"
		},
		"venue": {
			"name": "Melnā Bite",
			"country": "Latvija",
			"city": "Rīga",
			"state": "Riga",
			"lat": 56.9471,
			"lng": 24.1125
		},
		"ibu": 20,
		"abv": 5.7,
		"flavor": [
			"malty",
			"sweet",
			"smooth",
			"dark"
		],
		"type": "Schwarzbier",
		"rating": 4
	}
]