[
	{
		"name": "Suiyoubi no Neko (水曜日のネコ)",
		"date": "2018-05-01T19:47:56.000Z",
		"serving": "Can",
		"brewery": {
			"name": "Yo-Ho Brewing Company",
			"country": "Japan",
			"city": "Saku-shi",
			"state": "Nagano"
		},
		"venue": {
			"name": "Ota (大田区)",
			"country": "日本",
			"city": "",
			"state": "東京都",
			"lat": 35.5603,
			"lng": 139.727
		},
		"ibu": 11,
		"abv": 5,
		"flavor": [
			"clean",
			"light",
			"smooth"
		],
		"type": "Wheat Beer - Witbier",
		"rating": 4.5
	},
	{
		"name": "Ichiban (Ichiban Shibori) (一番搾り)",
		"date": "2018-05-02T11:09:14.000Z",
		"serving": "Draft",
		"brewery": {
			"name": "Kirin Brewery Company",
			"country": "Japan",
			"city": "Nakano-ku",
			"state": "Tokyo"
		},
		"venue": {
			"name": "とんこつらぁ麺 CHABUTON 京都ヨドバシ店",
			"country": "日本",
			"city": "京都市",
			"state": "京都府",
			"lat": 34.9882,
			"lng": 135.759
		},
		"ibu": 18,
		"abv": 5,
		"flavor": [
			"clean",
			"light",
			"smooth"
		],
		"type": "Lager - Pale",
		"rating": 3.5
	},
	{
		"name": "Ichii Senshin (一意専心)",
		"date": "2018-05-02T16:11:33.000Z",
		"serving": "Draft",
		"brewery": {
			"name": "Kyoto Brewing Company",
			"country": "Japan",
			"city": "Kyoto",
			"state": "京都府"
		},
		"venue": {
			"name": "Man in the Moon 祇園店",
			"country": "日本",
			"city": "京都市",
			"state": "京都府",
			"lat": 35.0052,
			"lng": 135.775
		},
		"ibu": 55,
		"abv": 6.5,
		"flavor": [
			"spicy",
			"fruity",
			"smooth",
			"hoppy"
		],
		"type": "IPA - Belgian",
		"rating": 4
	},
	{
		"name": "Enoshima Beer",
		"date": "2018-05-03T16:45:09.000Z",
		"serving": "Draft",
		"brewery": {
			"name": "Kamakura Beer Brew Co.",
			"country": "Japan",
			"city": "Kamakura-shi",
			"state": "Kanagawa"
		},
		"venue": {
			"name": "Pizzeria&Dining PICO",
			"country": "日本",
			"city": "藤沢市",
			"state": "神奈川県",
			"lat": 35.3092,
			"lng": 139.486
		},
		"ibu": 0,
		"abv": 5.5,
		"flavor": [
			""
		],
		"type": "Kölsch",
		"rating": 4.25
	},
	{
		"name": "Kamakura Moon",
		"date": "2018-05-03T17:34:46.000Z",
		"serving": "Draft",
		"brewery": {
			"name": "Kamakura Beer Brew Co.",
			"country": "Japan",
			"city": "Kamakura-shi",
			"state": "Kanagawa"
		},
		"venue": {
			"name": "Café LivingRoom",
			"country": "日本",
			"city": "藤沢市",
			"state": "神奈川県",
			"lat": 35.3105,
			"lng": 139.487
		},
		"ibu": 0,
		"abv": 5.5,
		"flavor": [
			"malty",
			"rich",
			"sweet"
		],
		"type": "Altbier",
		"rating": 3.5
	},
	{
		"name": "Yebisu (Premium)",
		"date": "2018-05-03T21:16:17.000Z",
		"serving": "Can",
		"brewery": {
			"name": "Sapporo Breweries",
			"country": "Japan",
			"city": "Shibuya-ku",
			"state": "Tokyo"
		},
		"venue": {
			"name": "Ota (大田区)",
			"country": "日本",
			"city": "",
			"state": "東京都",
			"lat": 35.5603,
			"lng": 139.727
		},
		"ibu": 0,
		"abv": 5,
		"flavor": [
			"malty",
			"clean",
			"light",
			"smooth"
		],
		"type": "Lager - Dortmunder / Export",
		"rating": 4
	},
	{
		"name": "Hard Cidre",
		"date": "2018-05-04T12:40:46.000Z",
		"serving": "Bottle",
		"brewery": {
			"name": "Kirin Brewery Company",
			"country": "Japan",
			"city": "Nakano-ku",
			"state": "Tokyo"
		},
		"venue": {
			"name": "gram 京都河原町店",
			"country": "日本",
			"city": "京都市",
			"state": "京都府",
			"lat": 35.0059,
			"lng": 135.769
		},
		"ibu": 0,
		"abv": 5,
		"flavor": [
			"light",
			"sweet",
			"sour",
			"apple"
		],
		"type": "Cider - Traditional",
		"rating": 4
	},
	{
		"name": "Hitachino Nest White Ale",
		"date": "2018-05-05T19:04:16.000Z",
		"serving": "Bottle",
		"brewery": {
			"name": "Kiuchi Brewery",
			"country": "Japan",
			"city": "Naka-shi",
			"state": "Ibaraki"
		},
		"venue": {
			"name": "mango tree cafe + bar",
			"country": "日本",
			"city": "東京",
			"state": "東京都",
			"lat": 35.6288,
			"lng": 139.737
		},
		"ibu": 13,
		"abv": 5.5,
		"flavor": [
			"fruity",
			"light",
			"sweet",
			"smooth"
		],
		"type": "Wheat Beer - Witbier",
		"rating": 4.5
	},
	{
		"name": "Tokyo Craft Pale Ale",
		"date": "2018-05-06T06:33:21.000Z",
		"serving": "Can",
		"brewery": {
			"name": "Suntory Beer Limited",
			"country": "Japan",
			"city": "Minato-ku",
			"state": "Tokyo"
		},
		"venue": {
			"name": "Kansai International Airport (KIX) (関西国際空港)",
			"country": "日本",
			"city": "泉佐野市",
			"state": "大阪府",
			"lat": 34.4357,
			"lng": 135.244
		},
		"ibu": 0,
		"abv": 5,
		"flavor": [
			"light",
			"hoppy",
			"watery"
		],
		"type": "Pale Ale - American",
		"rating": 4
	},
	{
		"name": "Gouverneur Blond",
		"date": "2018-05-06T16:30:31.000Z",
		"serving": "Draft",
		"brewery": {
			"name": "Lindeboom",
			"country": "Netherlands",
			"city": "Neer",
			"state": "Limburg"
		},
		"venue": {
			"name": "Baz Zandvoort",
			"country": "Nederland",
			"city": "Zandvoort",
			"state": "Noord-Holland",
			"lat": 52.3756,
			"lng": 4.52609
		},
		"ibu": 25,
		"abv": 6.5,
		"flavor": [
			"light",
			"sweet"
		],
		"type": "Belgian Blonde",
		"rating": 4
	},
	{
		"name": "Warsteiner Premium Verum / German Pilsener",
		"date": "2018-05-06T17:12:53.000Z",
		"serving": "Bottle",
		"brewery": {
			"name": "Warsteiner",
			"country": "Germany",
			"city": "Warstein",
			"state": "Nordrhein-Westfalen"
		},
		"venue": {
			"name": "La Fontanella",
			"country": "Nederland",
			"city": "Zandvoort",
			"state": "Noord-Holland",
			"lat": 52.3751,
			"lng": 4.5289
		},
		"ibu": 28,
		"abv": 4.8,
		"flavor": [
			"clean",
			"light",
			"smooth"
		],
		"type": "Pilsner - German",
		"rating": 3.75
	},
	{
		"name": "Mannenliefde",
		"date": "2018-05-10T21:56:28.000Z",
		"serving": "Bottle",
		"brewery": {
			"name": "Oedipus Brewing",
			"country": "Netherlands",
			"city": "Amsterdam",
			"state": "Noord-Holland"
		},
		"venue": {
			"name": "Cotton Candy Residence 10",
			"country": "Nederland",
			"city": "Haarlem",
			"state": "Noord-Holland",
			"lat": 52.3929,
			"lng": 4.64054
		},
		"ibu": 25,
		"abv": 6,
		"flavor": [
			"fruity",
			"light",
			"hoppy"
		],
		"type": "Farmhouse Ale - Saison",
		"rating": 4
	},
	{
		"name": "Stick a finger in the soil.",
		"date": "2018-05-12T18:15:30.000Z",
		"serving": "Bottle",
		"brewery": {
			"name": "Mikkeller",
			"country": "Denmark",
			"city": "Copenhagen",
			"state": "Region Hovedstaden"
		},
		"venue": {
			"name": "Cotton Candy Residence 10",
			"country": "Nederland",
			"city": "Haarlem",
			"state": "Noord-Holland",
			"lat": 52.3929,
			"lng": 4.64054
		},
		"ibu": 0,
		"abv": 4.6,
		"flavor": [
			"fruity",
			"hoppy",
			"dry-hop",
			"citrus"
		],
		"type": "Pale Ale - American",
		"rating": 5
	},
	{
		"name": "Dr. Raptor",
		"date": "2018-05-12T20:15:52.000Z",
		"serving": "Bottle",
		"brewery": {
			"name": "Uiltje Brewing Company",
			"country": "Netherlands",
			"city": "Haarlem",
			"state": "Noord-Holland"
		},
		"venue": {
			"name": "Cotton Candy Residence 10",
			"country": "Nederland",
			"city": "Haarlem",
			"state": "Noord-Holland",
			"lat": 52.3929,
			"lng": 4.64054
		},
		"ibu": 75,
		"abv": 9.2,
		"flavor": [
			"heavy",
			"hoppy",
			"bitter"
		],
		"type": "IPA - Imperial / Double",
		"rating": 3.75
	},
	{
		"name": "Dr. Raptor",
		"date": "2018-05-12T21:51:54.000Z",
		"serving": "Bottle",
		"brewery": {
			"name": "Uiltje Brewing Company",
			"country": "Netherlands",
			"city": "Haarlem",
			"state": "Noord-Holland"
		},
		"venue": {
			"name": "Cotton Candy Residence 10",
			"country": "Nederland",
			"city": "Haarlem",
			"state": "Noord-Holland",
			"lat": 52.3929,
			"lng": 4.64054
		},
		"ibu": 75,
		"abv": 9.2,
		"flavor": [
			"heavy",
			"hoppy",
			"bitter"
		],
		"type": "IPA - Imperial / Double",
		"rating": 3.75
	},
	{
		"name": "Heineken",
		"date": "2018-05-16T17:29:40.000Z",
		"serving": "",
		"brewery": {
			"name": "Heineken",
			"country": "Netherlands",
			"city": "Zoeterwoude",
			"state": "Zuid-Holland"
		},
		"venue": {
			"name": "Toolenburg",
			"country": "Nederland",
			"city": "Hoofddorp",
			"state": "Noord-Holland",
			"lat": 52.3054,
			"lng": 4.65788
		},
		"ibu": 19,
		"abv": 5,
		"flavor": [
			"clean",
			"light",
			"smooth"
		],
		"type": "Lager - Euro Pale",
		"rating": 3.25
	},
	{
		"name": "Bloesem Blond",
		"date": "2018-05-18T20:12:26.000Z",
		"serving": "Bottle",
		"brewery": {
			"name": "Gebrouwen Door Vrouwen",
			"country": "Netherlands",
			"city": "Amsterdam",
			"state": "Noord-Holland"
		},
		"venue": {
			"name": "Cotton Candy Residence 10",
			"country": "Nederland",
			"city": "Haarlem",
			"state": "Noord-Holland",
			"lat": 52.3929,
			"lng": 4.64054
		},
		"ibu": 18,
		"abv": 6.2,
		"flavor": [
			"floral",
			"fruity",
			"light"
		],
		"type": "Belgian Blonde",
		"rating": 4.5
	},
	{
		"name": "Me Myself & IPA",
		"date": "2018-05-19T18:23:51.000Z",
		"serving": "Bottle",
		"brewery": {
			"name": "Uiltje Brewing Company",
			"country": "Netherlands",
			"city": "Haarlem",
			"state": "Noord-Holland"
		},
		"venue": {
			"name": "Cotton Candy Residence 10",
			"country": "Nederland",
			"city": "Haarlem",
			"state": "Noord-Holland",
			"lat": 52.3929,
			"lng": 4.64054
		},
		"ibu": 80,
		"abv": 7,
		"flavor": [
			"fruity",
			"smooth",
			"hoppy",
			"bitter"
		],
		"type": "IPA - American",
		"rating": 4.5
	},
	{
		"name": "Cawston Press Ginger Beer",
		"date": "2018-05-20T11:15:59.000Z",
		"serving": "Can",
		"brewery": {
			"name": "Cawston",
			"country": "United States",
			"city": "",
			"state": ""
		},
		"venue": {
			"name": "Strand Zandvoort aan Zee",
			"country": "Nederland",
			"city": "Zandvoort",
			"state": "Noord-Holland",
			"lat": 52.3755,
			"lng": 4.52577
		},
		"ibu": 0,
		"abv": 0,
		"flavor": [
			"zippy",
			"sweet",
			"apple",
			"ginger"
		],
		"type": "Ginger Beer",
		"rating": 3.75
	},
	{
		"name": "Brouwers Pilsener",
		"date": "2018-05-20T11:44:35.000Z",
		"serving": "Can",
		"brewery": {
			"name": "Brouwers",
			"country": "Netherlands",
			"city": "Zaandam",
			"state": "Noord-Holland"
		},
		"venue": {
			"name": "Strand Zandvoort aan Zee",
			"country": "Nederland",
			"city": "Zandvoort",
			"state": "Noord-Holland",
			"lat": 52.3755,
			"lng": 4.52577
		},
		"ibu": 0,
		"abv": 5,
		"flavor": [
			"malty",
			"light",
			"dry"
		],
		"type": "Pilsner - Other",
		"rating": 3.5
	},
	{
		"name": "Me Myself & IPA",
		"date": "2018-05-21T17:46:49.000Z",
		"serving": "Bottle",
		"brewery": {
			"name": "Uiltje Brewing Company",
			"country": "Netherlands",
			"city": "Haarlem",
			"state": "Noord-Holland"
		},
		"venue": {
			"name": null,
			"country": null,
			"city": null,
			"state": null,
			"lat": null,
			"lng": null
		},
		"ibu": 80,
		"abv": 7,
		"flavor": [
			"smooth",
			"hoppy",
			"bitter"
		],
		"type": "IPA - American",
		"rating": 4.5
	},
	{
		"name": "Peroni Nastro Azzurro",
		"date": "2018-05-22T19:54:33.000Z",
		"serving": "Draft",
		"brewery": {
			"name": "Birra Peroni",
			"country": "Italy",
			"city": "Roma",
			"state": "Lazio"
		},
		"venue": {
			"name": "Woodstone Pizza And Wine",
			"country": "Nederland",
			"city": "Haarlem",
			"state": "Noord-Holland",
			"lat": 52.3814,
			"lng": 4.62989
		},
		"ibu": 0,
		"abv": 5.1,
		"flavor": [
			"clean",
			"light",
			"smooth"
		],
		"type": "Lager - Euro Pale",
		"rating": 3.75
	},
	{
		"name": "Bird of Prey IPA",
		"date": "2018-05-22T21:15:29.000Z",
		"serving": "Draft",
		"brewery": {
			"name": "Uiltje Brewing Company",
			"country": "Netherlands",
			"city": "Haarlem",
			"state": "Noord-Holland"
		},
		"venue": {
			"name": "Café de Vijfhoek",
			"country": "Nederland",
			"city": "Haarlem",
			"state": "Noord-Holland",
			"lat": 52.3789,
			"lng": 4.6302
		},
		"ibu": 50,
		"abv": 5.8,
		"flavor": [
			"light",
			"hoppy",
			"citrus",
			"bitter"
		],
		"type": "IPA - International",
		"rating": 4.5
	},
	{
		"name": "Blond",
		"date": "2018-05-24T17:55:37.000Z",
		"serving": "Bottle",
		"brewery": {
			"name": "Speciaalbierbrouwerij St. Christoffel",
			"country": "Netherlands",
			"city": "Breda",
			"state": "Noord-Brabant"
		},
		"venue": {
			"name": "Cotton Candy Residence 10",
			"country": "Nederland",
			"city": "Haarlem",
			"state": "Noord-Holland",
			"lat": 52.3929,
			"lng": 4.64054
		},
		"ibu": 45,
		"abv": 5.4,
		"flavor": [
			"dry",
			"smooth",
			"bitter"
		],
		"type": "Belgian Blonde",
		"rating": 3.5
	},
	{
		"name": "Corona Extra",
		"date": "2018-05-25T18:40:29.000Z",
		"serving": "Bottle",
		"brewery": {
			"name": "Grupo Modelo",
			"country": "Mexico",
			"city": "Nava",
			"state": "Coahuila de Zaragoza"
		},
		"venue": {
			"name": "Cantina 023",
			"country": "Nederland",
			"city": "Haarlem",
			"state": "Noord-Holland",
			"lat": 52.3792,
			"lng": 4.63682
		},
		"ibu": 19,
		"abv": 4.5,
		"flavor": [
			"light",
			"sweet",
			"smooth"
		],
		"type": "Lager - American",
		"rating": 4.5
	},
	{
		"name": "India Pale Ale / London IPA",
		"date": "2018-05-26T17:41:10.000Z",
		"serving": "Bottle",
		"brewery": {
			"name": "Meantime Brewing Company",
			"country": "England",
			"city": "City of London",
			"state": "London"
		},
		"venue": {
			"name": "Cotton Candy Residence 10",
			"country": "Nederland",
			"city": "Haarlem",
			"state": "Noord-Holland",
			"lat": 52.3929,
			"lng": 4.64054
		},
		"ibu": 65,
		"abv": 7.4,
		"flavor": [
			"malty",
			"hoppy",
			"bitter"
		],
		"type": "IPA - English",
		"rating": 4
	},
	{
		"name": "Life's a Beach",
		"date": "2018-05-27T21:29:52.000Z",
		"serving": "Bottle",
		"brewery": {
			"name": "Jopen",
			"country": "Netherlands",
			"city": "Haarlem",
			"state": "Noord-Holland"
		},
		"venue": {
			"name": "Cotton Candy Residence 10",
			"country": "Nederland",
			"city": "Haarlem",
			"state": "Noord-Holland",
			"lat": 52.3929,
			"lng": 4.64054
		},
		"ibu": 50,
		"abv": 3.3,
		"flavor": [
			"fruity",
			"light",
			"hoppy",
			"bitter"
		],
		"type": "IPA - Session / India Session Ale",
		"rating": 4.25
	},
	{
		"name": "Mannenliefde",
		"date": "2018-05-28T17:31:30.000Z",
		"serving": "Bottle",
		"brewery": {
			"name": "Oedipus Brewing",
			"country": "Netherlands",
			"city": "Amsterdam",
			"state": "Noord-Holland"
		},
		"venue": {
			"name": "Cotton Candy Residence 10",
			"country": "Nederland",
			"city": "Haarlem",
			"state": "Noord-Holland",
			"lat": 52.3929,
			"lng": 4.64054
		},
		"ibu": 25,
		"abv": 6,
		"flavor": [
			"fruity",
			"light"
		],
		"type": "Farmhouse Ale - Saison",
		"rating": 4
	},
	{
		"name": "Old Habits Die Hard",
		"date": "2018-05-31T19:11:08.000Z",
		"serving": "",
		"brewery": {
			"name": "Jopen",
			"country": "Netherlands",
			"city": "Haarlem",
			"state": "Noord-Holland"
		},
		"venue": {
			"name": "Cotton Candy Residence 10",
			"country": "Nederland",
			"city": "Haarlem",
			"state": "Noord-Holland",
			"lat": 52.3929,
			"lng": 4.64054
		},
		"ibu": 30,
		"abv": 2.5,
		"flavor": [
			"light",
			"sour",
			"apple",
			"bitter"
		],
		"type": "Grisette",
		"rating": 4.5
	}
]