[
	{
		"name": "Anchor Steam Beer",
		"date": "2017-11-08T17:44:09.000Z",
		"serving": "Bottle",
		"brewery": {
			"name": "Anchor Brewing Company",
			"country": "United States",
			"city": "San Francisco",
			"state": "CA"
		},
		"venue": {
			"name": "Cannibale Royale",
			"country": "Nederland",
			"city": "Amsterdam",
			"state": "Noord-Holland",
			"lat": 52.3679,
			"lng": 4.89028
		},
		"ibu": 33,
		"abv": 4.9,
		"flavor": [
			"malty",
			"light",
			"sweet",
			"smooth",
			"hoppy"
		],
		"type": "California Common",
		"rating": 4.5
	},
	{
		"name": "Lagunitas Sucks",
		"date": "2017-11-08T18:21:57.000Z",
		"serving": "Draft",
		"brewery": {
			"name": "Lagunitas Brewing Company",
			"country": "United States",
			"city": "Petaluma",
			"state": "CA"
		},
		"venue": {
			"name": "Cannibale Royale",
			"country": "Nederland",
			"city": "Amsterdam",
			"state": "Noord-Holland",
			"lat": 52.3679,
			"lng": 4.89028
		},
		"ibu": 63,
		"abv": 8,
		"flavor": [
			"malty",
			"sweet",
			"strong",
			"smooth",
			"hoppy"
		],
		"type": "IPA - Imperial / Double",
		"rating": 4
	},
	{
		"name": "Alfa Ongefilterd Puur",
		"date": "2017-11-08T19:49:46.000Z",
		"serving": "",
		"brewery": {
			"name": "Alfa Bierbrouwerij",
			"country": "Netherlands",
			"city": "Schinnen",
			"state": "Limburg"
		},
		"venue": {
			"name": "Bierfabriek",
			"country": "Nederland",
			"city": "Amsterdam",
			"state": "Noord-Holland",
			"lat": 52.3699,
			"lng": 4.89346
		},
		"ibu": 0,
		"abv": 5,
		"flavor": [
			"clean",
			"full",
			"light",
			"sweet",
			"smooth"
		],
		"type": "Kellerbier / Zwickelbier",
		"rating": 4
	},
	{
		"name": "IJwit",
		"date": "2017-11-11T18:22:41.000Z",
		"serving": "Bottle",
		"brewery": {
			"name": "Brouwerij 't IJ",
			"country": "Netherlands",
			"city": "Amsterdam",
			"state": "Noord-Holland"
		},
		"venue": {
			"name": "Eten Bij Mama",
			"country": "Nederland",
			"city": "Amsterdam",
			"state": "Noord-Holland",
			"lat": 52.3634,
			"lng": 4.83973
		},
		"ibu": 18,
		"abv": 6.5,
		"flavor": [
			"soft",
			"light",
			"sweet",
			"smooth"
		],
		"type": "Wheat Beer - Witbier",
		"rating": 4.5
	},
	{
		"name": "Łomża Miodowe / Honey Beer",
		"date": "2017-11-11T21:20:21.000Z",
		"serving": "",
		"brewery": {
			"name": "Browar Łomża",
			"country": "Poland",
			"city": "Łomża",
			"state": "województwo podlaskie"
		},
		"venue": {
			"name": null,
			"country": null,
			"city": null,
			"state": null,
			"lat": null,
			"lng": null
		},
		"ibu": 0,
		"abv": 5.7,
		"flavor": [
			"floral",
			"sweet",
			"strong",
			"honey"
		],
		"type": "Honey Beer",
		"rating": 4
	},
	{
		"name": "N'Ice Chouffe",
		"date": "2017-11-14T18:46:14.000Z",
		"serving": "Bottle",
		"brewery": {
			"name": "Brasserie d'Achouffe",
			"country": "Belgium",
			"city": "Achouffe",
			"state": "Wallonie"
		},
		"venue": {
			"name": null,
			"country": null,
			"city": null,
			"state": null,
			"lat": null,
			"lng": null
		},
		"ibu": 25,
		"abv": 10,
		"flavor": [
			"sweet",
			"strong",
			"smooth",
			"dark"
		],
		"type": "Winter Ale",
		"rating": 4
	},
	{
		"name": "Tripel Karmeliet",
		"date": "2017-11-14T20:07:50.000Z",
		"serving": "Bottle",
		"brewery": {
			"name": "Brouwerij Bosteels",
			"country": "Belgium",
			"city": "Buggenhout",
			"state": "Vlaanderen"
		},
		"venue": {
			"name": null,
			"country": null,
			"city": null,
			"state": null,
			"lat": null,
			"lng": null
		},
		"ibu": 16,
		"abv": 8.4,
		"flavor": [
			"fruity",
			"light",
			"sweet",
			"strong",
			"smooth"
		],
		"type": "Belgian Tripel",
		"rating": 4.25
	},
	{
		"name": "Brugge Tripel",
		"date": "2017-11-14T20:43:56.000Z",
		"serving": "Bottle",
		"brewery": {
			"name": "Palm Belgian Craft Brewers",
			"country": "Belgium",
			"city": "Steenhuffel",
			"state": "Vlaanderen"
		},
		"venue": {
			"name": null,
			"country": null,
			"city": null,
			"state": null,
			"lat": null,
			"lng": null
		},
		"ibu": 0,
		"abv": 8.7,
		"flavor": [
			"spicy",
			"light",
			"sweet",
			"strong",
			"smooth"
		],
		"type": "Gruit / Ancient Herbed Ale",
		"rating": 4
	},
	{
		"name": "Grimbergen Blanche",
		"date": "2017-11-19T22:43:22.000Z",
		"serving": "Bottle",
		"brewery": {
			"name": "Kronenbourg Brewery",
			"country": "France",
			"city": "Strasbourg",
			"state": "Grand-Est"
		},
		"venue": {
			"name": null,
			"country": null,
			"city": null,
			"state": null,
			"lat": null,
			"lng": null
		},
		"ibu": 13,
		"abv": 6,
		"flavor": [
			"fruity",
			"light",
			"sweet",
			"smooth"
		],
		"type": "Wheat Beer - Witbier",
		"rating": 4.25
	},
	{
		"name": "Chouffe Bok 6666 (2017)",
		"date": "2017-11-23T21:07:17.000Z",
		"serving": "Bottle",
		"brewery": {
			"name": "Brasserie d'Achouffe",
			"country": "Belgium",
			"city": "Achouffe",
			"state": "Wallonie"
		},
		"venue": {
			"name": null,
			"country": null,
			"city": null,
			"state": null,
			"lat": null,
			"lng": null
		},
		"ibu": 19,
		"abv": 6.66,
		"flavor": [
			"malty",
			"soft",
			"sweet",
			"dark"
		],
		"type": "Bock - Single / Traditional",
		"rating": 4.5
	},
	{
		"name": "Bolleke De Koninck (APA)",
		"date": "2017-11-24T16:56:21.000Z",
		"serving": "Draft",
		"brewery": {
			"name": "Brouwerij De Koninck",
			"country": "Belgium",
			"city": "Antwerp",
			"state": "Vlaanderen"
		},
		"venue": {
			"name": "Eetcafé Van Beeren",
			"country": "Nederland",
			"city": "Amsterdam",
			"state": "Noord-Holland",
			"lat": 52.372,
			"lng": 4.90229
		},
		"ibu": 23,
		"abv": 5.2,
		"flavor": [
			"malty",
			"light",
			"sweet",
			"smooth"
		],
		"type": "Pale Ale - Belgian",
		"rating": 4.5
	},
	{
		"name": "Flink",
		"date": "2017-11-25T17:37:18.000Z",
		"serving": "Bottle",
		"brewery": {
			"name": "Brouwerij 't IJ",
			"country": "Netherlands",
			"city": "Amsterdam",
			"state": "Noord-Holland"
		},
		"venue": {
			"name": "Eten Bij Mama",
			"country": "Nederland",
			"city": "Amsterdam",
			"state": "Noord-Holland",
			"lat": 52.3634,
			"lng": 4.83973
		},
		"ibu": 0,
		"abv": 4.7,
		"flavor": [
			"light",
			"hoppy",
			"citrus",
			"bitter"
		],
		"type": "Pale Ale - American",
		"rating": 3
	},
	{
		"name": "Crisp Apple",
		"date": "2017-11-25T20:46:02.000Z",
		"serving": "",
		"brewery": {
			"name": "Apple Bandit Cider",
			"country": "Netherlands",
			"city": "Amsterdam",
			"state": "Noord-Holland"
		},
		"venue": {
			"name": null,
			"country": null,
			"city": null,
			"state": null,
			"lat": null,
			"lng": null
		},
		"ibu": 0,
		"abv": 4.5,
		"flavor": [
			"soft",
			"sweet",
			"warm",
			"apple",
			"pear"
		],
		"type": "Cider - Traditional",
		"rating": 3.5
	},
	{
		"name": "Lowlander Poorter",
		"date": "2017-11-27T17:49:49.000Z",
		"serving": "Bottle",
		"brewery": {
			"name": "Lowlander Beer",
			"country": "Netherlands",
			"city": "Amsterdam",
			"state": "Noord-Holland"
		},
		"venue": {
			"name": "Cannibale Royale",
			"country": "Nederland",
			"city": "Amsterdam",
			"state": "Noord-Holland",
			"lat": 52.3679,
			"lng": 4.89028
		},
		"ibu": 45,
		"abv": 6,
		"flavor": [
			"sweet",
			"dark",
			"coffee",
			"vanilla"
		],
		"type": "Porter - Other",
		"rating": 4
	}
]