[
	{
		"name": "Grolsch Premium Lager",
		"date": "2018-03-02T19:34:35.000Z",
		"serving": "Bottle",
		"brewery": {
			"name": "Koninklijke Grolsch",
			"country": "Netherlands",
			"city": "Enschede",
			"state": "Overijssel"
		},
		"venue": {
			"name": "Haarlem",
			"country": "Nederland",
			"city": "",
			"state": "Noord-Holland",
			"lat": 52.3892,
			"lng": 4.63838
		},
		"ibu": 28,
		"abv": 5,
		"flavor": [
			"clean",
			"light",
			"smooth"
		],
		"type": "Pilsner - Other",
		"rating": 3.5
	},
	{
		"name": "Krijtje",
		"date": "2018-03-12T20:57:35.000Z",
		"serving": "Bottle",
		"brewery": {
			"name": "Brouwerij De School",
			"country": "Netherlands",
			"city": "Badhoevedorp",
			"state": "Noord-Holland"
		},
		"venue": {
			"name": "Cotton Candy Residence 10",
			"country": "Nederland",
			"city": "Haarlem",
			"state": "Noord-Holland",
			"lat": 52.3929,
			"lng": 4.64054
		},
		"ibu": 35,
		"abv": 5.8,
		"flavor": [
			"fruity",
			"esters",
			"citrus",
			"bitter"
		],
		"type": "Farmhouse Ale - Saison",
		"rating": 4.5
	},
	{
		"name": "Heilig Boontje",
		"date": "2018-03-12T23:08:51.000Z",
		"serving": "Bottle",
		"brewery": {
			"name": "Brouwerij De School",
			"country": "Netherlands",
			"city": "Badhoevedorp",
			"state": "Noord-Holland"
		},
		"venue": {
			"name": "Cotton Candy Residence 10",
			"country": "Nederland",
			"city": "Haarlem",
			"state": "Noord-Holland",
			"lat": 52.3929,
			"lng": 4.64054
		},
		"ibu": 25,
		"abv": 3.5,
		"flavor": [
			"fruity",
			"carbonated",
			"light",
			"hoppy",
			"bitter"
		],
		"type": "Pale Ale - International",
		"rating": 4.5
	},
	{
		"name": "Waterloo Triple Blond",
		"date": "2018-03-15T23:16:45.000Z",
		"serving": "Draft",
		"brewery": {
			"name": "Waterloo Brewery Mont-St-Jean",
			"country": "Belgium",
			"city": "Waterloo",
			"state": "Wallonie"
		},
		"venue": {
			"name": "Café ZILT",
			"country": "Nederland",
			"city": "Amsterdam",
			"state": "Noord-Holland",
			"lat": 52.3752,
			"lng": 4.90112
		},
		"ibu": 26,
		"abv": 8,
		"flavor": [
			"spicy",
			"sweet",
			"strong",
			"smooth"
		],
		"type": "Belgian Tripel",
		"rating": 4.25
	},
	{
		"name": "Bianco",
		"date": "2018-03-16T22:38:22.000Z",
		"serving": "Draft",
		"brewery": {
			"name": "De Bierfabriek",
			"country": "Netherlands",
			"city": "Amsterdam",
			"state": "Noord-Holland"
		},
		"venue": {
			"name": "Bierfabriek",
			"country": "Nederland",
			"city": "Amsterdam",
			"state": "Noord-Holland",
			"lat": 52.3699,
			"lng": 4.89346
		},
		"ibu": 0,
		"abv": 5.2,
		"flavor": [
			"grassy",
			"light",
			"sour"
		],
		"type": "Belgian Blonde",
		"rating": 3.5
	},
	{
		"name": "Tropical Ralphie",
		"date": "2018-03-16T22:39:38.000Z",
		"serving": "Bottle",
		"brewery": {
			"name": "Two Chefs Brewing",
			"country": "Netherlands",
			"city": "Amsterdam",
			"state": "Noord-Holland"
		},
		"venue": {
			"name": "The Tara",
			"country": "Nederland",
			"city": "Amsterdam",
			"state": "Noord-Holland",
			"lat": 52.3703,
			"lng": 4.89284
		},
		"ibu": 20,
		"abv": 5,
		"flavor": [
			"light",
			"sour",
			"hoppy"
		],
		"type": "Hefeweizen",
		"rating": 4
	},
	{
		"name": "Frisse Lentebok (2017)",
		"date": "2018-03-17T21:35:13.000Z",
		"serving": "Bottle",
		"brewery": {
			"name": "Koninklijke Grolsch",
			"country": "Netherlands",
			"city": "Enschede",
			"state": "Overijssel"
		},
		"venue": {
			"name": null,
			"country": null,
			"city": null,
			"state": null,
			"lat": null,
			"lng": null
		},
		"ibu": 0,
		"abv": 7,
		"flavor": [
			"malty",
			"spring",
			"light",
			"bitter"
		],
		"type": "Bock - Hell / Maibock / Lentebock",
		"rating": 4
	},
	{
		"name": "India Pale Ale / London IPA",
		"date": "2018-03-17T23:47:26.000Z",
		"serving": "Draft",
		"brewery": {
			"name": "Meantime Brewing Company",
			"country": "England",
			"city": "City of London",
			"state": "London"
		},
		"venue": {
			"name": "Theatercafé De Richel",
			"country": "Nederland",
			"city": "Amsterdam",
			"state": "Noord-Holland",
			"lat": 52.3699,
			"lng": 4.89345
		},
		"ibu": 65,
		"abv": 7.4,
		"flavor": [
			"malty",
			"strong",
			"bitter"
		],
		"type": "IPA - English",
		"rating": 4.5
	},
	{
		"name": "Hoegaarden Wit / Blanche",
		"date": "2018-03-21T17:20:44.000Z",
		"serving": "Draft",
		"brewery": {
			"name": "Brouwerij Hoegaarden",
			"country": "Belgium",
			"city": "Hoegaarden",
			"state": "Vlaanderen"
		},
		"venue": {
			"name": "Flakon",
			"country": "Magyarország",
			"city": "Budapest",
			"state": "Budapest",
			"lat": 47.5046,
			"lng": 19.1351
		},
		"ibu": 15,
		"abv": 4.9,
		"flavor": [
			"fruity",
			"banana",
			"light",
			"sweet",
			"smooth"
		],
		"type": "Wheat Beer - Witbier",
		"rating": 4.25
	},
	{
		"name": "La Trappe Isid'or",
		"date": "2018-03-22T20:20:11.000Z",
		"serving": "Bottle",
		"brewery": {
			"name": "Bierbrouwerij De Koningshoeven",
			"country": "Netherlands",
			"city": "Berkel-Enschot",
			"state": "Noord-Brabant"
		},
		"venue": {
			"name": null,
			"country": null,
			"city": null,
			"state": null,
			"lat": null,
			"lng": null
		},
		"ibu": 27,
		"abv": 7.5,
		"flavor": [
			"sweet",
			"strong",
			"smooth"
		],
		"type": "Belgian Strong Golden Ale",
		"rating": 4
	},
	{
		"name": "Konrad Zelený král",
		"date": "2018-03-24T19:32:46.000Z",
		"serving": "Draft",
		"brewery": {
			"name": "Pivovar Liberec Vratislavice",
			"country": "Czech Republic",
			"city": "Liberec",
			"state": ""
		},
		"venue": {
			"name": "Mr&Mrs Columbo Pub",
			"country": "Magyarország",
			"city": "Budapest",
			"state": "Budapest",
			"lat": 47.4925,
			"lng": 19.0421
		},
		"ibu": 0,
		"abv": 5,
		"flavor": [
			"herbal",
			"grassy",
			"bitter"
		],
		"type": "Spiced / Herbed Beer",
		"rating": 4.5
	},
	{
		"name": "Postřižinské Něžný Barbar",
		"date": "2018-03-24T21:25:14.000Z",
		"serving": "Draft",
		"brewery": {
			"name": "Pivovar Nymburk",
			"country": "Czech Republic",
			"city": "Nymburk",
			"state": "Střední Čechy"
		},
		"venue": {
			"name": "Mr&Mrs Columbo Pub",
			"country": "Magyarország",
			"city": "Budapest",
			"state": "Budapest",
			"lat": 47.4925,
			"lng": 19.0421
		},
		"ibu": 27,
		"abv": 5.3,
		"flavor": [
			"caramelly",
			"sweet",
			"smooth",
			"dark"
		],
		"type": "Lager - Amber",
		"rating": 3
	},
	{
		"name": "Rübæus",
		"date": "2018-03-31T19:09:04.000Z",
		"serving": "Draft",
		"brewery": {
			"name": "Founders Brewing Co.",
			"country": "United States",
			"city": "Grand Rapids",
			"state": "MI"
		},
		"venue": {
			"name": "BeerTemple",
			"country": "Nederland",
			"city": "Amsterdam",
			"state": "Noord-Holland",
			"lat": 52.372,
			"lng": 4.89032
		},
		"ibu": 15,
		"abv": 5.7,
		"flavor": [
			"fruity",
			"sweet",
			"smooth",
			"raspberry"
		],
		"type": "Fruit Beer",
		"rating": 3.75
	},
	{
		"name": "Mount Crushmore",
		"date": "2018-03-31T19:49:15.000Z",
		"serving": "Draft",
		"brewery": {
			"name": "AleSmith Brewing Company",
			"country": "United States",
			"city": "San Diego",
			"state": "CA"
		},
		"venue": {
			"name": "BeerTemple",
			"country": "Nederland",
			"city": "Amsterdam",
			"state": "Noord-Holland",
			"lat": 52.372,
			"lng": 4.89032
		},
		"ibu": 0,
		"abv": 4.6,
		"flavor": [
			"light",
			"creamy",
			"smooth",
			"mouthfeel"
		],
		"type": "Cream Ale",
		"rating": 4.25
	},
	{
		"name": "Piewee the Pineapple Weizen",
		"date": "2018-03-31T22:39:26.000Z",
		"serving": "Draft",
		"brewery": {
			"name": "Uiltje Brewing Company",
			"country": "Netherlands",
			"city": "Haarlem",
			"state": "Noord-Holland"
		},
		"venue": {
			"name": "Uiltje Bar",
			"country": "Nederland",
			"city": "Haarlem",
			"state": "Noord-Holland",
			"lat": 52.3829,
			"lng": 4.63072
		},
		"ibu": 6,
		"abv": 5,
		"flavor": [
			"spring",
			"fruity",
			"sweet",
			"pineapple"
		],
		"type": "Hefeweizen",
		"rating": 4
	},
	{
		"name": "FF lekker met je bek in het zonnetje (2017)",
		"date": "2018-03-31T23:08:57.000Z",
		"serving": "Draft",
		"brewery": {
			"name": "Uiltje Brewing Company",
			"country": "Netherlands",
			"city": "Haarlem",
			"state": "Noord-Holland"
		},
		"venue": {
			"name": "Uiltje Bar",
			"country": "Nederland",
			"city": "Haarlem",
			"state": "Noord-Holland",
			"lat": 52.3829,
			"lng": 4.63072
		},
		"ibu": 55,
		"abv": 3.6,
		"flavor": [
			"light",
			"citrus",
			"bitter"
		],
		"type": "IPA - Session / India Session Ale",
		"rating": 3.75
	}
]