[
	{
		"name": "La Chouffe Blond",
		"date": "2018-04-02T14:53:04.000Z",
		"serving": "Bottle",
		"brewery": {
			"name": "Brasserie d'Achouffe",
			"country": "Belgium",
			"city": "Achouffe",
			"state": "Wallonie"
		},
		"venue": {
			"name": "Albert Heijn to go",
			"country": "Nederland",
			"city": "Haarlem",
			"state": "Noord-Holland",
			"lat": 52.3885,
			"lng": 4.63954
		},
		"ibu": 20,
		"abv": 8,
		"flavor": [
			"fruity",
			"light",
			"strong",
			"smooth"
		],
		"type": "Belgian Strong Golden Ale",
		"rating": 4.25
	},
	{
		"name": "Kriek Max",
		"date": "2018-04-06T17:10:18.000Z",
		"serving": "",
		"brewery": {
			"name": "Brouwerij Omer Vander Ghinste",
			"country": "Belgium",
			"city": "Bellegem",
			"state": "Vlaanderen"
		},
		"venue": {
			"name": "Black and Blue",
			"country": "Nederland",
			"city": "Amsterdam",
			"state": "Noord-Holland",
			"lat": 52.3757,
			"lng": 4.88537
		},
		"ibu": 0,
		"abv": 3.5,
		"flavor": [
			"fruity",
			"sweet",
			"sour",
			"tart",
			"cherry"
		],
		"type": "Lambic - Kriek",
		"rating": 4
	},
	{
		"name": "Tiltott Csíki Sör",
		"date": "2018-04-08T12:56:44.000Z",
		"serving": "Bottle",
		"brewery": {
			"name": "Csíki Sör Manufaktúra",
			"country": "Romania",
			"city": "Harghita",
			"state": "Harghita"
		},
		"venue": {
			"name": "Hungarian Corner",
			"country": "Nederland",
			"city": "Den Haag",
			"state": "Zuid-Holland",
			"lat": 52.0794,
			"lng": 4.27148
		},
		"ibu": 0,
		"abv": 6,
		"flavor": [
			"malty",
			"clean",
			"smooth"
		],
		"type": "Bock - Hell / Maibock / Lentebock",
		"rating": 3.25
	},
	{
		"name": "Brouwers Pilsener",
		"date": "2018-04-08T16:22:57.000Z",
		"serving": "Bottle",
		"brewery": {
			"name": "Brouwers",
			"country": "Netherlands",
			"city": "Zaandam",
			"state": "Noord-Holland"
		},
		"venue": {
			"name": "Hofvijver",
			"country": "Nederland",
			"city": "Den Haag",
			"state": "Zuid-Holland",
			"lat": 52.0804,
			"lng": 4.31158
		},
		"ibu": 0,
		"abv": 5,
		"flavor": [
			"light",
			"dry"
		],
		"type": "Pilsner - Other",
		"rating": 3.5
	},
	{
		"name": "Flying Rabbit",
		"date": "2018-04-14T17:05:58.000Z",
		"serving": "Bottle",
		"brewery": {
			"name": "MONYO Brewing Co.",
			"country": "Hungary",
			"city": "Budapest",
			"state": "Közép-Magyarország"
		},
		"venue": {
			"name": "Sopronkőhida",
			"country": "Magyarország",
			"city": "Sopron",
			"state": "Győr-Moson-Sopon",
			"lat": 47.7225,
			"lng": 16.623
		},
		"ibu": 80,
		"abv": 6.5,
		"flavor": [
			"fruity",
			"light",
			"hoppy"
		],
		"type": "IPA - American",
		"rating": 4
	},
	{
		"name": "Hefe Weissbier",
		"date": "2018-04-14T18:55:22.000Z",
		"serving": "Bottle",
		"brewery": {
			"name": "Maltman Craft Beer",
			"country": "Hungary",
			"city": "Budapest",
			"state": ""
		},
		"venue": {
			"name": null,
			"country": null,
			"city": null,
			"state": null,
			"lat": null,
			"lng": null
		},
		"ibu": 0,
		"abv": 5.1,
		"flavor": [
			""
		],
		"type": "Hefeweizen",
		"rating": null
	},
	{
		"name": "Tesco Finest Unfiltered IPA",
		"date": "2018-04-14T21:03:16.000Z",
		"serving": "",
		"brewery": {
			"name": "Tesco Stores Ltd.",
			"country": "England",
			"city": "Welwyn Garden City",
			"state": "Hertfordshire"
		},
		"venue": {
			"name": null,
			"country": null,
			"city": null,
			"state": null,
			"lat": null,
			"lng": null
		},
		"ibu": 0,
		"abv": 5.8,
		"flavor": [
			"sharp",
			"light",
			"bitter"
		],
		"type": "IPA - International",
		"rating": 4
	},
	{
		"name": "1664 Blanc",
		"date": "2018-04-14T22:03:54.000Z",
		"serving": "Bottle",
		"brewery": {
			"name": "Kronenbourg Brewery",
			"country": "France",
			"city": "Strasbourg",
			"state": "Grand-Est"
		},
		"venue": {
			"name": "Hajnal tér",
			"country": "Magyarország",
			"city": "Sopron",
			"state": "Győr-Moson-Sopron megye",
			"lat": 47.6788,
			"lng": 16.549
		},
		"ibu": 7,
		"abv": 5,
		"flavor": [
			"citrusy",
			"fruity",
			"light",
			"sweet",
			"smooth"
		],
		"type": "Wheat Beer - Witbier",
		"rating": 4
	},
	{
		"name": "Lowlander I.P.A.",
		"date": "2018-04-20T18:51:58.000Z",
		"serving": "Draft",
		"brewery": {
			"name": "Lowlander Beer",
			"country": "Netherlands",
			"city": "Amsterdam",
			"state": "Noord-Holland"
		},
		"venue": {
			"name": "Bierlokaal de Uiver",
			"country": "Nederland",
			"city": "Haarlem",
			"state": "Noord-Holland",
			"lat": 52.3821,
			"lng": 4.63898
		},
		"ibu": 45,
		"abv": 6,
		"flavor": [
			"spicy",
			"fruity",
			"hoppy",
			"citrus",
			"bitter"
		],
		"type": "IPA - International",
		"rating": 4
	},
	{
		"name": "Session IPA",
		"date": "2018-04-21T20:23:40.000Z",
		"serving": "Bottle",
		"brewery": {
			"name": "Brouwerij Kees",
			"country": "Netherlands",
			"city": "Middelburg",
			"state": "Zeeland"
		},
		"venue": {
			"name": "Cotton Candy Residence 10",
			"country": "Nederland",
			"city": "Haarlem",
			"state": "Noord-Holland",
			"lat": 52.3929,
			"lng": 4.64054
		},
		"ibu": 70,
		"abv": 3.5,
		"flavor": [
			"fruity",
			"light",
			"hoppy",
			"citrus",
			"bitter"
		],
		"type": "IPA - Session / India Session Ale",
		"rating": 4.25
	},
	{
		"name": "Mannenliefde",
		"date": "2018-04-22T09:25:20.000Z",
		"serving": "Bottle",
		"brewery": {
			"name": "Oedipus Brewing",
			"country": "Netherlands",
			"city": "Amsterdam",
			"state": "Noord-Holland"
		},
		"venue": {
			"name": null,
			"country": null,
			"city": null,
			"state": null,
			"lat": null,
			"lng": null
		},
		"ibu": 25,
		"abv": 6,
		"flavor": [
			"spicy",
			"fruity",
			"light",
			"dry",
			"hoppy"
		],
		"type": "Farmhouse Ale - Saison",
		"rating": 4
	},
	{
		"name": "Affligem Blonde",
		"date": "2018-04-22T11:16:16.000Z",
		"serving": "Bottle",
		"brewery": {
			"name": "Affligem Brouwerij",
			"country": "Belgium",
			"city": "Opwijk",
			"state": "Vlaanderen"
		},
		"venue": {
			"name": null,
			"country": null,
			"city": null,
			"state": null,
			"lat": null,
			"lng": null
		},
		"ibu": 0,
		"abv": 6.7,
		"flavor": [
			"light",
			"strong",
			"smooth"
		],
		"type": "Belgian Blonde",
		"rating": 4
	},
	{
		"name": "Classic Apple",
		"date": "2018-04-22T15:42:42.000Z",
		"serving": "Bottle",
		"brewery": {
			"name": "Apple Bandit Cider",
			"country": "Netherlands",
			"city": "Amsterdam",
			"state": "Noord-Holland"
		},
		"venue": {
			"name": null,
			"country": null,
			"city": null,
			"state": null,
			"lat": null,
			"lng": null
		},
		"ibu": 0,
		"abv": 4.5,
		"flavor": [
			"fruity",
			"dry",
			"apple",
			"juicy"
		],
		"type": "Cider - Dry",
		"rating": 4
	},
	{
		"name": "Zima",
		"date": "2018-04-28T17:27:49.000Z",
		"serving": "Bottle",
		"brewery": {
			"name": "Coors Brewing Company",
			"country": "United States",
			"city": "Golden",
			"state": "CO"
		},
		"venue": {
			"name": "Kawaii Monster Cafe",
			"country": "日本",
			"city": "東京",
			"state": "東京都",
			"lat": 35.6691,
			"lng": 139.706
		},
		"ibu": 0,
		"abv": 5,
		"flavor": [
			"fruity",
			"sparkling",
			"carbonated",
			"light",
			"sweet"
		],
		"type": "Malt Liquor ",
		"rating": 3.75
	},
	{
		"name": "Ichiban (Ichiban Shibori) (一番搾り)",
		"date": "2018-04-28T21:30:20.000Z",
		"serving": "Can",
		"brewery": {
			"name": "Kirin Brewery Company",
			"country": "Japan",
			"city": "Nakano-ku",
			"state": "Tokyo"
		},
		"venue": {
			"name": "Ota (大田区)",
			"country": "日本",
			"city": "",
			"state": "東京都",
			"lat": 35.5603,
			"lng": 139.727
		},
		"ibu": 18,
		"abv": 5,
		"flavor": [
			"clean",
			"light",
			"smooth"
		],
		"type": "Lager - Pale",
		"rating": 3.5
	},
	{
		"name": "Clear Malt",
		"date": "2018-04-28T21:50:06.000Z",
		"serving": "Can",
		"brewery": {
			"name": "Kirin Brewery Company",
			"country": "Japan",
			"city": "Nakano-ku",
			"state": "Tokyo"
		},
		"venue": {
			"name": "Ota (大田区)",
			"country": "日本",
			"city": "",
			"state": "東京都",
			"lat": 35.5603,
			"lng": 139.727
		},
		"ibu": 0,
		"abv": 6,
		"flavor": [
			"malty",
			"clean",
			"light"
		],
		"type": "Happoshu",
		"rating": 3
	},
	{
		"name": "Hitachino Nest White Ale",
		"date": "2018-04-29T17:55:47.000Z",
		"serving": "Draft",
		"brewery": {
			"name": "Kiuchi Brewery",
			"country": "Japan",
			"city": "Naka-shi",
			"state": "Ibaraki"
		},
		"venue": {
			"name": "Hitachino Brewing Lab. (常陸野ブルーイング・ラボ)",
			"country": "日本",
			"city": "千代田区",
			"state": "東京都",
			"lat": 35.6971,
			"lng": 139.771
		},
		"ibu": 13,
		"abv": 5.5,
		"flavor": [
			"fruity",
			"light",
			"smooth"
		],
		"type": "Wheat Beer - Witbier",
		"rating": 4.5
	},
	{
		"name": "Hitachino Nest Dai Dai Ale",
		"date": "2018-04-29T18:05:12.000Z",
		"serving": "Draft",
		"brewery": {
			"name": "Kiuchi Brewery",
			"country": "Japan",
			"city": "Naka-shi",
			"state": "Ibaraki"
		},
		"venue": {
			"name": "Hitachino Brewing Lab. (常陸野ブルーイング・ラボ)",
			"country": "日本",
			"city": "千代田区",
			"state": "東京都",
			"lat": 35.6971,
			"lng": 139.771
		},
		"ibu": 17,
		"abv": 6,
		"flavor": [
			"malty",
			"fruity",
			"light",
			"hoppy"
		],
		"type": "IPA - English",
		"rating": 4
	},
	{
		"name": "Hitachino Nest Lager",
		"date": "2018-04-29T18:15:37.000Z",
		"serving": "Draft",
		"brewery": {
			"name": "Kiuchi Brewery",
			"country": "Japan",
			"city": "Naka-shi",
			"state": "Ibaraki"
		},
		"venue": {
			"name": "Hitachino Brewing Lab. (常陸野ブルーイング・ラボ)",
			"country": "日本",
			"city": "千代田区",
			"state": "東京都",
			"lat": 35.6971,
			"lng": 139.771
		},
		"ibu": 15,
		"abv": 5.5,
		"flavor": [
			"clean",
			"light",
			"hoppy"
		],
		"type": "Lager - Pale",
		"rating": 4
	},
	{
		"name": "Ichiban Shibori Stout (一番搾り スタウト)",
		"date": "2018-04-29T20:47:10.000Z",
		"serving": "Draft",
		"brewery": {
			"name": "Kirin Brewery Company",
			"country": "Japan",
			"city": "Nakano-ku",
			"state": "Tokyo"
		},
		"venue": {
			"name": "Kirin City (キリンシティ 新宿東口)",
			"country": "日本",
			"city": "東京",
			"state": "東京都",
			"lat": 35.6926,
			"lng": 139.702
		},
		"ibu": 0,
		"abv": 5,
		"flavor": [
			"smooth",
			"dark",
			"coffee"
		],
		"type": "Stout - Other",
		"rating": 3.5
	},
	{
		"name": "Kinmugi Rich Malt (金麦)",
		"date": "2018-04-29T21:41:22.000Z",
		"serving": "Can",
		"brewery": {
			"name": "Suntory Beer Limited",
			"country": "Japan",
			"city": "Minato-ku",
			"state": "Tokyo"
		},
		"venue": {
			"name": "Ota (大田区)",
			"country": "日本",
			"city": "",
			"state": "東京都",
			"lat": 35.5603,
			"lng": 139.727
		},
		"ibu": 0,
		"abv": 5,
		"flavor": [
			"malty",
			"light",
			"smooth"
		],
		"type": "Happoshu",
		"rating": 3.5
	},
	{
		"name": "Rokko White Madros",
		"date": "2018-04-30T18:39:16.000Z",
		"serving": "Draft",
		"brewery": {
			"name": "IN International",
			"country": "Japan",
			"city": "Kobe",
			"state": "Hyogo"
		},
		"venue": {
			"name": "Craft Beer x Mex-Italian CRAFTSMAN",
			"country": "日本",
			"city": "横浜市",
			"state": "神奈川県",
			"lat": 35.4681,
			"lng": 139.623
		},
		"ibu": 0,
		"abv": 5,
		"flavor": [
			"clove",
			"banana",
			"light"
		],
		"type": "Hefeweizen",
		"rating": 4
	},
	{
		"name": "Hansharo Odoriko Weizen (踊り子ヴァイツェン)",
		"date": "2018-04-30T18:47:09.000Z",
		"serving": "Draft",
		"brewery": {
			"name": "Kuraya Narusawa",
			"country": "Japan",
			"city": "Izunokuni",
			"state": "Shizuoka"
		},
		"venue": {
			"name": "Craft Beer x Mex-Italian CRAFTSMAN",
			"country": "日本",
			"city": "横浜市",
			"state": "神奈川県",
			"lat": 35.4681,
			"lng": 139.623
		},
		"ibu": 10,
		"abv": 5,
		"flavor": [
			"yeasty",
			"sweet",
			"bitter"
		],
		"type": "Hefeweizen",
		"rating": 4
	}
]