[
	{
		"name": "Peroni Nastro Azzurro",
		"date": "2017-06-02T15:38:49.000Z",
		"serving": "",
		"brewery": {
			"name": "Birra Peroni",
			"country": "Italy",
			"city": "Roma",
			"state": "Lazio"
		},
		"venue": {
			"name": "Canvas",
			"country": "Nederland",
			"city": "Amsterdam",
			"state": "Noord-Holland",
			"lat": 52.354,
			"lng": 4.91186
		},
		"ibu": 0,
		"abv": 5.1,
		"flavor": [
			"clean",
			"light",
			"smooth"
		],
		"type": "Lager - Euro Pale",
		"rating": 3.75
	},
	{
		"name": "La Chouffe Blond",
		"date": "2017-06-02T16:27:21.000Z",
		"serving": "Bottle",
		"brewery": {
			"name": "Brasserie d'Achouffe",
			"country": "Belgium",
			"city": "Achouffe",
			"state": "Wallonie"
		},
		"venue": {
			"name": "Canvas",
			"country": "Nederland",
			"city": "Amsterdam",
			"state": "Noord-Holland",
			"lat": 52.354,
			"lng": 4.91186
		},
		"ibu": 20,
		"abv": 8,
		"flavor": [
			"fruity",
			"sweet",
			"strong",
			"smooth"
		],
		"type": "Belgian Strong Golden Ale",
		"rating": 4
	},
	{
		"name": "Zatte",
		"date": "2017-06-02T18:09:12.000Z",
		"serving": "Bottle",
		"brewery": {
			"name": "Brouwerij 't IJ",
			"country": "Netherlands",
			"city": "Amsterdam",
			"state": "Noord-Holland"
		},
		"venue": {
			"name": "Canvas",
			"country": "Nederland",
			"city": "Amsterdam",
			"state": "Noord-Holland",
			"lat": 52.354,
			"lng": 4.91186
		},
		"ibu": 19,
		"abv": 8,
		"flavor": [
			"sweet",
			"strong"
		],
		"type": "Belgian Tripel",
		"rating": 3.5
	},
	{
		"name": "Original Pale Ale",
		"date": "2017-06-02T19:57:58.000Z",
		"serving": "Bottle",
		"brewery": {
			"name": "Coopers",
			"country": "Australia",
			"city": "Regency Park",
			"state": "SA"
		},
		"venue": {
			"name": "Drovers Dog",
			"country": "Nederland",
			"city": "Amsterdam",
			"state": "Noord-Holland",
			"lat": 52.352,
			"lng": 4.91337
		},
		"ibu": 24,
		"abv": 4.5,
		"flavor": [
			"light",
			"hoppy"
		],
		"type": "Pale Ale - Australian",
		"rating": 3.5
	},
	{
		"name": "Sparkling Ale",
		"date": "2017-06-02T21:40:58.000Z",
		"serving": "Bottle",
		"brewery": {
			"name": "Coopers",
			"country": "Australia",
			"city": "Regency Park",
			"state": "SA"
		},
		"venue": {
			"name": "Drovers Dog",
			"country": "Nederland",
			"city": "Amsterdam",
			"state": "Noord-Holland",
			"lat": 52.352,
			"lng": 4.91337
		},
		"ibu": 35,
		"abv": 5.8,
		"flavor": [
			"malty",
			"light"
		],
		"type": "Australian Sparkling Ale",
		"rating": 3.25
	},
	{
		"name": "Zatte",
		"date": "2017-06-03T19:32:11.000Z",
		"serving": "Draft",
		"brewery": {
			"name": "Brouwerij 't IJ",
			"country": "Netherlands",
			"city": "Amsterdam",
			"state": "Noord-Holland"
		},
		"venue": {
			"name": "Radijs",
			"country": "Nederland",
			"city": "Amsterdam",
			"state": "Noord-Holland",
			"lat": 52.371,
			"lng": 4.85676
		},
		"ibu": 19,
		"abv": 8,
		"flavor": [
			"sweet",
			"strong"
		],
		"type": "Belgian Tripel",
		"rating": 4
	},
	{
		"name": "La Chouffe Blond",
		"date": "2017-06-03T20:50:00.000Z",
		"serving": "Draft",
		"brewery": {
			"name": "Brasserie d'Achouffe",
			"country": "Belgium",
			"city": "Achouffe",
			"state": "Wallonie"
		},
		"venue": {
			"name": "Radijs",
			"country": "Nederland",
			"city": "Amsterdam",
			"state": "Noord-Holland",
			"lat": 52.371,
			"lng": 4.85676
		},
		"ibu": 20,
		"abv": 8,
		"flavor": [
			""
		],
		"type": "Belgian Strong Golden Ale",
		"rating": 4
	},
	{
		"name": "IKEA Öl Mörk Lager",
		"date": "2017-06-04T21:58:20.000Z",
		"serving": "",
		"brewery": {
			"name": "Krönleins Bryggeri",
			"country": "Sweden",
			"city": "Halmstad",
			"state": "Hallands län"
		},
		"venue": {
			"name": "Haarlem",
			"country": "Nederland",
			"city": "",
			"state": "Noord-Holland",
			"lat": 52.3892,
			"lng": 4.63838
		},
		"ibu": 0,
		"abv": 4.7,
		"flavor": [
			"malty",
			"light",
			"dry"
		],
		"type": "Lager - Euro Dark",
		"rating": 4
	},
	{
		"name": "Tropical Ralphie",
		"date": "2017-06-13T18:33:38.000Z",
		"serving": "Bottle",
		"brewery": {
			"name": "Two Chefs Brewing",
			"country": "Netherlands",
			"city": "Amsterdam",
			"state": "Noord-Holland"
		},
		"venue": {
			"name": "Parnassia Strandtent",
			"country": "Nederland",
			"city": "Bloemendaal",
			"state": "Noord-Holland",
			"lat": 52.4184,
			"lng": 4.55403
		},
		"ibu": 20,
		"abv": 5,
		"flavor": [
			"fruity",
			"light",
			"sour"
		],
		"type": "Hefeweizen",
		"rating": 4
	},
	{
		"name": "Raging Bitch",
		"date": "2017-06-14T20:20:45.000Z",
		"serving": "Bottle",
		"brewery": {
			"name": "Flying Dog Brewery",
			"country": "United States",
			"city": "Frederick",
			"state": "MD"
		},
		"venue": {
			"name": "d&a Hummus Bistro",
			"country": "Nederland",
			"city": "Amsterdam",
			"state": "Noord-Holland",
			"lat": 52.3784,
			"lng": 4.88268
		},
		"ibu": 60,
		"abv": 8.3,
		"flavor": [
			"fruity",
			"smooth",
			"hoppy"
		],
		"type": "IPA - Belgian",
		"rating": 3.5
	},
	{
		"name": "IKEA Öl Mörk Lager",
		"date": "2017-06-16T21:58:46.000Z",
		"serving": "Bottle",
		"brewery": {
			"name": "Krönleins Bryggeri",
			"country": "Sweden",
			"city": "Halmstad",
			"state": "Hallands län"
		},
		"venue": {
			"name": "Haarlem",
			"country": "Nederland",
			"city": "",
			"state": "Noord-Holland",
			"lat": 52.3892,
			"lng": 4.63838
		},
		"ibu": 0,
		"abv": 4.7,
		"flavor": [
			"malty",
			"light",
			"dark"
		],
		"type": "Lager - Euro Dark",
		"rating": 4
	},
	{
		"name": "Corona Extra",
		"date": "2017-06-17T18:28:12.000Z",
		"serving": "",
		"brewery": {
			"name": "Grupo Modelo",
			"country": "Mexico",
			"city": "Nava",
			"state": "Coahuila de Zaragoza"
		},
		"venue": {
			"name": "Cantina 023",
			"country": "Nederland",
			"city": "Haarlem",
			"state": "Noord-Holland",
			"lat": 52.3792,
			"lng": 4.63682
		},
		"ibu": 19,
		"abv": 4.5,
		"flavor": [
			"light",
			"smooth"
		],
		"type": "Lager - American",
		"rating": 4.5
	},
	{
		"name": "Pilsener",
		"date": "2017-06-17T20:02:49.000Z",
		"serving": "Bottle",
		"brewery": {
			"name": "Koninklijke Brand Bierbrouwerij",
			"country": "Netherlands",
			"city": "Wijlre",
			"state": "Limburg"
		},
		"venue": {
			"name": "Haarlem",
			"country": "Nederland",
			"city": "",
			"state": "Noord-Holland",
			"lat": 52.3892,
			"lng": 4.63838
		},
		"ibu": 27,
		"abv": 5,
		"flavor": [
			""
		],
		"type": "Pilsner - Other",
		"rating": 3
	},
	{
		"name": "Westmalle Trappist Tripel",
		"date": "2017-06-17T21:55:31.000Z",
		"serving": "Bottle",
		"brewery": {
			"name": "Brouwerij der Trappisten van Westmalle",
			"country": "Belgium",
			"city": "Malle",
			"state": "Vlaanderen"
		},
		"venue": {
			"name": "Haarlem",
			"country": "Nederland",
			"city": "",
			"state": "Noord-Holland",
			"lat": 52.3892,
			"lng": 4.63838
		},
		"ibu": 36,
		"abv": 9.5,
		"flavor": [
			"light",
			"sweet",
			"smooth"
		],
		"type": "Belgian Tripel",
		"rating": 3.5
	},
	{
		"name": "Crybaby",
		"date": "2017-06-20T19:37:21.000Z",
		"serving": "Draft",
		"brewery": {
			"name": "Uiltje Brewing Company",
			"country": "Netherlands",
			"city": "Haarlem",
			"state": "Noord-Holland"
		},
		"venue": {
			"name": "Uiltje Bar",
			"country": "Nederland",
			"city": "Haarlem",
			"state": "Noord-Holland",
			"lat": 52.3829,
			"lng": 4.63072
		},
		"ibu": 3,
		"abv": 2.4,
		"flavor": [
			"light",
			"sour",
			"citrus"
		],
		"type": "Sour - Fruited Berliner Weisse",
		"rating": 4
	},
	{
		"name": "Mr. Feathers",
		"date": "2017-06-20T20:15:20.000Z",
		"serving": "Draft",
		"brewery": {
			"name": "Uiltje Brewing Company",
			"country": "Netherlands",
			"city": "Haarlem",
			"state": "Noord-Holland"
		},
		"venue": {
			"name": "Uiltje Bar",
			"country": "Nederland",
			"city": "Haarlem",
			"state": "Noord-Holland",
			"lat": 52.3829,
			"lng": 4.63072
		},
		"ibu": 40,
		"abv": 4.9,
		"flavor": [
			"light",
			"hoppy",
			"bitter"
		],
		"type": "Red Ale - American Amber / Red",
		"rating": 4
	},
	{
		"name": "Epic Saison",
		"date": "2017-06-20T21:02:23.000Z",
		"serving": "Draft",
		"brewery": {
			"name": "The Wild Beer Co",
			"country": "England",
			"city": "Evercreech",
			"state": "Somerset"
		},
		"venue": {
			"name": "Uiltje Bar",
			"country": "Nederland",
			"city": "Haarlem",
			"state": "Noord-Holland",
			"lat": 52.3829,
			"lng": 4.63072
		},
		"ibu": 48,
		"abv": 5,
		"flavor": [
			"spicy",
			"light",
			"sour"
		],
		"type": "Farmhouse Ale - Saison",
		"rating": 4.5
	},
	{
		"name": "Matryoshka Doll",
		"date": "2017-06-20T21:03:52.000Z",
		"serving": "Draft",
		"brewery": {
			"name": "Uiltje Brewing Company",
			"country": "Netherlands",
			"city": "Haarlem",
			"state": "Noord-Holland"
		},
		"venue": {
			"name": "Uiltje Bar",
			"country": "Nederland",
			"city": "Haarlem",
			"state": "Noord-Holland",
			"lat": 52.3829,
			"lng": 4.63072
		},
		"ibu": 40,
		"abv": 7.5,
		"flavor": [
			"roasty",
			"creamy",
			"dark",
			"bitter",
			"caramel"
		],
		"type": "Porter - Baltic",
		"rating": 4
	},
	{
		"name": "SGT. Nightvision",
		"date": "2017-06-20T21:35:07.000Z",
		"serving": "Bottle",
		"brewery": {
			"name": "Uiltje Brewing Company",
			"country": "Netherlands",
			"city": "Haarlem",
			"state": "Noord-Holland"
		},
		"venue": {
			"name": "Uiltje Bar",
			"country": "Nederland",
			"city": "Haarlem",
			"state": "Noord-Holland",
			"lat": 52.3829,
			"lng": 4.63072
		},
		"ibu": 80,
		"abv": 10.5,
		"flavor": [
			"smoky",
			"dark",
			"coffee",
			"bitter"
		],
		"type": "Stout - Imperial / Double",
		"rating": 3.5
	},
	{
		"name": "Benediktiner Weissbier",
		"date": "2017-06-25T17:21:56.000Z",
		"serving": "Bottle",
		"brewery": {
			"name": "Benediktiner Weißbräu",
			"country": "Germany",
			"city": "82488 Ettal",
			"state": ""
		},
		"venue": {
			"name": null,
			"country": null,
			"city": null,
			"state": null,
			"lat": null,
			"lng": null
		},
		"ibu": 13,
		"abv": 5.4,
		"flavor": [
			"banana",
			"light",
			"smooth"
		],
		"type": "Hefeweizen",
		"rating": 4.5
	},
	{
		"name": "CORNET oaked",
		"date": "2017-06-25T18:19:43.000Z",
		"serving": "Bottle",
		"brewery": {
			"name": "Brouwerij De Hoorn",
			"country": "Belgium",
			"city": "Steenhuffel",
			"state": "Vlaanderen"
		},
		"venue": {
			"name": "Haarlem",
			"country": "Nederland",
			"city": "",
			"state": "Noord-Holland",
			"lat": 52.3892,
			"lng": 4.63838
		},
		"ibu": 25,
		"abv": 8.5,
		"flavor": [
			"light",
			"smooth"
		],
		"type": "Belgian Strong Golden Ale",
		"rating": 4
	},
	{
		"name": "La Trappe PUUR",
		"date": "2017-06-25T19:44:00.000Z",
		"serving": "Bottle",
		"brewery": {
			"name": "Bierbrouwerij De Koningshoeven",
			"country": "Netherlands",
			"city": "Berkel-Enschot",
			"state": "Noord-Brabant"
		},
		"venue": {
			"name": null,
			"country": null,
			"city": null,
			"state": null,
			"lat": null,
			"lng": null
		},
		"ibu": 25,
		"abv": 4.5,
		"flavor": [
			"clean",
			"light",
			"smooth",
			"hoppy",
			"bitter"
		],
		"type": "Pale Ale - Belgian",
		"rating": 3.5
	}
]