[
	{
		"name": "White Mamba",
		"date": "2017-12-08T15:23:25.000Z",
		"serving": "Bottle",
		"brewery": {
			"name": "Two Chefs Brewing",
			"country": "Netherlands",
			"city": "Amsterdam",
			"state": "Noord-Holland"
		},
		"venue": {
			"name": "BRET",
			"country": "Nederland",
			"city": "Amsterdam",
			"state": "Noord-Holland",
			"lat": 52.3896,
			"lng": 4.83682
		},
		"ibu": 12,
		"abv": 5,
		"flavor": [
			"fruity",
			"light",
			"citrus"
		],
		"type": "Wheat Beer - Witbier",
		"rating": 3.5
	},
	{
		"name": "Black Flag",
		"date": "2017-12-08T16:37:21.000Z",
		"serving": "Bottle",
		"brewery": {
			"name": "Oproer",
			"country": "Netherlands",
			"city": "Utrecht",
			"state": "Utrecht"
		},
		"venue": {
			"name": "BRET",
			"country": "Nederland",
			"city": "Amsterdam",
			"state": "Noord-Holland",
			"lat": 52.3896,
			"lng": 4.83682
		},
		"ibu": 75,
		"abv": 6.5,
		"flavor": [
			"roasty",
			"hoppy",
			"dark",
			"coffee",
			"bitter"
		],
		"type": "IPA - Black / Cascadian Dark Ale",
		"rating": 3
	},
	{
		"name": "Bloesem Blond",
		"date": "2017-12-08T18:41:27.000Z",
		"serving": "Taster",
		"brewery": {
			"name": "Gebrouwen Door Vrouwen",
			"country": "Netherlands",
			"city": "Amsterdam",
			"state": "Noord-Holland"
		},
		"venue": {
			"name": "BRET",
			"country": "Nederland",
			"city": "Amsterdam",
			"state": "Noord-Holland",
			"lat": 52.3896,
			"lng": 4.83682
		},
		"ibu": 18,
		"abv": 6.2,
		"flavor": [
			"floral",
			"fruity",
			"light",
			"sweet"
		],
		"type": "Belgian Blonde",
		"rating": 4.5
	},
	{
		"name": "Disco Bitch",
		"date": "2017-12-08T18:42:42.000Z",
		"serving": "Draft",
		"brewery": {
			"name": "Jopen",
			"country": "Netherlands",
			"city": "Haarlem",
			"state": "Noord-Holland"
		},
		"venue": {
			"name": "BRET",
			"country": "Nederland",
			"city": "Amsterdam",
			"state": "Noord-Holland",
			"lat": 52.3896,
			"lng": 4.83682
		},
		"ibu": 50,
		"abv": 6,
		"flavor": [
			"fruity",
			"dry",
			"hoppy",
			"bitter"
		],
		"type": "IPA - International",
		"rating": 3.5
	},
	{
		"name": "Osiris Farmhouse Ale",
		"date": "2017-12-15T10:56:13.000Z",
		"serving": "Bottle",
		"brewery": {
			"name": "Walhalla Brouwerij & Proeflokaal",
			"country": "Netherlands",
			"city": "Amsterdam",
			"state": "Noord-Holland"
		},
		"venue": {
			"name": "Cannibale Royale",
			"country": "Nederland",
			"city": "Amsterdam",
			"state": "Noord-Holland",
			"lat": 52.375,
			"lng": 4.89869
		},
		"ibu": 38,
		"abv": 7,
		"flavor": [
			"fruity",
			"sweet",
			"dry",
			"hoppy",
			"bitter"
		],
		"type": "Farmhouse Ale - Saison",
		"rating": 4.25
	},
	{
		"name": "Lowlander I.P.A.",
		"date": "2017-12-15T10:57:34.000Z",
		"serving": "Bottle",
		"brewery": {
			"name": "Lowlander Beer",
			"country": "Netherlands",
			"city": "Amsterdam",
			"state": "Noord-Holland"
		},
		"venue": {
			"name": "Cannibale Royale",
			"country": "Nederland",
			"city": "Amsterdam",
			"state": "Noord-Holland",
			"lat": 52.375,
			"lng": 4.89869
		},
		"ibu": 45,
		"abv": 6,
		"flavor": [
			"spicy",
			"fruity",
			"hoppy",
			"citrus",
			"bitter"
		],
		"type": "IPA - International",
		"rating": 4
	},
	{
		"name": "Kruidige Winterbok (2017)",
		"date": "2017-12-16T19:32:11.000Z",
		"serving": "Bottle",
		"brewery": {
			"name": "Koninklijke Grolsch",
			"country": "Netherlands",
			"city": "Enschede",
			"state": "Overijssel"
		},
		"venue": {
			"name": null,
			"country": null,
			"city": null,
			"state": null,
			"lat": null,
			"lng": null
		},
		"ibu": 0,
		"abv": 7.5,
		"flavor": [
			"roasty",
			"sweet",
			"warm",
			"honey",
			"caramel"
		],
		"type": "Bock - Single / Traditional",
		"rating": 4
	},
	{
		"name": "Sylvester",
		"date": "2017-12-16T20:19:01.000Z",
		"serving": "Bottle",
		"brewery": {
			"name": "Koninklijke Brand Bierbrouwerij",
			"country": "Netherlands",
			"city": "Wijlre",
			"state": "Limburg"
		},
		"venue": {
			"name": null,
			"country": null,
			"city": null,
			"state": null,
			"lat": null,
			"lng": null
		},
		"ibu": 26,
		"abv": 7.5,
		"flavor": [
			"malty",
			"spicy",
			"herbal",
			"sweet"
		],
		"type": "Winter Ale",
		"rating": 4
	},
	{
		"name": "Dreher Bak",
		"date": "2017-12-20T20:11:54.000Z",
		"serving": "Draft",
		"brewery": {
			"name": "Dreher Sörgyárak",
			"country": "Hungary",
			"city": "Budapest",
			"state": "Közép-Magyarország"
		},
		"venue": {
			"name": "Kiadó Kocsma",
			"country": "Magyarország",
			"city": "Budapest",
			"state": "Budapest",
			"lat": 47.5048,
			"lng": 19.0617
		},
		"ibu": 24,
		"abv": 7.3,
		"flavor": [
			"malty",
			"sweet",
			"dark",
			"coffee"
		],
		"type": "Bock - Single / Traditional",
		"rating": 3.5
	},
	{
		"name": "büza",
		"date": "2017-12-20T21:45:09.000Z",
		"serving": "Bottle",
		"brewery": {
			"name": "Hübris",
			"country": "Hungary",
			"city": "",
			"state": ""
		},
		"venue": {
			"name": "Spíler Shanghai",
			"country": "Magyarország",
			"city": "Budapest",
			"state": "Budapest",
			"lat": 47.4988,
			"lng": 19.0588
		},
		"ibu": 18,
		"abv": 4.1,
		"flavor": [
			"herbal",
			"grassy",
			"fruity",
			"citrus"
		],
		"type": "Wheat Beer - Witbier",
		"rating": 5
	},
	{
		"name": "Ubik Eklektik Herbál IPA",
		"date": "2017-12-20T22:03:11.000Z",
		"serving": "Bottle",
		"brewery": {
			"name": "Hübris",
			"country": "Hungary",
			"city": "",
			"state": ""
		},
		"venue": {
			"name": "Spíler Shanghai",
			"country": "Magyarország",
			"city": "Budapest",
			"state": "Budapest",
			"lat": 47.4988,
			"lng": 19.0588
		},
		"ibu": 71,
		"abv": 6,
		"flavor": [
			"malty",
			"herbal",
			"dry",
			"hoppy"
		],
		"type": "IPA - International",
		"rating": 3.75
	},
	{
		"name": "Mantra #3 Sumatra",
		"date": "2017-12-20T23:27:46.000Z",
		"serving": "Bottle",
		"brewery": {
			"name": "Hübris",
			"country": "Hungary",
			"city": "",
			"state": ""
		},
		"venue": {
			"name": "Spíler Shanghai",
			"country": "Magyarország",
			"city": "Budapest",
			"state": "Budapest",
			"lat": 47.4988,
			"lng": 19.0588
		},
		"ibu": 0,
		"abv": 5,
		"flavor": [
			"malty",
			"sour",
			"hoppy",
			"coffee"
		],
		"type": "Lager - Pale",
		"rating": 4
	},
	{
		"name": "Hofbräu Münchner Weisse / Münchner Kindl / Hefe Weizen",
		"date": "2017-12-22T20:22:19.000Z",
		"serving": "Bottle",
		"brewery": {
			"name": "Staatliches Hofbräuhaus München",
			"country": "Germany",
			"city": "Munich",
			"state": "Bayern"
		},
		"venue": {
			"name": "Hummus Bar",
			"country": "Magyarország",
			"city": "",
			"state": "",
			"lat": 47.5023,
			"lng": 19.0616
		},
		"ibu": 14,
		"abv": 5.1,
		"flavor": [
			"clove",
			"banana",
			"light",
			"sweet",
			"smooth"
		],
		"type": "Hefeweizen",
		"rating": 3.25
	},
	{
		"name": "Pauwel Kwak",
		"date": "2017-12-23T15:22:02.000Z",
		"serving": "Bottle",
		"brewery": {
			"name": "Brouwerij Bosteels",
			"country": "Belgium",
			"city": "Buggenhout",
			"state": "Vlaanderen"
		},
		"venue": {
			"name": "Belgian Beer Café",
			"country": "Magyarország",
			"city": "Győr",
			"state": "Győr-Moson-Sopron megye",
			"lat": 47.6842,
			"lng": 17.6351
		},
		"ibu": 0,
		"abv": 8.4,
		"flavor": [
			"sweet",
			"strong",
			"smooth"
		],
		"type": "Pale Ale - Belgian",
		"rating": 4.25
	},
	{
		"name": "Kőbányai",
		"date": "2017-12-25T18:23:38.000Z",
		"serving": "Draft",
		"brewery": {
			"name": "Dreher Sörgyárak",
			"country": "Hungary",
			"city": "Budapest",
			"state": "Közép-Magyarország"
		},
		"venue": {
			"name": "Schmauser Étterem és Söröző",
			"country": "Magyarország",
			"city": "Sopron",
			"state": "Győr-Moson-Sopron megye",
			"lat": 47.6845,
			"lng": 16.576
		},
		"ibu": 0,
		"abv": 4.3,
		"flavor": [
			"clean",
			"light",
			"thin"
		],
		"type": "Lager - Pale",
		"rating": 3
	},
	{
		"name": "Kéményseprő",
		"date": "2017-12-25T19:35:28.000Z",
		"serving": "Bottle",
		"brewery": {
			"name": "Fóti Kézműves Sörfőzde",
			"country": "Hungary",
			"city": "Fót",
			"state": "Közép-Magyarország"
		},
		"venue": {
			"name": "Kégli Kert",
			"country": "Magyarország",
			"city": "Sopron",
			"state": "Győr-Moson-Sopron megye",
			"lat": 47.6822,
			"lng": 16.5718
		},
		"ibu": 0,
		"abv": 6,
		"flavor": [
			"dark",
			"coffee",
			"chocolate"
		],
		"type": "Lager - Dark",
		"rating": 3
	},
	{
		"name": "Soproni Klasszikus",
		"date": "2017-12-26T15:33:38.000Z",
		"serving": "Bottle",
		"brewery": {
			"name": "Soproni Sörgyár (Heineken Hungária)",
			"country": "Hungary",
			"city": "Sopron",
			"state": "Dunántúl"
		},
		"venue": {
			"name": "Barátok Asztala",
			"country": "Magyarország",
			"city": "Kecskéd",
			"state": "Komárom-Esztergom megye",
			"lat": 47.5254,
			"lng": 18.3072
		},
		"ibu": 0,
		"abv": 4.5,
		"flavor": [
			"clean",
			"light",
			"smooth"
		],
		"type": "Lager - Pale",
		"rating": 3
	},
	{
		"name": "Zhiguli Barnoe (Жигули Барное)",
		"date": "2017-12-29T17:48:10.000Z",
		"serving": "Can",
		"brewery": {
			"name": "Moscow Brewing Company (Московская Пивоваренная Компания)",
			"country": "Russia",
			"city": "Mytishchi",
			"state": "Московская область"
		},
		"venue": {
			"name": null,
			"country": null,
			"city": null,
			"state": null,
			"lat": null,
			"lng": null
		},
		"ibu": 20,
		"abv": 4.9,
		"flavor": [
			"malty",
			"light",
			"smooth"
		],
		"type": "Lager - Pale",
		"rating": 3.5
	},
	{
		"name": "Tiltott Csíki Sör",
		"date": "2017-12-29T18:44:39.000Z",
		"serving": "Bottle",
		"brewery": {
			"name": "Csíki Sör Manufaktúra",
			"country": "Romania",
			"city": "Harghita",
			"state": "Harghita"
		},
		"venue": {
			"name": null,
			"country": null,
			"city": null,
			"state": null,
			"lat": null,
			"lng": null
		},
		"ibu": 0,
		"abv": 6,
		"flavor": [
			"malty",
			"clean",
			"sweet",
			"smooth"
		],
		"type": "Bock - Hell / Maibock / Lentebock",
		"rating": 3.25
	},
	{
		"name": "Tesco Finest Unfiltered Wheat",
		"date": "2017-12-29T19:21:21.000Z",
		"serving": "Bottle",
		"brewery": {
			"name": "Tesco Stores Ltd.",
			"country": "England",
			"city": "Welwyn Garden City",
			"state": "Hertfordshire"
		},
		"venue": {
			"name": null,
			"country": null,
			"city": null,
			"state": null,
			"lat": null,
			"lng": null
		},
		"ibu": 0,
		"abv": 5,
		"flavor": [
			"bread",
			"banana",
			"light",
			"sweet"
		],
		"type": "Hefeweizen",
		"rating": 3.5
	},
	{
		"name": "Tesco Finest Unfiltered Ale",
		"date": "2017-12-29T20:23:29.000Z",
		"serving": "Bottle",
		"brewery": {
			"name": "Tesco Stores Ltd.",
			"country": "England",
			"city": "Welwyn Garden City",
			"state": "Hertfordshire"
		},
		"venue": {
			"name": null,
			"country": null,
			"city": null,
			"state": null,
			"lat": null,
			"lng": null
		},
		"ibu": 0,
		"abv": 5.2,
		"flavor": [
			"light",
			"sour",
			"hoppy",
			"bitter"
		],
		"type": "Pale Ale - American",
		"rating": 4
	}
]