[
	{
		"name": "Lighthouse",
		"date": "2017-04-11T17:51:57.000Z",
		"serving": "",
		"brewery": {
			"name": "Pontus Brewing",
			"country": "Netherlands",
			"city": "Amsterdam",
			"state": "Noord-Holland"
		},
		"venue": {
			"name": null,
			"country": null,
			"city": null,
			"state": null,
			"lat": null,
			"lng": null
		},
		"ibu": 0,
		"abv": 6.5,
		"flavor": [
			"light"
		],
		"type": "Farmhouse Ale - Saison",
		"rating": 4
	},
	{
		"name": "Milkstout",
		"date": "2017-04-11T18:41:45.000Z",
		"serving": "Bottle",
		"brewery": {
			"name": "Brouwerij De Prael",
			"country": "Netherlands",
			"city": "Amsterdam",
			"state": "Noord-Holland"
		},
		"venue": {
			"name": "BRET",
			"country": "Nederland",
			"city": "Amsterdam",
			"state": "Noord-Holland",
			"lat": 52.3896,
			"lng": 4.83682
		},
		"ibu": 0,
		"abv": 4.9,
		"flavor": [
			"sweet",
			"smooth"
		],
		"type": "Stout - Milk / Sweet",
		"rating": 4
	},
	{
		"name": "Malle Babbe",
		"date": "2017-04-11T18:43:47.000Z",
		"serving": "",
		"brewery": {
			"name": "Jopen",
			"country": "Netherlands",
			"city": "Haarlem",
			"state": "Noord-Holland"
		},
		"venue": {
			"name": "BRET",
			"country": "Nederland",
			"city": "Amsterdam",
			"state": "Noord-Holland",
			"lat": 52.3896,
			"lng": 4.83682
		},
		"ibu": 12,
		"abv": 5.5,
		"flavor": [
			"fruity",
			"light"
		],
		"type": "Dunkelweizen",
		"rating": 4
	},
	{
		"name": "Bock+Sprong",
		"date": "2017-04-11T19:26:30.000Z",
		"serving": "Bottle",
		"brewery": {
			"name": "Brouwerij De 7 Deugden",
			"country": "Netherlands",
			"city": "Amsterdam",
			"state": "Noord-Holland"
		},
		"venue": {
			"name": null,
			"country": null,
			"city": null,
			"state": null,
			"lat": null,
			"lng": null
		},
		"ibu": 30,
		"abv": 8,
		"flavor": [
			"light",
			"dark"
		],
		"type": "Bock - Single / Traditional",
		"rating": 3.5
	},
	{
		"name": "La Trappe Blond",
		"date": "2017-04-11T19:29:19.000Z",
		"serving": "",
		"brewery": {
			"name": "Bierbrouwerij De Koningshoeven",
			"country": "Netherlands",
			"city": "Berkel-Enschot",
			"state": "Noord-Brabant"
		},
		"venue": {
			"name": "BRET",
			"country": "Nederland",
			"city": "Amsterdam",
			"state": "Noord-Holland",
			"lat": 52.3896,
			"lng": 4.83682
		},
		"ibu": 20,
		"abv": 6.5,
		"flavor": [
			"banana",
			"smooth"
		],
		"type": "Belgian Blonde",
		"rating": 4
	},
	{
		"name": "Tripel",
		"date": "2017-04-13T20:36:07.000Z",
		"serving": "Bottle",
		"brewery": {
			"name": "Hertog Jan",
			"country": "Netherlands",
			"city": "Arcen",
			"state": "Limburg"
		},
		"venue": {
			"name": "Haarlem",
			"country": "Nederland",
			"city": "",
			"state": "Noord-Holland",
			"lat": 52.3892,
			"lng": 4.63838
		},
		"ibu": 22,
		"abv": 8.5,
		"flavor": [
			""
		],
		"type": "Belgian Tripel",
		"rating": 4
	},
	{
		"name": "Tripel",
		"date": "2017-04-15T17:29:56.000Z",
		"serving": "",
		"brewery": {
			"name": "Hertog Jan",
			"country": "Netherlands",
			"city": "Arcen",
			"state": "Limburg"
		},
		"venue": {
			"name": "Haarlem",
			"country": "Nederland",
			"city": "",
			"state": "Noord-Holland",
			"lat": 52.3892,
			"lng": 4.63838
		},
		"ibu": 22,
		"abv": 8.5,
		"flavor": [
			"fruity",
			"strong",
			"smooth"
		],
		"type": "Belgian Tripel",
		"rating": 4
	},
	{
		"name": "Straffe Hendrik Brugs Tripel Bier 9°",
		"date": "2017-04-16T21:17:13.000Z",
		"serving": "Bottle",
		"brewery": {
			"name": "Brouwerij De Halve Maan",
			"country": "Belgium",
			"city": "Bruges",
			"state": "Vlaanderen"
		},
		"venue": {
			"name": "Haarlem",
			"country": "Nederland",
			"city": "",
			"state": "Noord-Holland",
			"lat": 52.3892,
			"lng": 4.63838
		},
		"ibu": 35,
		"abv": 9,
		"flavor": [
			"strong"
		],
		"type": "Belgian Tripel",
		"rating": 3.5
	},
	{
		"name": "Straffe Hendrik Brugs Tripel Bier 9°",
		"date": "2017-04-19T19:14:57.000Z",
		"serving": "Bottle",
		"brewery": {
			"name": "Brouwerij De Halve Maan",
			"country": "Belgium",
			"city": "Bruges",
			"state": "Vlaanderen"
		},
		"venue": {
			"name": "Haarlem",
			"country": "Nederland",
			"city": "",
			"state": "Noord-Holland",
			"lat": 52.3892,
			"lng": 4.63838
		},
		"ibu": 35,
		"abv": 9,
		"flavor": [
			""
		],
		"type": "Belgian Tripel",
		"rating": 3.5
	},
	{
		"name": "Allgäuer Büble Bier Edelweissbier",
		"date": "2017-04-21T20:52:39.000Z",
		"serving": "Draft",
		"brewery": {
			"name": "Allgäuer Brauhaus",
			"country": "Germany",
			"city": "Kempten (Allgäu)",
			"state": "Bayern"
		},
		"venue": {
			"name": "Spreegold",
			"country": "Deutschland",
			"city": "Berlin",
			"state": "Berlin",
			"lat": 52.523,
			"lng": 13.4091
		},
		"ibu": 13,
		"abv": 5.3,
		"flavor": [
			"light",
			"smooth"
		],
		"type": "Hefeweizen",
		"rating": 5
	},
	{
		"name": "Extra Stout",
		"date": "2017-04-26T17:26:11.000Z",
		"serving": "Bottle",
		"brewery": {
			"name": "Jopen",
			"country": "Netherlands",
			"city": "Haarlem",
			"state": "Noord-Holland"
		},
		"venue": {
			"name": "BRET",
			"country": "Nederland",
			"city": "Amsterdam",
			"state": "Noord-Holland",
			"lat": 52.3896,
			"lng": 4.83682
		},
		"ibu": 45,
		"abv": 5.5,
		"flavor": [
			"dark",
			"coffee"
		],
		"type": "Stout - Other",
		"rating": 3.5
	},
	{
		"name": "Tropical Ralphie",
		"date": "2017-04-26T17:52:38.000Z",
		"serving": "Bottle",
		"brewery": {
			"name": "Two Chefs Brewing",
			"country": "Netherlands",
			"city": "Amsterdam",
			"state": "Noord-Holland"
		},
		"venue": {
			"name": "BRET",
			"country": "Nederland",
			"city": "Amsterdam",
			"state": "Noord-Holland",
			"lat": 52.3896,
			"lng": 4.83682
		},
		"ibu": 20,
		"abv": 5,
		"flavor": [
			"fruity",
			"light"
		],
		"type": "Hefeweizen",
		"rating": 4
	},
	{
		"name": "Kriek Boon",
		"date": "2017-04-26T18:56:09.000Z",
		"serving": "Bottle",
		"brewery": {
			"name": "Brouwerij Boon",
			"country": "Belgium",
			"city": "Lembeek",
			"state": "Vlaanderen"
		},
		"venue": {
			"name": "BRET",
			"country": "Nederland",
			"city": "Amsterdam",
			"state": "Noord-Holland",
			"lat": 52.3896,
			"lng": 4.83682
		},
		"ibu": 0,
		"abv": 4,
		"flavor": [
			"fruity",
			"sweet",
			"sour"
		],
		"type": "Lambic - Kriek",
		"rating": 5
	},
	{
		"name": "Thai Thai",
		"date": "2017-04-26T19:45:59.000Z",
		"serving": "Bottle",
		"brewery": {
			"name": "Oedipus Brewing",
			"country": "Netherlands",
			"city": "Amsterdam",
			"state": "Noord-Holland"
		},
		"venue": {
			"name": "BRET",
			"country": "Nederland",
			"city": "Amsterdam",
			"state": "Noord-Holland",
			"lat": 52.3896,
			"lng": 4.83682
		},
		"ibu": 20,
		"abv": 8,
		"flavor": [
			"spicy"
		],
		"type": "Belgian Tripel",
		"rating": 2.5
	},
	{
		"name": "Lentebier",
		"date": "2017-04-27T15:21:48.000Z",
		"serving": "",
		"brewery": {
			"name": "Jopen",
			"country": "Netherlands",
			"city": "Haarlem",
			"state": "Noord-Holland"
		},
		"venue": {
			"name": "Small Talk",
			"country": "Nederland",
			"city": "Amsterdam",
			"state": "Noord-Holland",
			"lat": 52.358,
			"lng": 4.8788
		},
		"ibu": 40,
		"abv": 7,
		"flavor": [
			"spring",
			"light",
			"citrus"
		],
		"type": "Pale Ale - Belgian",
		"rating": 4.5
	},
	{
		"name": "Oude Geuze Boon",
		"date": "2017-04-29T18:29:44.000Z",
		"serving": "Bottle",
		"brewery": {
			"name": "Brouwerij Boon",
			"country": "Belgium",
			"city": "Lembeek",
			"state": "Vlaanderen"
		},
		"venue": {
			"name": "BRET",
			"country": "Nederland",
			"city": "Amsterdam",
			"state": "Noord-Holland",
			"lat": 52.3896,
			"lng": 4.83682
		},
		"ibu": 22,
		"abv": 7,
		"flavor": [
			"fruity",
			"sour"
		],
		"type": "Lambic - Gueuze",
		"rating": 4.5
	},
	{
		"name": "La Trappe Blond",
		"date": "2017-04-29T19:16:10.000Z",
		"serving": "",
		"brewery": {
			"name": "Bierbrouwerij De Koningshoeven",
			"country": "Netherlands",
			"city": "Berkel-Enschot",
			"state": "Noord-Brabant"
		},
		"venue": {
			"name": "BRET",
			"country": "Nederland",
			"city": "Amsterdam",
			"state": "Noord-Holland",
			"lat": 52.3896,
			"lng": 4.83682
		},
		"ibu": 20,
		"abv": 6.5,
		"flavor": [
			"fruity",
			"banana",
			"light",
			"sweet",
			"smooth"
		],
		"type": "Belgian Blonde",
		"rating": 4
	},
	{
		"name": "Tropical Ralphie",
		"date": "2017-04-29T20:01:54.000Z",
		"serving": "Bottle",
		"brewery": {
			"name": "Two Chefs Brewing",
			"country": "Netherlands",
			"city": "Amsterdam",
			"state": "Noord-Holland"
		},
		"venue": {
			"name": "BRET",
			"country": "Nederland",
			"city": "Amsterdam",
			"state": "Noord-Holland",
			"lat": 52.3896,
			"lng": 4.83682
		},
		"ibu": 20,
		"abv": 5,
		"flavor": [
			""
		],
		"type": "Hefeweizen",
		"rating": 4
	},
	{
		"name": "Bavaria Radler Citroen 2.0%",
		"date": "2017-04-30T19:36:28.000Z",
		"serving": "Bottle",
		"brewery": {
			"name": "Royal Swinkels Family Brewers",
			"country": "Netherlands",
			"city": "Lieshout",
			"state": "Noord-Brabant"
		},
		"venue": {
			"name": "Haarlem",
			"country": "Nederland",
			"city": "",
			"state": "Noord-Holland",
			"lat": 52.3892,
			"lng": 4.63838
		},
		"ibu": 0,
		"abv": 2,
		"flavor": [
			"lemony",
			"fruity",
			"light",
			"sweet"
		],
		"type": "Shandy / Radler",
		"rating": 4
	},
	{
		"name": "Bavaria Radler Citroen 2.0%",
		"date": "2017-04-30T20:12:58.000Z",
		"serving": "Bottle",
		"brewery": {
			"name": "Royal Swinkels Family Brewers",
			"country": "Netherlands",
			"city": "Lieshout",
			"state": "Noord-Brabant"
		},
		"venue": {
			"name": "Haarlem",
			"country": "Nederland",
			"city": "",
			"state": "Noord-Holland",
			"lat": 52.3892,
			"lng": 4.63838
		},
		"ibu": 0,
		"abv": 2,
		"flavor": [
			""
		],
		"type": "Shandy / Radler",
		"rating": 4
	}
]