[
	{
		"name": "Wieckse Witte",
		"date": "2018-02-01T21:30:22.000Z",
		"serving": "Bottle",
		"brewery": {
			"name": "Wieckse",
			"country": "Netherlands",
			"city": "Maastricht",
			"state": "Limburg"
		},
		"venue": {
			"name": "Paradiso",
			"country": "Nederland",
			"city": "Amsterdam",
			"state": "Noord-Holland",
			"lat": 52.3622,
			"lng": 4.88387
		},
		"ibu": 0,
		"abv": 5,
		"flavor": [
			"fruity",
			"light",
			"sweet",
			"warm",
			"smooth"
		],
		"type": "Wheat Beer - Witbier",
		"rating": 3
	},
	{
		"name": "La Chouffe Blond",
		"date": "2018-02-02T20:58:45.000Z",
		"serving": "Bottle",
		"brewery": {
			"name": "Brasserie d'Achouffe",
			"country": "Belgium",
			"city": "Achouffe",
			"state": "Wallonie"
		},
		"venue": {
			"name": "Albert Heijn to go",
			"country": "Nederland",
			"city": "Haarlem",
			"state": "Noord-Holland",
			"lat": 52.3885,
			"lng": 4.63954
		},
		"ibu": 20,
		"abv": 8,
		"flavor": [
			"fruity",
			"light",
			"sweet",
			"strong",
			"smooth"
		],
		"type": "Belgian Strong Golden Ale",
		"rating": 4.25
	},
	{
		"name": "Franziskaner Premium Weissbier Naturtrüb",
		"date": "2018-02-06T17:40:16.000Z",
		"serving": "Bottle",
		"brewery": {
			"name": "Spaten-Franziskaner-Löwenbräu-Gruppe",
			"country": "Germany",
			"city": "Munich",
			"state": "Bayern"
		},
		"venue": {
			"name": "Haarlem",
			"country": "Nederland",
			"city": "",
			"state": "Noord-Holland",
			"lat": 52.3892,
			"lng": 4.63838
		},
		"ibu": 12,
		"abv": 5,
		"flavor": [
			"fruity",
			"light",
			"sweet",
			"smooth"
		],
		"type": "Hefeweizen",
		"rating": 4.5
	},
	{
		"name": "Vedett Extra Ordinary IPA",
		"date": "2018-02-09T21:26:37.000Z",
		"serving": "Bottle",
		"brewery": {
			"name": "Duvel Moortgat",
			"country": "Belgium",
			"city": "Puurs",
			"state": "Vlaanderen"
		},
		"venue": {
			"name": "MEZRAB",
			"country": "Nederland",
			"city": "Amsterdam",
			"state": "Noord-Holland",
			"lat": 52.376,
			"lng": 4.92771
		},
		"ibu": 40,
		"abv": 5.5,
		"flavor": [
			"fruity",
			"light",
			"dry",
			"hoppy"
		],
		"type": "IPA - Belgian",
		"rating": 4
	},
	{
		"name": "Kingfisher Premium Lager",
		"date": "2018-02-10T19:52:56.000Z",
		"serving": "Bottle",
		"brewery": {
			"name": "United Breweries",
			"country": "India",
			"city": "",
			"state": "Bangalore"
		},
		"venue": {
			"name": "Jai Bharat",
			"country": "Nederland",
			"city": "Haarlem",
			"state": "Noord-Holland",
			"lat": 52.3808,
			"lng": 4.63796
		},
		"ibu": 20,
		"abv": 5,
		"flavor": [
			"malty",
			"spicy",
			"light",
			"smooth"
		],
		"type": "Lager - American",
		"rating": 3.5
	},
	{
		"name": "Gin Weizen",
		"date": "2018-02-11T20:30:42.000Z",
		"serving": "Bottle",
		"brewery": {
			"name": "Gebrouwen Door Vrouwen",
			"country": "Netherlands",
			"city": "Amsterdam",
			"state": "Noord-Holland"
		},
		"venue": {
			"name": "Haarlem",
			"country": "Nederland",
			"city": "",
			"state": "Noord-Holland",
			"lat": 52.3892,
			"lng": 4.63838
		},
		"ibu": 16,
		"abv": 6,
		"flavor": [
			"juniper",
			"fruity",
			"light",
			"sweet"
		],
		"type": "Hefeweizen",
		"rating": 4.5
	},
	{
		"name": "La Trappe Witte Trappist",
		"date": "2018-02-12T20:10:42.000Z",
		"serving": "Bottle",
		"brewery": {
			"name": "Bierbrouwerij De Koningshoeven",
			"country": "Netherlands",
			"city": "Berkel-Enschot",
			"state": "Noord-Brabant"
		},
		"venue": {
			"name": "Haarlem",
			"country": "Nederland",
			"city": "",
			"state": "Noord-Holland",
			"lat": 52.3892,
			"lng": 4.63838
		},
		"ibu": 14,
		"abv": 5.5,
		"flavor": [
			"fruity",
			"light",
			"sweet",
			"smooth"
		],
		"type": "Wheat Beer - Witbier",
		"rating": 4.5
	},
	{
		"name": "Rosemary's Tears",
		"date": "2018-02-15T18:18:58.000Z",
		"serving": "Draft",
		"brewery": {
			"name": "Austmann",
			"country": "Norway",
			"city": "Trondheim",
			"state": "Trøndelag"
		},
		"venue": {
			"name": "Bierlokaal de Uiver",
			"country": "Nederland",
			"city": "Haarlem",
			"state": "Noord-Holland",
			"lat": 52.3821,
			"lng": 4.63898
		},
		"ibu": 0,
		"abv": 4.7,
		"flavor": [
			"spicy",
			"aromatic",
			"heavy",
			"salty",
			"licorice"
		],
		"type": "Spiced / Herbed Beer",
		"rating": 4.5
	},
	{
		"name": "Pumpkin Party",
		"date": "2018-02-15T19:49:02.000Z",
		"serving": "Draft",
		"brewery": {
			"name": "Gebrouwen Door Vrouwen",
			"country": "Netherlands",
			"city": "Amsterdam",
			"state": "Noord-Holland"
		},
		"venue": {
			"name": "Bierlokaal de Uiver",
			"country": "Nederland",
			"city": "Haarlem",
			"state": "Noord-Holland",
			"lat": 52.3821,
			"lng": 4.63898
		},
		"ibu": 27,
		"abv": 6.9,
		"flavor": [
			"malty",
			"spicy",
			"sweet",
			"bitter"
		],
		"type": "Pumpkin / Yam Beer",
		"rating": 4
	},
	{
		"name": "Kompaan 20 Bondgenoot",
		"date": "2018-02-16T19:20:42.000Z",
		"serving": "",
		"brewery": {
			"name": "KOMPAAN Dutch Craft Beer Company",
			"country": "Netherlands",
			"city": "Den Haag",
			"state": "Zuid-Holland"
		},
		"venue": {
			"name": "August Allebéplein",
			"country": "Nederland",
			"city": "",
			"state": "",
			"lat": 52.3632,
			"lng": 4.8372
		},
		"ibu": 38,
		"abv": 5.2,
		"flavor": [
			"fruity",
			"light",
			"dry",
			"hoppy",
			"bitter"
		],
		"type": "Pale Ale - International",
		"rating": 4
	},
	{
		"name": "Gin Weizen",
		"date": "2018-02-16T21:00:14.000Z",
		"serving": "Bottle",
		"brewery": {
			"name": "Gebrouwen Door Vrouwen",
			"country": "Netherlands",
			"city": "Amsterdam",
			"state": "Noord-Holland"
		},
		"venue": {
			"name": "August Allebéplein",
			"country": "Nederland",
			"city": "",
			"state": "",
			"lat": 52.3632,
			"lng": 4.8372
		},
		"ibu": 16,
		"abv": 6,
		"flavor": [
			"juniper",
			"fruity",
			"light",
			"sweet"
		],
		"type": "Hefeweizen",
		"rating": 4.25
	},
	{
		"name": "Honingblond",
		"date": "2018-02-16T21:01:35.000Z",
		"serving": "Bottle",
		"brewery": {
			"name": "Brouwerij Troost",
			"country": "Netherlands",
			"city": "Amsterdam",
			"state": "Noord-Holland"
		},
		"venue": {
			"name": "August Allebéplein",
			"country": "Nederland",
			"city": "",
			"state": "",
			"lat": 52.3632,
			"lng": 4.8372
		},
		"ibu": 26,
		"abv": 7,
		"flavor": [
			"sweet",
			"strong",
			"hoppy",
			"honey"
		],
		"type": "Honey Beer",
		"rating": 3.5
	},
	{
		"name": "Punk IPA",
		"date": "2018-02-17T21:19:11.000Z",
		"serving": "Bottle",
		"brewery": {
			"name": "BrewDog",
			"country": "Scotland",
			"city": "Ellon",
			"state": "Aberdeenshire"
		},
		"venue": {
			"name": "Wunderbar",
			"country": "Nederland",
			"city": "Rotterdam",
			"state": "Zuid-Holland",
			"lat": 51.9156,
			"lng": 4.47643
		},
		"ibu": 35,
		"abv": 5.6,
		"flavor": [
			"fruity",
			"light",
			"smooth",
			"hoppy"
		],
		"type": "IPA - American",
		"rating": 4
	},
	{
		"name": "La Chouffe Blond",
		"date": "2018-02-22T22:00:55.000Z",
		"serving": "Bottle",
		"brewery": {
			"name": "Brasserie d'Achouffe",
			"country": "Belgium",
			"city": "Achouffe",
			"state": "Wallonie"
		},
		"venue": {
			"name": "Haarlem",
			"country": "Nederland",
			"city": "",
			"state": "Noord-Holland",
			"lat": 52.3892,
			"lng": 4.63838
		},
		"ibu": 20,
		"abv": 8,
		"flavor": [
			"fruity",
			"light",
			"strong",
			"smooth"
		],
		"type": "Belgian Strong Golden Ale",
		"rating": 4.25
	},
	{
		"name": "Silver",
		"date": "2018-02-24T18:32:36.000Z",
		"serving": "Bottle",
		"brewery": {
			"name": "Bourgogne Kruis",
			"country": "Netherlands",
			"city": "Oosterhout",
			"state": "Noord-Brabant"
		},
		"venue": {
			"name": "Lokaal Haarlem",
			"country": "Nederland",
			"city": "Haarlem",
			"state": "Noord-Holland",
			"lat": 52.3811,
			"lng": 4.63475
		},
		"ibu": 35,
		"abv": 8,
		"flavor": [
			"boozy",
			"citrus",
			"bitter",
			"body"
		],
		"type": "Blonde Ale",
		"rating": 4.25
	},
	{
		"name": "Stoeien Met Stout",
		"date": "2018-02-24T19:17:46.000Z",
		"serving": "Draft",
		"brewery": {
			"name": "Briljant Brouwhuis",
			"country": "Netherlands",
			"city": "Haarlem",
			"state": "Noord-Holland"
		},
		"venue": {
			"name": "Lokaal Haarlem",
			"country": "Nederland",
			"city": "Haarlem",
			"state": "Noord-Holland",
			"lat": 52.3811,
			"lng": 4.63475
		},
		"ibu": 65,
		"abv": 9.8,
		"flavor": [
			"malty",
			"heavy",
			"sour",
			"apple"
		],
		"type": "Stout - Russian Imperial",
		"rating": 4
	}
]