[
	{
		"name": "Hoegaarden Wit / Blanche",
		"date": "2018-01-03T17:25:11.000Z",
		"serving": "Draft",
		"brewery": {
			"name": "Brouwerij Hoegaarden",
			"country": "Belgium",
			"city": "Hoegaarden",
			"state": "Vlaanderen"
		},
		"venue": {
			"name": "Flakon",
			"country": "Magyarország",
			"city": "Budapest",
			"state": "Budapest",
			"lat": 47.5046,
			"lng": 19.1351
		},
		"ibu": 15,
		"abv": 4.9,
		"flavor": [
			"fruity",
			"banana",
			"light",
			"sweet",
			"smooth"
		],
		"type": "Wheat Beer - Witbier",
		"rating": 4.25
	},
	{
		"name": "Staropramen Unfiltered / Nefiltrovaný / Wheat / Pšeničný",
		"date": "2018-01-03T18:05:26.000Z",
		"serving": "Draft",
		"brewery": {
			"name": "Pivovary Staropramen",
			"country": "Czech Republic",
			"city": "Prague",
			"state": "Praha"
		},
		"venue": {
			"name": "Flakon",
			"country": "Magyarország",
			"city": "Budapest",
			"state": "Budapest",
			"lat": 47.5046,
			"lng": 19.1351
		},
		"ibu": 18,
		"abv": 5,
		"flavor": [
			"light",
			"smooth",
			"hoppy"
		],
		"type": "Wheat Beer - Other",
		"rating": 3.5
	},
	{
		"name": "Staropramen Dark Beer / Černý ležák",
		"date": "2018-01-03T19:07:54.000Z",
		"serving": "Bottle",
		"brewery": {
			"name": "Pivovary Staropramen",
			"country": "Czech Republic",
			"city": "Prague",
			"state": "Praha"
		},
		"venue": {
			"name": "Flakon",
			"country": "Magyarország",
			"city": "Budapest",
			"state": "Budapest",
			"lat": 47.5046,
			"lng": 19.1351
		},
		"ibu": 25,
		"abv": 4.4,
		"flavor": [
			"malty",
			"dark"
		],
		"type": "Lager - Dark",
		"rating": 3.75
	},
	{
		"name": "Kasteel Donker",
		"date": "2018-01-09T22:03:55.000Z",
		"serving": "Bottle",
		"brewery": {
			"name": "Kasteel Brouwerij Vanhonsebrouck",
			"country": "Belgium",
			"city": "Izegem",
			"state": "Vlaanderen"
		},
		"venue": {
			"name": "Haarlem",
			"country": "Nederland",
			"city": "",
			"state": "Noord-Holland",
			"lat": 52.3892,
			"lng": 4.63838
		},
		"ibu": 0,
		"abv": 11,
		"flavor": [
			"sweet",
			"strong",
			"smooth",
			"dark"
		],
		"type": "Belgian Quadrupel",
		"rating": 3.75
	},
	{
		"name": "Tonttu",
		"date": "2018-01-10T18:13:55.000Z",
		"serving": "Draft",
		"brewery": {
			"name": "Thornbridge Brewery",
			"country": "England",
			"city": "Bakewell",
			"state": "Derbyshire"
		},
		"venue": {
			"name": "Jopenkerk Haarlem",
			"country": "Nederland",
			"city": "Haarlem",
			"state": "Noord-Holland",
			"lat": 52.3812,
			"lng": 4.62982
		},
		"ibu": 55,
		"abv": 6,
		"flavor": [
			"malty",
			"fruity",
			"light",
			"hoppy"
		],
		"type": "Red Ale - American Amber / Red",
		"rating": 4.25
	},
	{
		"name": "Weihenstephaner Hefeweissbier",
		"date": "2018-01-10T18:54:54.000Z",
		"serving": "Draft",
		"brewery": {
			"name": "Bayerische Staatsbrauerei Weihenstephan",
			"country": "Germany",
			"city": "Freising",
			"state": "Bayern"
		},
		"venue": {
			"name": "Café de Vijfhoek",
			"country": "Nederland",
			"city": "Haarlem",
			"state": "Noord-Holland",
			"lat": 52.3789,
			"lng": 4.6302
		},
		"ibu": 14,
		"abv": 5.4,
		"flavor": [
			"clove",
			"banana",
			"light",
			"sweet",
			"smooth"
		],
		"type": "Hefeweizen",
		"rating": 4.25
	},
	{
		"name": "Schwarzwalder Kirsch",
		"date": "2018-01-10T19:30:09.000Z",
		"serving": "Draft",
		"brewery": {
			"name": "Uiltje Brewing Company",
			"country": "Netherlands",
			"city": "Haarlem",
			"state": "Noord-Holland"
		},
		"venue": {
			"name": "Café de Vijfhoek",
			"country": "Nederland",
			"city": "Haarlem",
			"state": "Noord-Holland",
			"lat": 52.3789,
			"lng": 4.6302
		},
		"ibu": 65,
		"abv": 8,
		"flavor": [
			"oatmeal",
			"creamy",
			"sweet",
			"dark"
		],
		"type": "Stout - Imperial / Double Oatmeal",
		"rating": 4.25
	},
	{
		"name": "Grimbergen Blonde",
		"date": "2018-01-10T20:11:04.000Z",
		"serving": "Draft",
		"brewery": {
			"name": "Brouwerij Alken-Maes",
			"country": "Belgium",
			"city": "Mechelen",
			"state": "Vlaanderen"
		},
		"venue": {
			"name": "Café de Vijfhoek",
			"country": "Nederland",
			"city": "Haarlem",
			"state": "Noord-Holland",
			"lat": 52.3789,
			"lng": 4.6302
		},
		"ibu": 22,
		"abv": 6.7,
		"flavor": [
			"fruity",
			"light",
			"sweet",
			"smooth"
		],
		"type": "Belgian Blonde",
		"rating": 3.75
	},
	{
		"name": "Witte Vrouwen",
		"date": "2018-01-12T21:04:22.000Z",
		"serving": "Bottle",
		"brewery": {
			"name": "Brouwerij De Leckere",
			"country": "Netherlands",
			"city": "Utrecht",
			"state": "Utrecht"
		},
		"venue": {
			"name": "Haarlem",
			"country": "Nederland",
			"city": "",
			"state": "Noord-Holland",
			"lat": 52.3892,
			"lng": 4.63838
		},
		"ibu": 14,
		"abv": 5,
		"flavor": [
			"fruity",
			"light",
			"sweet",
			"sour",
			"smooth"
		],
		"type": "Wheat Beer - Witbier",
		"rating": 4.5
	},
	{
		"name": "Brugse Zot",
		"date": "2018-01-14T20:58:48.000Z",
		"serving": "Bottle",
		"brewery": {
			"name": "Brouwerij De Halve Maan",
			"country": "Belgium",
			"city": "Bruges",
			"state": "Vlaanderen"
		},
		"venue": {
			"name": "Haarlem",
			"country": "Nederland",
			"city": "",
			"state": "Noord-Holland",
			"lat": 52.3892,
			"lng": 4.63838
		},
		"ibu": 23,
		"abv": 6,
		"flavor": [
			"fruity",
			"light",
			"sweet",
			"smooth"
		],
		"type": "Belgian Blonde",
		"rating": 4.5
	},
	{
		"name": "La Chouffe Blond",
		"date": "2018-01-19T17:49:56.000Z",
		"serving": "Bottle",
		"brewery": {
			"name": "Brasserie d'Achouffe",
			"country": "Belgium",
			"city": "Achouffe",
			"state": "Wallonie"
		},
		"venue": {
			"name": "Haarlem",
			"country": "Nederland",
			"city": "",
			"state": "Noord-Holland",
			"lat": 52.3892,
			"lng": 4.63838
		},
		"ibu": 20,
		"abv": 8,
		"flavor": [
			"fruity",
			"sweet",
			"strong",
			"smooth"
		],
		"type": "Belgian Strong Golden Ale",
		"rating": 4.5
	},
	{
		"name": "La Chouffe Blond",
		"date": "2018-01-23T20:40:44.000Z",
		"serving": "",
		"brewery": {
			"name": "Brasserie d'Achouffe",
			"country": "Belgium",
			"city": "Achouffe",
			"state": "Wallonie"
		},
		"venue": {
			"name": "Haarlem",
			"country": "Nederland",
			"city": "",
			"state": "Noord-Holland",
			"lat": 52.3892,
			"lng": 4.63838
		},
		"ibu": 20,
		"abv": 8,
		"flavor": [
			"fruity",
			"light",
			"strong",
			"smooth"
		],
		"type": "Belgian Strong Golden Ale",
		"rating": 4.25
	},
	{
		"name": "Lambrate",
		"date": "2018-01-27T19:44:55.000Z",
		"serving": "Bottle",
		"brewery": {
			"name": "Birrificio Lambrate",
			"country": "Italy",
			"city": "Milan",
			"state": "Lombardia"
		},
		"venue": {
			"name": "De Pizzabakkers",
			"country": "Nederland",
			"city": "Haarlem",
			"state": "Noord-Holland",
			"lat": 52.3856,
			"lng": 4.63624
		},
		"ibu": 40,
		"abv": 7,
		"flavor": [
			"malty",
			"grainy",
			"fruity",
			"sweet",
			"hoppy"
		],
		"type": "Bock - Single / Traditional",
		"rating": 4.25
	},
	{
		"name": "Asahi Super Dry",
		"date": "2018-01-28T17:54:26.000Z",
		"serving": "Bottle",
		"brewery": {
			"name": "Asahi Breweries",
			"country": "Japan",
			"city": "Sumida-ku",
			"state": "Tokyo"
		},
		"venue": {
			"name": "Sushi Time",
			"country": "Nederland",
			"city": "",
			"state": "",
			"lat": 52.3869,
			"lng": 4.63654
		},
		"ibu": 20,
		"abv": 5.2,
		"flavor": [
			"clean",
			"light",
			"dry",
			"smooth"
		],
		"type": "Lager - Japanese Rice",
		"rating": 4
	},
	{
		"name": "Vedett Extra Blond",
		"date": "2018-01-30T19:43:34.000Z",
		"serving": "Bottle",
		"brewery": {
			"name": "Duvel Moortgat",
			"country": "Belgium",
			"city": "Puurs",
			"state": "Vlaanderen"
		},
		"venue": {
			"name": "Albert Heijn to go",
			"country": "Nederland",
			"city": "Haarlem",
			"state": "Noord-Holland",
			"lat": 52.3885,
			"lng": 4.63954
		},
		"ibu": 26,
		"abv": 5.2,
		"flavor": [
			"clean",
			"light",
			"dry",
			"hoppy"
		],
		"type": "Lager - Pale",
		"rating": 3.5
	},
	{
		"name": "Vedett Extra White",
		"date": "2018-01-31T19:57:42.000Z",
		"serving": "Bottle",
		"brewery": {
			"name": "Duvel Moortgat",
			"country": "Belgium",
			"city": "Puurs",
			"state": "Vlaanderen"
		},
		"venue": {
			"name": "Albert Heijn to go",
			"country": "Nederland",
			"city": "Haarlem",
			"state": "Noord-Holland",
			"lat": 52.3885,
			"lng": 4.63954
		},
		"ibu": 4,
		"abv": 4.7,
		"flavor": [
			"fruity",
			"light",
			"sour",
			"smooth"
		],
		"type": "Wheat Beer - Witbier",
		"rating": 4
	}
]