[
	{
		"date": "2011-11-07T14:11:53.000Z",
		"name": "BME I épület",
		"id": "4bcd89a5fb84c9b6311c223e",
		"lat": 47.472654177471675,
		"lng": 19.059821807961907,
		"address": "Magyar tudósok körútja 2.",
		"postalCode": "1117",
		"city": "Budapest",
		"country": "Magyarország",
		"categories": [
			"College Technology Building"
		]
	},
	{
		"date": "2011-11-07T16:01:00.000Z",
		"name": "BME R épület",
		"id": "4ba8e306f964a5202cf739e3",
		"lat": 47.47900888118355,
		"lng": 19.058887218991554,
		"address": "Műegyetem rakpart 7-9.",
		"postalCode": "1111",
		"city": "Budapest",
		"country": "Magyarország",
		"categories": [
			"College Academic Building",
			"College Administrative Building",
			"Student Center"
		]
	},
	{
		"date": "2011-11-07T16:59:24.000Z",
		"name": "BME I épület",
		"id": "4bcd89a5fb84c9b6311c223e",
		"lat": 47.472654177471675,
		"lng": 19.059821807961907,
		"address": "Magyar tudósok körútja 2.",
		"postalCode": "1117",
		"city": "Budapest",
		"country": "Magyarország",
		"categories": [
			"College Technology Building"
		]
	},
	{
		"date": "2011-11-10T06:44:20.000Z",
		"name": "BME I épület",
		"id": "4bcd89a5fb84c9b6311c223e",
		"lat": 47.472654177471675,
		"lng": 19.059821807961907,
		"address": "Magyar tudósok körútja 2.",
		"postalCode": "1117",
		"city": "Budapest",
		"country": "Magyarország",
		"categories": [
			"College Technology Building"
		]
	},
	{
		"date": "2011-11-13T21:06:01.000Z",
		"name": "Villa Polgar",
		"id": "4caaebc0965c9c74f70dcbfa",
		"lat": 47.671899642379415,
		"lng": 16.611052697881373,
		"city": "Sopron",
		"country": "Magyarország",
		"categories": [
			"Home (private)"
		]
	},
	{
		"date": "2011-11-14T14:04:33.000Z",
		"name": "BME I épület",
		"id": "4bcd89a5fb84c9b6311c223e",
		"lat": 47.472654177471675,
		"lng": 19.059821807961907,
		"address": "Magyar tudósok körútja 2.",
		"postalCode": "1117",
		"city": "Budapest",
		"country": "Magyarország",
		"categories": [
			"College Technology Building"
		]
	},
	{
		"date": "2011-11-14T16:07:49.000Z",
		"name": "BME R épület",
		"id": "4ba8e306f964a5202cf739e3",
		"lat": 47.47900888118355,
		"lng": 19.058887218991554,
		"address": "Műegyetem rakpart 7-9.",
		"postalCode": "1111",
		"city": "Budapest",
		"country": "Magyarország",
		"categories": [
			"College Academic Building",
			"College Administrative Building",
			"Student Center"
		]
	},
	{
		"date": "2011-11-15T09:16:42.000Z",
		"name": "BME I épület",
		"id": "4bcd89a5fb84c9b6311c223e",
		"lat": 47.472654177471675,
		"lng": 19.059821807961907,
		"address": "Magyar tudósok körútja 2.",
		"postalCode": "1117",
		"city": "Budapest",
		"country": "Magyarország",
		"categories": [
			"College Technology Building"
		]
	},
	{
		"date": "2011-11-15T12:59:11.000Z",
		"name": "BME E épület",
		"id": "4ba8e6fbf964a5208ef839e3",
		"lat": 47.477616135843945,
		"lng": 19.057630443325607,
		"address": "Egry József u. 1.",
		"postalCode": "1111",
		"city": "Budapest",
		"country": "Magyarország",
		"categories": [
			"College Academic Building"
		]
	},
	{
		"date": "2011-11-16T14:59:50.000Z",
		"name": "BME E épület",
		"id": "4ba8e6fbf964a5208ef839e3",
		"lat": 47.477616135843945,
		"lng": 19.057630443325607,
		"address": "Egry József u. 1.",
		"postalCode": "1111",
		"city": "Budapest",
		"country": "Magyarország",
		"categories": [
			"College Academic Building"
		]
	},
	{
		"date": "2011-11-16T17:08:33.000Z",
		"name": "Allee Bevásárlóközpont",
		"id": "4ba35913f964a520883638e3",
		"lat": 47.47540787650971,
		"lng": 19.048983750822984,
		"address": "Október huszonharmadika u. 8-10.",
		"postalCode": "1117",
		"city": "Budapest",
		"country": "Magyarország",
		"categories": [
			"Shopping Mall"
		]
	},
	{
		"date": "2011-11-17T23:23:47.000Z",
		"name": "Dürer Kert",
		"id": "4bbcad4ff57ba593ee0dadb9",
		"lat": 47.509680047594635,
		"lng": 19.08996061524478,
		"address": "Ajtósi Dürer sor 19-21.",
		"postalCode": "1146",
		"city": "Budapest",
		"country": "Magyarország",
		"categories": [
			"Beer Garden",
			"Rock Club",
			"Music Venue"
		]
	},
	{
		"date": "2011-11-21T13:46:30.000Z",
		"name": "BME Q épület",
		"id": "4c85f24fd4e23704bdf58688",
		"lat": 47.473393661934686,
		"lng": 19.059766255018825,
		"address": "Magyar tudósok körútja 2.",
		"postalCode": "1117",
		"city": "Budapest",
		"country": "Magyarország",
		"categories": [
			"College Academic Building"
		]
	},
	{
		"date": "2011-11-21T13:51:17.000Z",
		"name": "BME I épület",
		"id": "4bcd89a5fb84c9b6311c223e",
		"lat": 47.472654177471675,
		"lng": 19.059821807961907,
		"address": "Magyar tudósok körútja 2.",
		"postalCode": "1117",
		"city": "Budapest",
		"country": "Magyarország",
		"categories": [
			"College Technology Building"
		]
	},
	{
		"date": "2011-11-22T09:14:00.000Z",
		"name": "BME I épület",
		"id": "4bcd89a5fb84c9b6311c223e",
		"lat": 47.472654177471675,
		"lng": 19.059821807961907,
		"address": "Magyar tudósok körútja 2.",
		"postalCode": "1117",
		"city": "Budapest",
		"country": "Magyarország",
		"categories": [
			"College Technology Building"
		]
	},
	{
		"date": "2011-11-23T12:36:34.000Z",
		"name": "BME R épület",
		"id": "4ba8e306f964a5202cf739e3",
		"lat": 47.47900888118355,
		"lng": 19.058887218991554,
		"address": "Műegyetem rakpart 7-9.",
		"postalCode": "1111",
		"city": "Budapest",
		"country": "Magyarország",
		"categories": [
			"College Academic Building",
			"College Administrative Building",
			"Student Center"
		]
	},
	{
		"date": "2011-11-24T10:09:28.000Z",
		"name": "BME E épület",
		"id": "4ba8e6fbf964a5208ef839e3",
		"lat": 47.477616135843945,
		"lng": 19.057630443325607,
		"address": "Egry József u. 1.",
		"postalCode": "1111",
		"city": "Budapest",
		"country": "Magyarország",
		"categories": [
			"College Academic Building"
		]
	},
	{
		"date": "2011-11-24T13:51:17.000Z",
		"name": "BME I épület",
		"id": "4bcd89a5fb84c9b6311c223e",
		"lat": 47.472654177471675,
		"lng": 19.059821807961907,
		"address": "Magyar tudósok körútja 2.",
		"postalCode": "1117",
		"city": "Budapest",
		"country": "Magyarország",
		"categories": [
			"College Technology Building"
		]
	},
	{
		"date": "2011-11-25T11:23:24.000Z",
		"name": "Savoya Park",
		"id": "4b87eb92f964a520f0d231e3",
		"lat": 47.43541683683853,
		"lng": 19.040453270054567,
		"address": "Hunyadi János út 19.",
		"postalCode": "1117",
		"city": "Budapest",
		"country": "Magyarország",
		"categories": [
			"Shopping Mall"
		]
	},
	{
		"date": "2011-11-25T11:23:52.000Z",
		"name": "Auchan",
		"id": "4d20a8a05acaa35d8098c935",
		"lat": 47.435026299697014,
		"lng": 19.041408410901678,
		"address": "Savoya Park",
		"postalCode": "1117",
		"city": "Budapest",
		"country": "Magyarország",
		"categories": [
			"Supermarket"
		]
	},
	{
		"date": "2011-11-25T11:58:27.000Z",
		"name": "Tomori Pál Főiskola",
		"id": "4dcd4976183899ddfab48695",
		"lat": 47.41125819531315,
		"lng": 19.01293983461239,
		"address": "Művelődés utca 21-27",
		"postalCode": "1223",
		"city": "Budapest",
		"country": "Magyarország",
		"categories": [
			"General College & University"
		]
	},
	{
		"date": "2011-11-25T17:29:56.000Z",
		"name": "Campona Bevásárló és Szórakoztatóközpont",
		"id": "4bcd9a91937ca593fef0ac92",
		"lat": 47.40696527095432,
		"lng": 19.017238074599398,
		"address": "Nagytétényi út 37-43.",
		"postalCode": "1222",
		"city": "Budapest",
		"country": "Magyarország",
		"categories": [
			"Shopping Mall"
		]
	},
	{
		"date": "2011-11-25T17:30:16.000Z",
		"name": "TESCO Hipermarket",
		"id": "4ca4ed7797c8a1cdc05c62a5",
		"lat": 47.40764243835762,
		"lng": 19.019182931058598,
		"address": "Campona földszint",
		"postalCode": "1222",
		"city": "Budapest",
		"country": "Magyarország",
		"categories": [
			"Supermarket",
			"Grocery Store"
		]
	},
	{
		"date": "2011-11-26T09:48:24.000Z",
		"name": "Campona Bevásárló és Szórakoztatóközpont",
		"id": "4bcd9a91937ca593fef0ac92",
		"lat": 47.40696527095432,
		"lng": 19.017238074599398,
		"address": "Nagytétényi út 37-43.",
		"postalCode": "1222",
		"city": "Budapest",
		"country": "Magyarország",
		"categories": [
			"Shopping Mall"
		]
	},
	{
		"date": "2011-11-26T09:48:42.000Z",
		"name": "TESCO Hipermarket",
		"id": "4ca4ed7797c8a1cdc05c62a5",
		"lat": 47.40764243835762,
		"lng": 19.019182931058598,
		"address": "Campona földszint",
		"postalCode": "1222",
		"city": "Budapest",
		"country": "Magyarország",
		"categories": [
			"Supermarket",
			"Grocery Store"
		]
	},
	{
		"date": "2011-11-26T10:48:24.000Z",
		"name": "WestEnd City Center",
		"id": "4bcc1b343740b71309846365",
		"lat": 47.51328376254626,
		"lng": 19.05914504127989,
		"address": "Váci út 1-3.",
		"postalCode": "1062",
		"city": "Budapest",
		"country": "Magyarország",
		"categories": [
			"Shopping Mall"
		]
	},
	{
		"date": "2011-11-26T10:49:00.000Z",
		"name": "Bolt",
		"id": "4c5ab52aec2520a1c6125212",
		"lat": 47.5135776119779,
		"lng": 19.05653715133667,
		"address": "Westend I. emelet",
		"postalCode": "1062",
		"city": "Budapest",
		"country": "Magyarország",
		"categories": []
	},
	{
		"date": "2011-11-27T17:10:30.000Z",
		"name": "Campona Bevásárló és Szórakoztatóközpont",
		"id": "4bcd9a91937ca593fef0ac92",
		"lat": 47.40696527095432,
		"lng": 19.017238074599398,
		"address": "Nagytétényi út 37-43.",
		"postalCode": "1222",
		"city": "Budapest",
		"country": "Magyarország",
		"categories": [
			"Shopping Mall"
		]
	},
	{
		"date": "2011-11-27T17:10:50.000Z",
		"name": "TESCO Hipermarket",
		"id": "4ca4ed7797c8a1cdc05c62a5",
		"lat": 47.40764243835762,
		"lng": 19.019182931058598,
		"address": "Campona földszint",
		"postalCode": "1222",
		"city": "Budapest",
		"country": "Magyarország",
		"categories": [
			"Supermarket",
			"Grocery Store"
		]
	},
	{
		"date": "2011-11-27T17:34:50.000Z",
		"name": "Tomori Pál Főiskola",
		"id": "4dcd4976183899ddfab48695",
		"lat": 47.41125819531315,
		"lng": 19.01293983461239,
		"address": "Művelődés utca 21-27",
		"postalCode": "1223",
		"city": "Budapest",
		"country": "Magyarország",
		"categories": [
			"General College & University"
		]
	},
	{
		"date": "2011-11-28T09:13:20.000Z",
		"name": "BME R épület",
		"id": "4ba8e306f964a5202cf739e3",
		"lat": 47.47900888118355,
		"lng": 19.058887218991554,
		"address": "Műegyetem rakpart 7-9.",
		"postalCode": "1111",
		"city": "Budapest",
		"country": "Magyarország",
		"categories": [
			"College Academic Building",
			"College Administrative Building",
			"Student Center"
		]
	},
	{
		"date": "2011-11-28T15:52:16.000Z",
		"name": "BME E épület",
		"id": "4ba8e6fbf964a5208ef839e3",
		"lat": 47.477616135843945,
		"lng": 19.057630443325607,
		"address": "Egry József u. 1.",
		"postalCode": "1111",
		"city": "Budapest",
		"country": "Magyarország",
		"categories": [
			"College Academic Building"
		]
	},
	{
		"date": "2011-11-28T19:08:37.000Z",
		"name": "Tomori Pál Főiskola",
		"id": "4dcd4976183899ddfab48695",
		"lat": 47.41125819531315,
		"lng": 19.01293983461239,
		"address": "Művelődés utca 21-27",
		"postalCode": "1223",
		"city": "Budapest",
		"country": "Magyarország",
		"categories": [
			"General College & University"
		]
	},
	{
		"date": "2011-11-29T09:14:30.000Z",
		"name": "BME I épület",
		"id": "4bcd89a5fb84c9b6311c223e",
		"lat": 47.472654177471675,
		"lng": 19.059821807961907,
		"address": "Magyar tudósok körútja 2.",
		"postalCode": "1117",
		"city": "Budapest",
		"country": "Magyarország",
		"categories": [
			"College Technology Building"
		]
	},
	{
		"date": "2011-11-29T12:21:03.000Z",
		"name": "Tomori Pál Főiskola",
		"id": "4dcd4976183899ddfab48695",
		"lat": 47.41125819531315,
		"lng": 19.01293983461239,
		"address": "Művelődés utca 21-27",
		"postalCode": "1223",
		"city": "Budapest",
		"country": "Magyarország",
		"categories": [
			"General College & University"
		]
	}
]