[
	{
		"date": "2011-03-01T07:00:13.000Z",
		"name": "BME R épület",
		"id": "4ba8e306f964a5202cf739e3",
		"lat": 47.47900888118355,
		"lng": 19.058887218991554,
		"address": "Műegyetem rakpart 7-9.",
		"postalCode": "1111",
		"city": "Budapest",
		"country": "Magyarország",
		"categories": [
			"College Academic Building",
			"College Administrative Building",
			"Student Center"
		]
	},
	{
		"date": "2011-03-01T09:35:05.000Z",
		"name": "BME I épület",
		"id": "4bcd89a5fb84c9b6311c223e",
		"lat": 47.472654177471675,
		"lng": 19.059821807961907,
		"address": "Magyar tudósok körútja 2.",
		"postalCode": "1117",
		"city": "Budapest",
		"country": "Magyarország",
		"categories": [
			"College Technology Building"
		]
	},
	{
		"date": "2011-03-01T10:48:07.000Z",
		"name": "BME Q épület",
		"id": "4c85f24fd4e23704bdf58688",
		"lat": 47.473393661934686,
		"lng": 19.059766255018825,
		"address": "Magyar tudósok körútja 2.",
		"postalCode": "1117",
		"city": "Budapest",
		"country": "Magyarország",
		"categories": [
			"College Academic Building"
		]
	},
	{
		"date": "2011-03-02T10:50:43.000Z",
		"name": "BME CH épület",
		"id": "4bbdf3e94e069c745d579fe3",
		"lat": 47.483102249225375,
		"lng": 19.054201789682196,
		"address": "Szent Gellért tér 4.",
		"postalCode": "1111",
		"city": "Budapest",
		"country": "Magyarország",
		"categories": [
			"College Science Building"
		]
	},
	{
		"date": "2011-03-02T13:32:22.000Z",
		"name": "BME I épület",
		"id": "4bcd89a5fb84c9b6311c223e",
		"lat": 47.472654177471675,
		"lng": 19.059821807961907,
		"address": "Magyar tudósok körútja 2.",
		"postalCode": "1117",
		"city": "Budapest",
		"country": "Magyarország",
		"categories": [
			"College Technology Building"
		]
	},
	{
		"date": "2011-03-03T12:52:18.000Z",
		"name": "BME Q épület",
		"id": "4c85f24fd4e23704bdf58688",
		"lat": 47.473393661934686,
		"lng": 19.059766255018825,
		"address": "Magyar tudósok körútja 2.",
		"postalCode": "1117",
		"city": "Budapest",
		"country": "Magyarország",
		"categories": [
			"College Academic Building"
		]
	},
	{
		"date": "2011-03-03T20:16:23.000Z",
		"name": "Villa Polgar",
		"id": "4caaebc0965c9c74f70dcbfa",
		"lat": 47.671899642379415,
		"lng": 16.611052697881373,
		"city": "Sopron",
		"country": "Magyarország",
		"categories": [
			"Home (private)"
		]
	},
	{
		"date": "2011-03-07T15:15:12.000Z",
		"name": "Corvin Plaza",
		"id": "4cc701eabe40a35d1d6a8d4c",
		"lat": 47.486046352980296,
		"lng": 19.07288581182118,
		"address": "Futó u. 37-45.",
		"postalCode": "1083",
		"city": "Budapest",
		"country": "Magyarország",
		"categories": [
			"Shopping Mall"
		]
	},
	{
		"date": "2011-03-08T06:55:43.000Z",
		"name": "BME R épület",
		"id": "4ba8e306f964a5202cf739e3",
		"lat": 47.47900888118355,
		"lng": 19.058887218991554,
		"address": "Műegyetem rakpart 7-9.",
		"postalCode": "1111",
		"city": "Budapest",
		"country": "Magyarország",
		"categories": [
			"College Academic Building",
			"College Administrative Building",
			"Student Center"
		]
	},
	{
		"date": "2011-03-08T09:17:34.000Z",
		"name": "BME I épület",
		"id": "4bcd89a5fb84c9b6311c223e",
		"lat": 47.472654177471675,
		"lng": 19.059821807961907,
		"address": "Magyar tudósok körútja 2.",
		"postalCode": "1117",
		"city": "Budapest",
		"country": "Magyarország",
		"categories": [
			"College Technology Building"
		]
	},
	{
		"date": "2011-03-08T12:38:36.000Z",
		"name": "BME Q épület",
		"id": "4c85f24fd4e23704bdf58688",
		"lat": 47.473393661934686,
		"lng": 19.059766255018825,
		"address": "Magyar tudósok körútja 2.",
		"postalCode": "1117",
		"city": "Budapest",
		"country": "Magyarország",
		"categories": [
			"College Academic Building"
		]
	},
	{
		"date": "2011-03-08T12:56:32.000Z",
		"name": "BME I épület",
		"id": "4bcd89a5fb84c9b6311c223e",
		"lat": 47.472654177471675,
		"lng": 19.059821807961907,
		"address": "Magyar tudósok körútja 2.",
		"postalCode": "1117",
		"city": "Budapest",
		"country": "Magyarország",
		"categories": [
			"College Technology Building"
		]
	},
	{
		"date": "2011-03-09T12:29:49.000Z",
		"name": "BME CH épület",
		"id": "4bbdf3e94e069c745d579fe3",
		"lat": 47.483102249225375,
		"lng": 19.054201789682196,
		"address": "Szent Gellért tér 4.",
		"postalCode": "1111",
		"city": "Budapest",
		"country": "Magyarország",
		"categories": [
			"College Science Building"
		]
	},
	{
		"date": "2011-03-09T13:18:22.000Z",
		"name": "BME I épület",
		"id": "4bcd89a5fb84c9b6311c223e",
		"lat": 47.472654177471675,
		"lng": 19.059821807961907,
		"address": "Magyar tudósok körútja 2.",
		"postalCode": "1117",
		"city": "Budapest",
		"country": "Magyarország",
		"categories": [
			"College Technology Building"
		]
	},
	{
		"date": "2011-03-09T18:30:02.000Z",
		"name": "Balassi Intézet Kollégiuma - Budaörsi út",
		"id": "4d5ac7293358a090709e9344",
		"lat": 47.47469340894402,
		"lng": 19.02059555053711,
		"address": "Budaörsi St. 73-75",
		"postalCode": "1118",
		"city": "Budapest",
		"country": "Magyarország",
		"categories": [
			"College Residence Hall"
		]
	},
	{
		"date": "2011-03-10T06:39:29.000Z",
		"name": "BME E épület",
		"id": "4ba8e6fbf964a5208ef839e3",
		"lat": 47.477616135843945,
		"lng": 19.057630443325607,
		"address": "Egry József u. 1.",
		"postalCode": "1111",
		"city": "Budapest",
		"country": "Magyarország",
		"categories": [
			"College Academic Building"
		]
	},
	{
		"date": "2011-03-10T08:45:22.000Z",
		"name": "Goldmann Menza",
		"id": "4cb440fd1168a093dd0a4723",
		"lat": 47.47731123979614,
		"lng": 19.058393239974976,
		"address": "Goldmann György tér 1.",
		"postalCode": "1111",
		"city": "Budapest",
		"country": "Magyarország",
		"categories": [
			"College Cafeteria",
			"Diner"
		]
	},
	{
		"date": "2011-03-10T12:53:53.000Z",
		"name": "BME I épület",
		"id": "4bcd89a5fb84c9b6311c223e",
		"lat": 47.472654177471675,
		"lng": 19.059821807961907,
		"address": "Magyar tudósok körútja 2.",
		"postalCode": "1117",
		"city": "Budapest",
		"country": "Magyarország",
		"categories": [
			"College Technology Building"
		]
	},
	{
		"date": "2011-03-16T15:40:27.000Z",
		"name": "BME I épület",
		"id": "4bcd89a5fb84c9b6311c223e",
		"lat": 47.472654177471675,
		"lng": 19.059821807961907,
		"address": "Magyar tudósok körútja 2.",
		"postalCode": "1117",
		"city": "Budapest",
		"country": "Magyarország",
		"categories": [
			"College Technology Building"
		]
	},
	{
		"date": "2011-03-17T06:13:20.000Z",
		"name": "BME I épület",
		"id": "4bcd89a5fb84c9b6311c223e",
		"lat": 47.472654177471675,
		"lng": 19.059821807961907,
		"address": "Magyar tudósok körútja 2.",
		"postalCode": "1117",
		"city": "Budapest",
		"country": "Magyarország",
		"categories": [
			"College Technology Building"
		]
	},
	{
		"date": "2011-03-17T14:59:31.000Z",
		"name": "BME K épület",
		"id": "4cb41c0adb32f04dd23adb4d",
		"lat": 47.4812486178674,
		"lng": 19.055142402648926,
		"address": "Műegyetem rkp. 3.",
		"postalCode": "1111",
		"city": "Budapest",
		"country": "Magyarország",
		"categories": [
			"University",
			"College Academic Building",
			"College Engineering Building"
		]
	},
	{
		"date": "2011-03-18T06:46:56.000Z",
		"name": "Goldmann György tér",
		"id": "4cd2da5221d94688e0d2ec90",
		"lat": 47.47716427032586,
		"lng": 19.058825025626813,
		"address": "Goldmann György tér",
		"postalCode": "1111",
		"city": "Budapest",
		"country": "Magyarország",
		"categories": [
			"Plaza",
			"Park"
		]
	},
	{
		"date": "2011-03-18T07:19:38.000Z",
		"name": "ELTE Északi Tömb",
		"id": "4bc890c10050b7130c9bba3b",
		"lat": 47.474416089725054,
		"lng": 19.061548817521064,
		"address": "Pázmány Péter sétány 1/A",
		"postalCode": "1117",
		"city": "Budapest",
		"country": "Magyarország",
		"categories": [
			"University",
			"College Academic Building"
		]
	},
	{
		"date": "2011-03-18T15:16:13.000Z",
		"name": "Balassi Intézet Kollégiuma - Budaörsi út",
		"id": "4d5ac7293358a090709e9344",
		"lat": 47.47469340894402,
		"lng": 19.02059555053711,
		"address": "Budaörsi St. 73-75",
		"postalCode": "1118",
		"city": "Budapest",
		"country": "Magyarország",
		"categories": [
			"College Residence Hall"
		]
	},
	{
		"date": "2011-03-22T10:43:01.000Z",
		"name": "BME I épület",
		"id": "4bcd89a5fb84c9b6311c223e",
		"lat": 47.472654177471675,
		"lng": 19.059821807961907,
		"address": "Magyar tudósok körútja 2.",
		"postalCode": "1117",
		"city": "Budapest",
		"country": "Magyarország",
		"categories": [
			"College Technology Building"
		]
	}
]