[
	{
		"date": "2011-09-05T11:05:58.000Z",
		"name": "BME I épület",
		"id": "4bcd89a5fb84c9b6311c223e",
		"lat": 47.472654177471675,
		"lng": 19.059821807961907,
		"address": "Magyar tudósok körútja 2.",
		"postalCode": "1117",
		"city": "Budapest",
		"country": "Magyarország",
		"categories": [
			"College Technology Building"
		]
	},
	{
		"date": "2011-09-07T09:46:20.000Z",
		"name": "BME Q épület",
		"id": "4c85f24fd4e23704bdf58688",
		"lat": 47.473393661934686,
		"lng": 19.059766255018825,
		"address": "Magyar tudósok körútja 2.",
		"postalCode": "1117",
		"city": "Budapest",
		"country": "Magyarország",
		"categories": [
			"College Academic Building"
		]
	},
	{
		"date": "2011-09-07T10:15:12.000Z",
		"name": "BME I épület",
		"id": "4bcd89a5fb84c9b6311c223e",
		"lat": 47.472654177471675,
		"lng": 19.059821807961907,
		"address": "Magyar tudósok körútja 2.",
		"postalCode": "1117",
		"city": "Budapest",
		"country": "Magyarország",
		"categories": [
			"College Technology Building"
		]
	},
	{
		"date": "2011-09-07T12:49:29.000Z",
		"name": "Allee Bevásárlóközpont",
		"id": "4ba35913f964a520883638e3",
		"lat": 47.47540787650971,
		"lng": 19.048983750822984,
		"address": "Október huszonharmadika u. 8-10.",
		"postalCode": "1117",
		"city": "Budapest",
		"country": "Magyarország",
		"categories": [
			"Shopping Mall"
		]
	},
	{
		"date": "2011-09-07T13:15:38.000Z",
		"name": "BME E épület",
		"id": "4ba8e6fbf964a5208ef839e3",
		"lat": 47.477616135843945,
		"lng": 19.057630443325607,
		"address": "Egry József u. 1.",
		"postalCode": "1111",
		"city": "Budapest",
		"country": "Magyarország",
		"categories": [
			"College Academic Building"
		]
	},
	{
		"date": "2011-09-08T11:23:50.000Z",
		"name": "BME I épület",
		"id": "4bcd89a5fb84c9b6311c223e",
		"lat": 47.472654177471675,
		"lng": 19.059821807961907,
		"address": "Magyar tudósok körútja 2.",
		"postalCode": "1117",
		"city": "Budapest",
		"country": "Magyarország",
		"categories": [
			"College Technology Building"
		]
	},
	{
		"date": "2011-09-09T05:44:42.000Z",
		"name": "BME E épület",
		"id": "4ba8e6fbf964a5208ef839e3",
		"lat": 47.477616135843945,
		"lng": 19.057630443325607,
		"address": "Egry József u. 1.",
		"postalCode": "1111",
		"city": "Budapest",
		"country": "Magyarország",
		"categories": [
			"College Academic Building"
		]
	},
	{
		"date": "2011-09-12T09:38:35.000Z",
		"name": "BME I épület",
		"id": "4bcd89a5fb84c9b6311c223e",
		"lat": 47.472654177471675,
		"lng": 19.059821807961907,
		"address": "Magyar tudósok körútja 2.",
		"postalCode": "1117",
		"city": "Budapest",
		"country": "Magyarország",
		"categories": [
			"College Technology Building"
		]
	},
	{
		"date": "2011-09-13T09:41:25.000Z",
		"name": "BME I épület",
		"id": "4bcd89a5fb84c9b6311c223e",
		"lat": 47.472654177471675,
		"lng": 19.059821807961907,
		"address": "Magyar tudósok körútja 2.",
		"postalCode": "1117",
		"city": "Budapest",
		"country": "Magyarország",
		"categories": [
			"College Technology Building"
		]
	},
	{
		"date": "2011-09-14T13:44:48.000Z",
		"name": "BME I épület",
		"id": "4bcd89a5fb84c9b6311c223e",
		"lat": 47.472654177471675,
		"lng": 19.059821807961907,
		"address": "Magyar tudósok körútja 2.",
		"postalCode": "1117",
		"city": "Budapest",
		"country": "Magyarország",
		"categories": [
			"College Technology Building"
		]
	},
	{
		"date": "2011-09-14T13:57:35.000Z",
		"name": "BME E épület",
		"id": "4ba8e6fbf964a5208ef839e3",
		"lat": 47.477616135843945,
		"lng": 19.057630443325607,
		"address": "Egry József u. 1.",
		"postalCode": "1111",
		"city": "Budapest",
		"country": "Magyarország",
		"categories": [
			"College Academic Building"
		]
	},
	{
		"date": "2011-09-17T19:32:55.000Z",
		"name": "Function 2011 demoparty",
		"id": "4e73356031512e12d95d81f8",
		"lat": 47.40205285279434,
		"lng": 19.113035202026367,
		"address": "Grassalkovich utca 122-124",
		"postalCode": "1238",
		"city": "Budapest",
		"country": "Magyarország",
		"categories": [
			"Event Space",
			"General Entertainment",
			"Beer Garden"
		]
	},
	{
		"date": "2011-09-19T09:41:51.000Z",
		"name": "BME I épület",
		"id": "4bcd89a5fb84c9b6311c223e",
		"lat": 47.472654177471675,
		"lng": 19.059821807961907,
		"address": "Magyar tudósok körútja 2.",
		"postalCode": "1117",
		"city": "Budapest",
		"country": "Magyarország",
		"categories": [
			"College Technology Building"
		]
	},
	{
		"date": "2011-09-19T15:04:03.000Z",
		"name": "BME R épület",
		"id": "4ba8e306f964a5202cf739e3",
		"lat": 47.47900888118355,
		"lng": 19.058887218991554,
		"address": "Műegyetem rakpart 7-9.",
		"postalCode": "1111",
		"city": "Budapest",
		"country": "Magyarország",
		"categories": [
			"College Academic Building",
			"College Administrative Building",
			"Student Center"
		]
	},
	{
		"date": "2011-09-20T09:53:12.000Z",
		"name": "BME I épület",
		"id": "4bcd89a5fb84c9b6311c223e",
		"lat": 47.472654177471675,
		"lng": 19.059821807961907,
		"address": "Magyar tudósok körútja 2.",
		"postalCode": "1117",
		"city": "Budapest",
		"country": "Magyarország",
		"categories": [
			"College Technology Building"
		]
	},
	{
		"date": "2011-09-20T11:59:57.000Z",
		"name": "BME Q épület",
		"id": "4c85f24fd4e23704bdf58688",
		"lat": 47.473393661934686,
		"lng": 19.059766255018825,
		"address": "Magyar tudósok körútja 2.",
		"postalCode": "1117",
		"city": "Budapest",
		"country": "Magyarország",
		"categories": [
			"College Academic Building"
		]
	},
	{
		"date": "2011-09-21T14:15:16.000Z",
		"name": "BME E épület",
		"id": "4ba8e6fbf964a5208ef839e3",
		"lat": 47.477616135843945,
		"lng": 19.057630443325607,
		"address": "Egry József u. 1.",
		"postalCode": "1111",
		"city": "Budapest",
		"country": "Magyarország",
		"categories": [
			"College Academic Building"
		]
	}
]