[
	{
		"date": "2012-05-02T09:22:07.000Z",
		"name": "Villa Polgar",
		"id": "4caaebc0965c9c74f70dcbfa",
		"lat": 47.671899642379415,
		"lng": 16.611052697881373,
		"city": "Sopron",
		"country": "Magyarország",
		"categories": [
			"Home (private)"
		]
	},
	{
		"date": "2012-05-02T15:21:33.000Z",
		"name": "Harminckettesek tere (4, 6)",
		"id": "4c41fa8ce26920a1614f5fe7",
		"lat": 47.491346061078474,
		"lng": 19.07721140890305,
		"address": "József krt.",
		"postalCode": "1085",
		"city": "Budapest",
		"country": "Magyarország",
		"categories": [
			"Tram Station"
		]
	},
	{
		"date": "2012-05-02T15:59:05.000Z",
		"name": "Losonci tér",
		"id": "4d9d5189a695721e11340f0d",
		"lat": 47.48958911031985,
		"lng": 19.08032029942558,
		"address": "Losonci tér",
		"postalCode": "1083",
		"city": "Budapest",
		"country": "Magyarország",
		"categories": [
			"Plaza",
			"Park"
		]
	},
	{
		"date": "2012-05-02T21:34:28.000Z",
		"name": "Harminckettesek tere (4, 6)",
		"id": "4c41fa8ce26920a1614f5fe7",
		"lat": 47.491346061078474,
		"lng": 19.07721140890305,
		"address": "József krt.",
		"postalCode": "1085",
		"city": "Budapest",
		"country": "Magyarország",
		"categories": [
			"Tram Station"
		]
	},
	{
		"date": "2012-05-02T21:34:43.000Z",
		"name": "Harminckettesek tere",
		"id": "4bf6a540bfeac92810af9436",
		"lat": 47.48950129908545,
		"lng": 19.071492778445887,
		"address": "Harminckettesek tere",
		"postalCode": "1083",
		"city": "Budapest",
		"country": "Magyarország",
		"categories": [
			"Plaza"
		]
	},
	{
		"date": "2012-05-02T21:59:42.000Z",
		"name": "Turkis Food",
		"id": "4f342851e4b04e1681c8c5ed",
		"lat": 47.48964937245289,
		"lng": 19.08032918688817,
		"address": "Baross utca",
		"postalCode": "1083",
		"city": "Budapest",
		"country": "Magyarország",
		"categories": [
			"Turkish Restaurant"
		]
	},
	{
		"date": "2012-05-02T22:29:06.000Z",
		"name": "Losonci tér",
		"id": "4d9d5189a695721e11340f0d",
		"lat": 47.48958911031985,
		"lng": 19.08032029942558,
		"address": "Losonci tér",
		"postalCode": "1083",
		"city": "Budapest",
		"country": "Magyarország",
		"categories": [
			"Plaza",
			"Park"
		]
	},
	{
		"date": "2012-05-03T05:45:03.000Z",
		"name": "Mini Pékség",
		"id": "4e5f1dba7d8b67dc8ffd96fa",
		"lat": 47.48707026696406,
		"lng": 19.083478719122404,
		"country": "Magyarország",
		"categories": [
			"Bakery"
		]
	},
	{
		"date": "2012-05-03T06:00:17.000Z",
		"name": "McDonald's",
		"id": "4bcb3068511f95214be5b0c7",
		"lat": 47.489294984947776,
		"lng": 19.070887881098344,
		"address": "József krt. 52-56.",
		"postalCode": "1088",
		"city": "Budapest",
		"country": "Magyarország",
		"categories": [
			"Fast Food Restaurant"
		]
	},
	{
		"date": "2012-05-03T06:01:55.000Z",
		"name": "Harminckettesek tere (4, 6)",
		"id": "4c41fa8ce26920a1614f5fe7",
		"lat": 47.491346061078474,
		"lng": 19.07721140890305,
		"address": "József krt.",
		"postalCode": "1085",
		"city": "Budapest",
		"country": "Magyarország",
		"categories": [
			"Tram Station"
		]
	},
	{
		"date": "2012-05-03T06:23:37.000Z",
		"name": "BME IB145",
		"id": "4f38fdc0e4b0a8274071361b",
		"lat": 47.47250459547692,
		"lng": 19.05985818496417,
		"address": "BME I épület",
		"city": "Budapest",
		"country": "Magyarország",
		"categories": [
			"College Classroom"
		]
	},
	{
		"date": "2012-05-03T07:09:51.000Z",
		"name": "BME I épület",
		"id": "4bcd89a5fb84c9b6311c223e",
		"lat": 47.472654177471675,
		"lng": 19.059821807961907,
		"address": "Magyar tudósok körútja 2.",
		"postalCode": "1117",
		"city": "Budapest",
		"country": "Magyarország",
		"categories": [
			"College Technology Building"
		]
	},
	{
		"date": "2012-05-03T07:47:29.000Z",
		"name": "BME R épület",
		"id": "4ba8e306f964a5202cf739e3",
		"lat": 47.47900888118355,
		"lng": 19.058887218991554,
		"address": "Műegyetem rakpart 7-9.",
		"postalCode": "1111",
		"city": "Budapest",
		"country": "Magyarország",
		"categories": [
			"College Academic Building",
			"College Administrative Building",
			"Student Center"
		]
	},
	{
		"date": "2012-05-03T08:08:03.000Z",
		"name": "BME R504",
		"id": "4f45ff29e4b0f8695e0a7a4b",
		"lat": 47.478714779315396,
		"lng": 19.059441826088182,
		"address": "BME R épület",
		"city": "Budapest",
		"country": "Magyarország",
		"categories": [
			"College Classroom"
		]
	},
	{
		"date": "2012-05-03T09:59:50.000Z",
		"name": "K alagsori büfé",
		"id": "4dc3bcf018387d1bd5109ea6",
		"lat": 47.481409605054736,
		"lng": 19.055488552562526,
		"address": "BME K épület",
		"postalCode": "1111",
		"city": "Budapest",
		"country": "Magyarország",
		"categories": [
			"College Cafeteria"
		]
	},
	{
		"date": "2012-05-03T10:00:11.000Z",
		"name": "BME K épület",
		"id": "4cb41c0adb32f04dd23adb4d",
		"lat": 47.4812486178674,
		"lng": 19.055142402648926,
		"address": "Műegyetem rkp. 3.",
		"postalCode": "1111",
		"city": "Budapest",
		"country": "Magyarország",
		"categories": [
			"University",
			"College Academic Building",
			"College Engineering Building"
		]
	},
	{
		"date": "2012-05-03T10:08:56.000Z",
		"name": "BME F épület",
		"id": "4c19da436a21c9b68330cb97",
		"lat": 47.47997076094497,
		"lng": 19.05389783043149,
		"address": "Budafoki út 21-27.",
		"postalCode": "1111",
		"city": "Budapest",
		"country": "Magyarország",
		"categories": [
			"College Science Building"
		]
	},
	{
		"date": "2012-05-03T10:09:13.000Z",
		"name": "BME F29 Zemplén Győző terem",
		"id": "4f3bafb7e4b0d6152f7a3ad7",
		"lat": 47.479662518465965,
		"lng": 19.05392462181384,
		"address": "BME F épület",
		"city": "Budapest",
		"country": "Magyarország",
		"categories": [
			"College Auditorium"
		]
	},
	{
		"date": "2012-05-03T12:04:37.000Z",
		"name": "BME E épület",
		"id": "4ba8e6fbf964a5208ef839e3",
		"lat": 47.477616135843945,
		"lng": 19.057630443325607,
		"address": "Egry József u. 1.",
		"postalCode": "1111",
		"city": "Budapest",
		"country": "Magyarország",
		"categories": [
			"College Academic Building"
		]
	},
	{
		"date": "2012-05-03T13:03:20.000Z",
		"name": "BME E1.B előadóterem",
		"id": "4e799da9aeb79f7dab8b437b",
		"lat": 47.477768,
		"lng": 19.057303,
		"address": "BME E épület",
		"postalCode": "1111",
		"city": "Budapest XI. kerület",
		"country": "Magyarország",
		"categories": [
			"College Auditorium"
		]
	},
	{
		"date": "2012-05-03T14:10:42.000Z",
		"name": "BME I épület",
		"id": "4bcd89a5fb84c9b6311c223e",
		"lat": 47.472654177471675,
		"lng": 19.059821807961907,
		"address": "Magyar tudósok körútja 2.",
		"postalCode": "1117",
		"city": "Budapest",
		"country": "Magyarország",
		"categories": [
			"College Technology Building"
		]
	},
	{
		"date": "2012-05-03T14:12:37.000Z",
		"name": "I büfé",
		"id": "4de4bfebfa7651589f3489b7",
		"lat": 47.47264799524757,
		"lng": 19.059493807220463,
		"address": "BME I épület",
		"postalCode": "1117",
		"city": "Budapest",
		"country": "Magyarország",
		"categories": [
			"Snack Place"
		]
	},
	{
		"date": "2012-05-03T17:07:30.000Z",
		"name": "Tomori Pál Főiskola",
		"id": "4dcd4976183899ddfab48695",
		"lat": 47.41125819531315,
		"lng": 19.01293983461239,
		"address": "Művelődés utca 21-27",
		"postalCode": "1223",
		"city": "Budapest",
		"country": "Magyarország",
		"categories": [
			"General College & University"
		]
	},
	{
		"date": "2012-05-03T17:24:02.000Z",
		"name": "Andor's Home",
		"id": "4f6b1ddce4b01cb02e173517",
		"lat": 47.40937552246047,
		"lng": 19.011491535783943,
		"country": "Magyarország",
		"categories": [
			"Home (private)"
		]
	},
	{
		"date": "2012-05-03T18:22:42.000Z",
		"name": "Harminckettesek tere (4, 6)",
		"id": "4c41fa8ce26920a1614f5fe7",
		"lat": 47.491346061078474,
		"lng": 19.07721140890305,
		"address": "József krt.",
		"postalCode": "1085",
		"city": "Budapest",
		"country": "Magyarország",
		"categories": [
			"Tram Station"
		]
	},
	{
		"date": "2012-05-03T18:39:09.000Z",
		"name": "Losonci tér",
		"id": "4d9d5189a695721e11340f0d",
		"lat": 47.48958911031985,
		"lng": 19.08032029942558,
		"address": "Losonci tér",
		"postalCode": "1083",
		"city": "Budapest",
		"country": "Magyarország",
		"categories": [
			"Plaza",
			"Park"
		]
	},
	{
		"date": "2012-05-04T14:54:40.000Z",
		"name": "McDonald's",
		"id": "4bcb3068511f95214be5b0c7",
		"lat": 47.489294984947776,
		"lng": 19.070887881098344,
		"address": "József krt. 52-56.",
		"postalCode": "1088",
		"city": "Budapest",
		"country": "Magyarország",
		"categories": [
			"Fast Food Restaurant"
		]
	},
	{
		"date": "2012-05-04T16:16:28.000Z",
		"name": "OMV Bábolna-Dél",
		"id": "4ddb1ca5d16419ce67324b73",
		"lat": 47.68048269045468,
		"lng": 17.976010163956694,
		"address": "M1 93 km",
		"postalCode": "2943",
		"city": "Bábolna",
		"country": "Magyarország",
		"categories": [
			"Gas Station",
			"Rest Area"
		]
	},
	{
		"date": "2012-05-04T16:17:09.000Z",
		"name": "OMV Bábolna-Dél",
		"id": "4ddb1ca5d16419ce67324b73",
		"lat": 47.68048269045468,
		"lng": 17.976010163956694,
		"address": "M1 93 km",
		"postalCode": "2943",
		"city": "Bábolna",
		"country": "Magyarország",
		"categories": [
			"Gas Station",
			"Rest Area"
		]
	},
	{
		"date": "2012-05-04T18:26:07.000Z",
		"name": "Villa Polgar",
		"id": "4caaebc0965c9c74f70dcbfa",
		"lat": 47.671899642379415,
		"lng": 16.611052697881373,
		"city": "Sopron",
		"country": "Magyarország",
		"categories": [
			"Home (private)"
		]
	},
	{
		"date": "2012-05-05T08:05:36.000Z",
		"name": "Grandma's Place",
		"id": "4f5c86b7e4b086681c0fa476",
		"lat": 47.685079492343135,
		"lng": 16.59042726764715,
		"country": "Magyarország",
		"categories": [
			"Home (private)"
		]
	},
	{
		"date": "2012-05-05T16:24:42.000Z",
		"name": "Villa Polgar",
		"id": "4caaebc0965c9c74f70dcbfa",
		"lat": 47.671899642379415,
		"lng": 16.611052697881373,
		"city": "Sopron",
		"country": "Magyarország",
		"categories": [
			"Home (private)"
		]
	},
	{
		"date": "2012-05-05T19:36:36.000Z",
		"name": "Zion Bar",
		"id": "4ee38657823180a98a6d3a1d",
		"lat": 47.685463437380825,
		"lng": 16.58535076463378,
		"country": "Magyarország",
		"categories": [
			"Bar"
		]
	},
	{
		"date": "2012-05-05T21:55:00.000Z",
		"name": "Central Park Café",
		"id": "4ccef459c0378cfaa0ea9648",
		"lat": 47.68100131022882,
		"lng": 16.5857230942081,
		"address": "Deák tér",
		"postalCode": "9400",
		"city": "Sopron",
		"country": "Magyarország",
		"categories": [
			"Bar",
			"Café",
			"Lounge"
		]
	},
	{
		"date": "2012-05-05T22:17:29.000Z",
		"name": "Gázfröccs",
		"id": "4e1c132e922e66c066417ce3",
		"lat": 47.680832103433204,
		"lng": 16.585444490141782,
		"address": "Deák tér 28.",
		"postalCode": "9400",
		"city": "Sopron",
		"country": "Magyarország",
		"categories": [
			"Beer Garden",
			"Bar"
		]
	},
	{
		"date": "2012-05-05T23:58:40.000Z",
		"name": "Villa Polgar",
		"id": "4caaebc0965c9c74f70dcbfa",
		"lat": 47.671899642379415,
		"lng": 16.611052697881373,
		"city": "Sopron",
		"country": "Magyarország",
		"categories": [
			"Home (private)"
		]
	},
	{
		"date": "2012-05-06T10:32:00.000Z",
		"name": "Grandma's Place",
		"id": "4f5c86b7e4b086681c0fa476",
		"lat": 47.685079492343135,
		"lng": 16.59042726764715,
		"country": "Magyarország",
		"categories": [
			"Home (private)"
		]
	},
	{
		"date": "2012-05-06T11:20:33.000Z",
		"name": "Várkerület",
		"id": "4d3d55cb44f5a0933e04d4bb",
		"lat": 47.6850115484087,
		"lng": 16.592843179592137,
		"address": "Várkerület",
		"postalCode": "9400",
		"city": "Sopron",
		"country": "Magyarország",
		"categories": [
			"Road",
			"Pedestrian Plaza"
		]
	},
	{
		"date": "2012-05-06T11:43:25.000Z",
		"name": "Villa Polgar",
		"id": "4caaebc0965c9c74f70dcbfa",
		"lat": 47.671899642379415,
		"lng": 16.611052697881373,
		"city": "Sopron",
		"country": "Magyarország",
		"categories": [
			"Home (private)"
		]
	},
	{
		"date": "2012-05-06T20:38:52.000Z",
		"name": "Schmauser Étterem és Söröző",
		"id": "4d03c11ba2685481edbbb3bd",
		"lat": 47.68445244555685,
		"lng": 16.5760290306692,
		"address": "Kossuth Lajos u. 49.",
		"postalCode": "9400",
		"city": "Sopron",
		"country": "Magyarország",
		"categories": [
			"Restaurant",
			"Pub"
		]
	},
	{
		"date": "2012-05-07T00:32:52.000Z",
		"name": "Villa Polgar",
		"id": "4caaebc0965c9c74f70dcbfa",
		"lat": 47.671899642379415,
		"lng": 16.611052697881373,
		"city": "Sopron",
		"country": "Magyarország",
		"categories": [
			"Home (private)"
		]
	},
	{
		"date": "2012-05-07T15:31:42.000Z",
		"name": "Tomori Pál Főiskola",
		"id": "4dcd4976183899ddfab48695",
		"lat": 47.41125819531315,
		"lng": 19.01293983461239,
		"address": "Művelődés utca 21-27",
		"postalCode": "1223",
		"city": "Budapest",
		"country": "Magyarország",
		"categories": [
			"General College & University"
		]
	},
	{
		"date": "2012-05-07T16:25:28.000Z",
		"name": "Andor's Home",
		"id": "4f6b1ddce4b01cb02e173517",
		"lat": 47.40937552246047,
		"lng": 19.011491535783943,
		"country": "Magyarország",
		"categories": [
			"Home (private)"
		]
	},
	{
		"date": "2012-05-08T12:22:45.000Z",
		"name": "BME R épület",
		"id": "4ba8e306f964a5202cf739e3",
		"lat": 47.47900888118355,
		"lng": 19.058887218991554,
		"address": "Műegyetem rakpart 7-9.",
		"postalCode": "1111",
		"city": "Budapest",
		"country": "Magyarország",
		"categories": [
			"College Academic Building",
			"College Administrative Building",
			"Student Center"
		]
	},
	{
		"date": "2012-05-08T12:23:33.000Z",
		"name": "BME Hallgatói Számítógép Központ",
		"id": "4ea694f07ee5bebc94b27a20",
		"lat": 47.4787908396799,
		"lng": 19.05989973266769,
		"address": "BME R épület III.-IV. emelet",
		"postalCode": "1111",
		"city": "Budapest XI. kerület",
		"country": "Magyarország",
		"categories": [
			"Student Center"
		]
	},
	{
		"date": "2012-05-08T14:02:00.000Z",
		"name": "BME R507",
		"id": "4f4ce9a8e4b0ef284a88661d",
		"lat": 47.47865848785796,
		"lng": 19.059341899246213,
		"address": "BME R épület",
		"city": "Budapest",
		"country": "Magyarország",
		"categories": [
			"College Classroom"
		]
	},
	{
		"date": "2012-05-08T16:05:02.000Z",
		"name": "Campona Bevásárló és Szórakoztatóközpont",
		"id": "4bcd9a91937ca593fef0ac92",
		"lat": 47.40696527095432,
		"lng": 19.017238074599398,
		"address": "Nagytétényi út 37-43.",
		"postalCode": "1222",
		"city": "Budapest",
		"country": "Magyarország",
		"categories": [
			"Shopping Mall"
		]
	},
	{
		"date": "2012-05-08T16:09:21.000Z",
		"name": "TESCO Hipermarket",
		"id": "4ca4ed7797c8a1cdc05c62a5",
		"lat": 47.40764243835762,
		"lng": 19.019182931058598,
		"address": "Campona földszint",
		"postalCode": "1222",
		"city": "Budapest",
		"country": "Magyarország",
		"categories": [
			"Supermarket",
			"Grocery Store"
		]
	},
	{
		"date": "2012-05-08T16:35:18.000Z",
		"name": "Tomori Pál Főiskola",
		"id": "4dcd4976183899ddfab48695",
		"lat": 47.41125819531315,
		"lng": 19.01293983461239,
		"address": "Művelődés utca 21-27",
		"postalCode": "1223",
		"city": "Budapest",
		"country": "Magyarország",
		"categories": [
			"General College & University"
		]
	},
	{
		"date": "2012-05-08T16:40:34.000Z",
		"name": "Andor's Home",
		"id": "4f6b1ddce4b01cb02e173517",
		"lat": 47.40937552246047,
		"lng": 19.011491535783943,
		"country": "Magyarország",
		"categories": [
			"Home (private)"
		]
	},
	{
		"date": "2012-05-09T08:24:57.000Z",
		"name": "Campona Bevásárló és Szórakoztatóközpont",
		"id": "4bcd9a91937ca593fef0ac92",
		"lat": 47.40696527095432,
		"lng": 19.017238074599398,
		"address": "Nagytétényi út 37-43.",
		"postalCode": "1222",
		"city": "Budapest",
		"country": "Magyarország",
		"categories": [
			"Shopping Mall"
		]
	},
	{
		"date": "2012-05-09T08:25:09.000Z",
		"name": "TESCO Hipermarket",
		"id": "4ca4ed7797c8a1cdc05c62a5",
		"lat": 47.40764243835762,
		"lng": 19.019182931058598,
		"address": "Campona földszint",
		"postalCode": "1222",
		"city": "Budapest",
		"country": "Magyarország",
		"categories": [
			"Supermarket",
			"Grocery Store"
		]
	},
	{
		"date": "2012-05-09T08:39:38.000Z",
		"name": "Tomori Pál Főiskola",
		"id": "4dcd4976183899ddfab48695",
		"lat": 47.41125819531315,
		"lng": 19.01293983461239,
		"address": "Művelődés utca 21-27",
		"postalCode": "1223",
		"city": "Budapest",
		"country": "Magyarország",
		"categories": [
			"General College & University"
		]
	},
	{
		"date": "2012-05-09T09:29:04.000Z",
		"name": "BME R épület",
		"id": "4ba8e306f964a5202cf739e3",
		"lat": 47.47900888118355,
		"lng": 19.058887218991554,
		"address": "Műegyetem rakpart 7-9.",
		"postalCode": "1111",
		"city": "Budapest",
		"country": "Magyarország",
		"categories": [
			"College Academic Building",
			"College Administrative Building",
			"Student Center"
		]
	},
	{
		"date": "2012-05-09T09:29:17.000Z",
		"name": "BME Hallgatói Számítógép Központ",
		"id": "4ea694f07ee5bebc94b27a20",
		"lat": 47.4787908396799,
		"lng": 19.05989973266769,
		"address": "BME R épület III.-IV. emelet",
		"postalCode": "1111",
		"city": "Budapest XI. kerület",
		"country": "Magyarország",
		"categories": [
			"Student Center"
		]
	},
	{
		"date": "2012-05-09T16:03:05.000Z",
		"name": "TESCO Hipermarket",
		"id": "4ca4ed7797c8a1cdc05c62a5",
		"lat": 47.40764243835762,
		"lng": 19.019182931058598,
		"address": "Campona földszint",
		"postalCode": "1222",
		"city": "Budapest",
		"country": "Magyarország",
		"categories": [
			"Supermarket",
			"Grocery Store"
		]
	},
	{
		"date": "2012-05-09T16:05:39.000Z",
		"name": "Campona Bevásárló és Szórakoztatóközpont",
		"id": "4bcd9a91937ca593fef0ac92",
		"lat": 47.40696527095432,
		"lng": 19.017238074599398,
		"address": "Nagytétényi út 37-43.",
		"postalCode": "1222",
		"city": "Budapest",
		"country": "Magyarország",
		"categories": [
			"Shopping Mall"
		]
	},
	{
		"date": "2012-05-09T20:45:29.000Z",
		"name": "Tomori Pál Főiskola",
		"id": "4dcd4976183899ddfab48695",
		"lat": 47.41125819531315,
		"lng": 19.01293983461239,
		"address": "Művelődés utca 21-27",
		"postalCode": "1223",
		"city": "Budapest",
		"country": "Magyarország",
		"categories": [
			"General College & University"
		]
	},
	{
		"date": "2012-05-09T20:51:11.000Z",
		"name": "Andor's Home",
		"id": "4f6b1ddce4b01cb02e173517",
		"lat": 47.40937552246047,
		"lng": 19.011491535783943,
		"country": "Magyarország",
		"categories": [
			"Home (private)"
		]
	},
	{
		"date": "2012-05-10T05:34:59.000Z",
		"name": "BME I épület",
		"id": "4bcd89a5fb84c9b6311c223e",
		"lat": 47.472654177471675,
		"lng": 19.059821807961907,
		"address": "Magyar tudósok körútja 2.",
		"postalCode": "1117",
		"city": "Budapest",
		"country": "Magyarország",
		"categories": [
			"College Technology Building"
		]
	},
	{
		"date": "2012-05-10T05:55:05.000Z",
		"name": "BME IB145",
		"id": "4f38fdc0e4b0a8274071361b",
		"lat": 47.47250459547692,
		"lng": 19.05985818496417,
		"address": "BME I épület",
		"city": "Budapest",
		"country": "Magyarország",
		"categories": [
			"College Classroom"
		]
	},
	{
		"date": "2012-05-10T06:54:49.000Z",
		"name": "BME R épület",
		"id": "4ba8e306f964a5202cf739e3",
		"lat": 47.47900888118355,
		"lng": 19.058887218991554,
		"address": "Műegyetem rakpart 7-9.",
		"postalCode": "1111",
		"city": "Budapest",
		"country": "Magyarország",
		"categories": [
			"College Academic Building",
			"College Administrative Building",
			"Student Center"
		]
	},
	{
		"date": "2012-05-10T08:10:48.000Z",
		"name": "BME R504",
		"id": "4f45ff29e4b0f8695e0a7a4b",
		"lat": 47.478714779315396,
		"lng": 19.059441826088182,
		"address": "BME R épület",
		"city": "Budapest",
		"country": "Magyarország",
		"categories": [
			"College Classroom"
		]
	},
	{
		"date": "2012-05-10T08:11:57.000Z",
		"name": "BME Hallgatói Számítógép Központ",
		"id": "4ea694f07ee5bebc94b27a20",
		"lat": 47.4787908396799,
		"lng": 19.05989973266769,
		"address": "BME R épület III.-IV. emelet",
		"postalCode": "1111",
		"city": "Budapest XI. kerület",
		"country": "Magyarország",
		"categories": [
			"Student Center"
		]
	},
	{
		"date": "2012-05-10T10:09:39.000Z",
		"name": "BME K épület",
		"id": "4cb41c0adb32f04dd23adb4d",
		"lat": 47.4812486178674,
		"lng": 19.055142402648926,
		"address": "Műegyetem rkp. 3.",
		"postalCode": "1111",
		"city": "Budapest",
		"country": "Magyarország",
		"categories": [
			"University",
			"College Academic Building",
			"College Engineering Building"
		]
	},
	{
		"date": "2012-05-10T10:09:59.000Z",
		"name": "K alagsori büfé",
		"id": "4dc3bcf018387d1bd5109ea6",
		"lat": 47.481409605054736,
		"lng": 19.055488552562526,
		"address": "BME K épület",
		"postalCode": "1111",
		"city": "Budapest",
		"country": "Magyarország",
		"categories": [
			"College Cafeteria"
		]
	},
	{
		"date": "2012-05-10T10:23:04.000Z",
		"name": "BME F épület",
		"id": "4c19da436a21c9b68330cb97",
		"lat": 47.47997076094497,
		"lng": 19.05389783043149,
		"address": "Budafoki út 21-27.",
		"postalCode": "1111",
		"city": "Budapest",
		"country": "Magyarország",
		"categories": [
			"College Science Building"
		]
	},
	{
		"date": "2012-05-10T10:23:16.000Z",
		"name": "BME F29 Zemplén Győző terem",
		"id": "4f3bafb7e4b0d6152f7a3ad7",
		"lat": 47.479662518465965,
		"lng": 19.05392462181384,
		"address": "BME F épület",
		"city": "Budapest",
		"country": "Magyarország",
		"categories": [
			"College Auditorium"
		]
	},
	{
		"date": "2012-05-10T11:37:43.000Z",
		"name": "BME R épület",
		"id": "4ba8e306f964a5202cf739e3",
		"lat": 47.47900888118355,
		"lng": 19.058887218991554,
		"address": "Műegyetem rakpart 7-9.",
		"postalCode": "1111",
		"city": "Budapest",
		"country": "Magyarország",
		"categories": [
			"College Academic Building",
			"College Administrative Building",
			"Student Center"
		]
	},
	{
		"date": "2012-05-10T11:37:55.000Z",
		"name": "BME Hallgatói Számítógép Központ",
		"id": "4ea694f07ee5bebc94b27a20",
		"lat": 47.4787908396799,
		"lng": 19.05989973266769,
		"address": "BME R épület III.-IV. emelet",
		"postalCode": "1111",
		"city": "Budapest XI. kerület",
		"country": "Magyarország",
		"categories": [
			"Student Center"
		]
	},
	{
		"date": "2012-05-10T14:53:29.000Z",
		"name": "BME I épület",
		"id": "4bcd89a5fb84c9b6311c223e",
		"lat": 47.472654177471675,
		"lng": 19.059821807961907,
		"address": "Magyar tudósok körútja 2.",
		"postalCode": "1117",
		"city": "Budapest",
		"country": "Magyarország",
		"categories": [
			"College Technology Building"
		]
	},
	{
		"date": "2012-05-10T14:53:53.000Z",
		"name": "I büfé",
		"id": "4de4bfebfa7651589f3489b7",
		"lat": 47.47264799524757,
		"lng": 19.059493807220463,
		"address": "BME I épület",
		"postalCode": "1117",
		"city": "Budapest",
		"country": "Magyarország",
		"categories": [
			"Snack Place"
		]
	},
	{
		"date": "2012-05-10T16:50:48.000Z",
		"name": "Campona Bevásárló és Szórakoztatóközpont",
		"id": "4bcd9a91937ca593fef0ac92",
		"lat": 47.40696527095432,
		"lng": 19.017238074599398,
		"address": "Nagytétényi út 37-43.",
		"postalCode": "1222",
		"city": "Budapest",
		"country": "Magyarország",
		"categories": [
			"Shopping Mall"
		]
	},
	{
		"date": "2012-05-10T16:52:11.000Z",
		"name": "TESCO Hipermarket",
		"id": "4ca4ed7797c8a1cdc05c62a5",
		"lat": 47.40764243835762,
		"lng": 19.019182931058598,
		"address": "Campona földszint",
		"postalCode": "1222",
		"city": "Budapest",
		"country": "Magyarország",
		"categories": [
			"Supermarket",
			"Grocery Store"
		]
	},
	{
		"date": "2012-05-11T08:55:36.000Z",
		"name": "BME R épület",
		"id": "4ba8e306f964a5202cf739e3",
		"lat": 47.47900888118355,
		"lng": 19.058887218991554,
		"address": "Műegyetem rakpart 7-9.",
		"postalCode": "1111",
		"city": "Budapest",
		"country": "Magyarország",
		"categories": [
			"College Academic Building",
			"College Administrative Building",
			"Student Center"
		]
	},
	{
		"date": "2012-05-11T08:55:48.000Z",
		"name": "BME Hallgatói Számítógép Központ",
		"id": "4ea694f07ee5bebc94b27a20",
		"lat": 47.4787908396799,
		"lng": 19.05989973266769,
		"address": "BME R épület III.-IV. emelet",
		"postalCode": "1111",
		"city": "Budapest XI. kerület",
		"country": "Magyarország",
		"categories": [
			"Student Center"
		]
	},
	{
		"date": "2012-05-11T12:02:21.000Z",
		"name": "BME K épület",
		"id": "4cb41c0adb32f04dd23adb4d",
		"lat": 47.4812486178674,
		"lng": 19.055142402648926,
		"address": "Műegyetem rkp. 3.",
		"postalCode": "1111",
		"city": "Budapest",
		"country": "Magyarország",
		"categories": [
			"University",
			"College Academic Building",
			"College Engineering Building"
		]
	},
	{
		"date": "2012-05-11T12:38:21.000Z",
		"name": "K Aula",
		"id": "4cb81e8a43ec6dcb8da09231",
		"lat": 47.48149980074551,
		"lng": 19.055482959409627,
		"address": "BME K épület",
		"city": "Budapest",
		"country": "Magyarország",
		"categories": [
			"University"
		]
	},
	{
		"date": "2012-05-11T12:44:06.000Z",
		"name": "BME KF76",
		"id": "4fad0993e4b03239826b5075",
		"lat": 47.48092443487314,
		"lng": 19.05614423156482,
		"address": "BME K épület",
		"city": "Budapest",
		"country": "Magyarország",
		"categories": [
			"College Auditorium"
		]
	},
	{
		"date": "2012-05-11T16:46:19.000Z",
		"name": "Tatabánya vasútállomás",
		"id": "4b7ff81cf964a5209f4730e3",
		"lat": 47.58529710183436,
		"lng": 18.39315176010132,
		"address": "Jedlik Ányos u. 1.",
		"postalCode": "2800",
		"city": "Tatabánya",
		"country": "Magyarország",
		"categories": [
			"Train Station"
		]
	},
	{
		"date": "2012-05-11T16:46:50.000Z",
		"name": "Vértes Center",
		"id": "4cf26461e9425481f2f46fc5",
		"lat": 47.58627385111341,
		"lng": 18.393827125687846,
		"address": "Győri út 7-9.",
		"postalCode": "2800",
		"city": "Tatabánya",
		"country": "Magyarország",
		"categories": [
			"Shopping Mall"
		]
	},
	{
		"date": "2012-05-11T16:53:37.000Z",
		"name": "Roxxy Music Cafe",
		"id": "4caf266b1463a143fc0992a9",
		"lat": 47.58480082037948,
		"lng": 18.395169503498295,
		"address": "Győri út 3.",
		"postalCode": "2800",
		"city": "Tatabánya",
		"country": "Magyarország",
		"categories": [
			"Rock Club",
			"Pub"
		]
	},
	{
		"date": "2012-05-13T14:32:43.000Z",
		"name": "Vértes Center",
		"id": "4cf26461e9425481f2f46fc5",
		"lat": 47.58627385111341,
		"lng": 18.393827125687846,
		"address": "Győri út 7-9.",
		"postalCode": "2800",
		"city": "Tatabánya",
		"country": "Magyarország",
		"categories": [
			"Shopping Mall"
		]
	},
	{
		"date": "2012-05-13T16:07:06.000Z",
		"name": "Incognito Café",
		"id": "4dc4640545dd26455255c8e1",
		"lat": 47.64835343071302,
		"lng": 18.315765655684903,
		"postalCode": "2890",
		"city": "Tata",
		"country": "Magyarország",
		"categories": [
			"Pub"
		]
	},
	{
		"date": "2012-05-13T20:23:21.000Z",
		"name": "Vértes Center",
		"id": "4cf26461e9425481f2f46fc5",
		"lat": 47.58627385111341,
		"lng": 18.393827125687846,
		"address": "Győri út 7-9.",
		"postalCode": "2800",
		"city": "Tatabánya",
		"country": "Magyarország",
		"categories": [
			"Shopping Mall"
		]
	},
	{
		"date": "2012-05-13T20:23:57.000Z",
		"name": "Tatabánya autóbusz-állomás (Vértes Center)",
		"id": "4d9231b75cf5236a106e48a3",
		"lat": 47.586394687856036,
		"lng": 18.392904240848797,
		"address": "Győri út",
		"postalCode": "2800",
		"city": "Tatabánya",
		"country": "Magyarország",
		"categories": [
			"Bus Stop"
		]
	},
	{
		"date": "2012-05-14T07:55:56.000Z",
		"name": "Vértes Center",
		"id": "4cf26461e9425481f2f46fc5",
		"lat": 47.58627385111341,
		"lng": 18.393827125687846,
		"address": "Győri út 7-9.",
		"postalCode": "2800",
		"city": "Tatabánya",
		"country": "Magyarország",
		"categories": [
			"Shopping Mall"
		]
	},
	{
		"date": "2012-05-14T08:01:42.000Z",
		"name": "Tatabánya vasútállomás",
		"id": "4b7ff81cf964a5209f4730e3",
		"lat": 47.58529710183436,
		"lng": 18.39315176010132,
		"address": "Jedlik Ányos u. 1.",
		"postalCode": "2800",
		"city": "Tatabánya",
		"country": "Magyarország",
		"categories": [
			"Train Station"
		]
	},
	{
		"date": "2012-05-14T09:28:55.000Z",
		"name": "Móricz Zsigmond körtér M (6)",
		"id": "4c814dd8d34ca143ee262180",
		"lat": 47.47742997325234,
		"lng": 19.048785384508754,
		"address": "Karinthy Frigyes út",
		"postalCode": "1114",
		"city": "Budapest",
		"country": "Magyarország",
		"categories": [
			"Tram Station"
		]
	},
	{
		"date": "2012-05-14T09:45:25.000Z",
		"name": "BME R épület",
		"id": "4ba8e306f964a5202cf739e3",
		"lat": 47.47900888118355,
		"lng": 19.058887218991554,
		"address": "Műegyetem rakpart 7-9.",
		"postalCode": "1111",
		"city": "Budapest",
		"country": "Magyarország",
		"categories": [
			"College Academic Building",
			"College Administrative Building",
			"Student Center"
		]
	},
	{
		"date": "2012-05-14T09:45:49.000Z",
		"name": "BME Hallgatói Számítógép Központ",
		"id": "4ea694f07ee5bebc94b27a20",
		"lat": 47.4787908396799,
		"lng": 19.05989973266769,
		"address": "BME R épület III.-IV. emelet",
		"postalCode": "1111",
		"city": "Budapest XI. kerület",
		"country": "Magyarország",
		"categories": [
			"Student Center"
		]
	},
	{
		"date": "2012-05-14T14:09:44.000Z",
		"name": "Tomori Pál Főiskola",
		"id": "4dcd4976183899ddfab48695",
		"lat": 47.41125819531315,
		"lng": 19.01293983461239,
		"address": "Művelődés utca 21-27",
		"postalCode": "1223",
		"city": "Budapest",
		"country": "Magyarország",
		"categories": [
			"General College & University"
		]
	},
	{
		"date": "2012-05-14T14:11:34.000Z",
		"name": "Andor's Home",
		"id": "4f6b1ddce4b01cb02e173517",
		"lat": 47.40937552246047,
		"lng": 19.011491535783943,
		"country": "Magyarország",
		"categories": [
			"Home (private)"
		]
	},
	{
		"date": "2012-05-14T19:38:36.000Z",
		"name": "Losonci tér",
		"id": "4d9d5189a695721e11340f0d",
		"lat": 47.48958911031985,
		"lng": 19.08032029942558,
		"address": "Losonci tér",
		"postalCode": "1083",
		"city": "Budapest",
		"country": "Magyarország",
		"categories": [
			"Plaza",
			"Park"
		]
	},
	{
		"date": "2012-05-14T22:58:42.000Z",
		"name": "Tomori Pál Főiskola",
		"id": "4dcd4976183899ddfab48695",
		"lat": 47.41125819531315,
		"lng": 19.01293983461239,
		"address": "Művelődés utca 21-27",
		"postalCode": "1223",
		"city": "Budapest",
		"country": "Magyarország",
		"categories": [
			"General College & University"
		]
	},
	{
		"date": "2012-05-14T22:58:55.000Z",
		"name": "Andor's Home",
		"id": "4f6b1ddce4b01cb02e173517",
		"lat": 47.40937552246047,
		"lng": 19.011491535783943,
		"country": "Magyarország",
		"categories": [
			"Home (private)"
		]
	},
	{
		"date": "2012-05-15T07:16:08.000Z",
		"name": "BME I épület",
		"id": "4bcd89a5fb84c9b6311c223e",
		"lat": 47.472654177471675,
		"lng": 19.059821807961907,
		"address": "Magyar tudósok körútja 2.",
		"postalCode": "1117",
		"city": "Budapest",
		"country": "Magyarország",
		"categories": [
			"College Technology Building"
		]
	},
	{
		"date": "2012-05-15T09:11:40.000Z",
		"name": "I büfé",
		"id": "4de4bfebfa7651589f3489b7",
		"lat": 47.47264799524757,
		"lng": 19.059493807220463,
		"address": "BME I épület",
		"postalCode": "1117",
		"city": "Budapest",
		"country": "Magyarország",
		"categories": [
			"Snack Place"
		]
	},
	{
		"date": "2012-05-15T10:05:54.000Z",
		"name": "Fehérvári úti Vásárcsarnok",
		"id": "4b94c3fcf964a520a68234e3",
		"lat": 47.47441784021495,
		"lng": 19.047396183013916,
		"address": "Kőrösi J. u. 7-9.",
		"postalCode": "1117",
		"city": "Budapest",
		"country": "Magyarország",
		"categories": [
			"Farmers Market"
		]
	},
	{
		"date": "2012-05-15T15:07:57.000Z",
		"name": "BME R épület",
		"id": "4ba8e306f964a5202cf739e3",
		"lat": 47.47900888118355,
		"lng": 19.058887218991554,
		"address": "Műegyetem rakpart 7-9.",
		"postalCode": "1111",
		"city": "Budapest",
		"country": "Magyarország",
		"categories": [
			"College Academic Building",
			"College Administrative Building",
			"Student Center"
		]
	},
	{
		"date": "2012-05-15T15:08:13.000Z",
		"name": "BME Hallgatói Számítógép Központ",
		"id": "4ea694f07ee5bebc94b27a20",
		"lat": 47.4787908396799,
		"lng": 19.05989973266769,
		"address": "BME R épület III.-IV. emelet",
		"postalCode": "1111",
		"city": "Budapest XI. kerület",
		"country": "Magyarország",
		"categories": [
			"Student Center"
		]
	},
	{
		"date": "2012-05-15T15:34:57.000Z",
		"name": "Corvin Plaza",
		"id": "4cc701eabe40a35d1d6a8d4c",
		"lat": 47.486046352980296,
		"lng": 19.07288581182118,
		"address": "Futó u. 37-45.",
		"postalCode": "1083",
		"city": "Budapest",
		"country": "Magyarország",
		"categories": [
			"Shopping Mall"
		]
	},
	{
		"date": "2012-05-15T15:35:20.000Z",
		"name": "CBA Príma",
		"id": "4cd037a59d87224b14ce533b",
		"lat": 47.48601991975846,
		"lng": 19.073800320225235,
		"address": "Corvin Bevásárlóközpont",
		"postalCode": "1085",
		"city": "Budapest",
		"country": "Magyarország",
		"categories": [
			"Grocery Store"
		]
	},
	{
		"date": "2012-05-15T16:41:59.000Z",
		"name": "Losonci tér",
		"id": "4d9d5189a695721e11340f0d",
		"lat": 47.48958911031985,
		"lng": 19.08032029942558,
		"address": "Losonci tér",
		"postalCode": "1083",
		"city": "Budapest",
		"country": "Magyarország",
		"categories": [
			"Plaza",
			"Park"
		]
	},
	{
		"date": "2012-05-16T10:37:19.000Z",
		"name": "SPAR",
		"id": "4be83036c5220f476867a9ca",
		"lat": 47.486964687669555,
		"lng": 19.080367093254154,
		"address": "Szigony utca 12.",
		"postalCode": "1083",
		"city": "Budapest VIII.",
		"country": "Magyarország",
		"categories": [
			"Supermarket",
			"Grocery Store"
		]
	},
	{
		"date": "2012-05-16T15:12:01.000Z",
		"name": "Losonci tér",
		"id": "4d9d5189a695721e11340f0d",
		"lat": 47.48958911031985,
		"lng": 19.08032029942558,
		"address": "Losonci tér",
		"postalCode": "1083",
		"city": "Budapest",
		"country": "Magyarország",
		"categories": [
			"Plaza",
			"Park"
		]
	},
	{
		"date": "2012-05-16T16:59:25.000Z",
		"name": "BME R épület",
		"id": "4ba8e306f964a5202cf739e3",
		"lat": 47.47900888118355,
		"lng": 19.058887218991554,
		"address": "Műegyetem rakpart 7-9.",
		"postalCode": "1111",
		"city": "Budapest",
		"country": "Magyarország",
		"categories": [
			"College Academic Building",
			"College Administrative Building",
			"Student Center"
		]
	},
	{
		"date": "2012-05-16T16:59:45.000Z",
		"name": "BME Hallgatói Számítógép Központ",
		"id": "4ea694f07ee5bebc94b27a20",
		"lat": 47.4787908396799,
		"lng": 19.05989973266769,
		"address": "BME R épület III.-IV. emelet",
		"postalCode": "1111",
		"city": "Budapest XI. kerület",
		"country": "Magyarország",
		"categories": [
			"Student Center"
		]
	},
	{
		"date": "2012-05-16T18:47:54.000Z",
		"name": "TESCO Hipermarket",
		"id": "4ca4ed7797c8a1cdc05c62a5",
		"lat": 47.40764243835762,
		"lng": 19.019182931058598,
		"address": "Campona földszint",
		"postalCode": "1222",
		"city": "Budapest",
		"country": "Magyarország",
		"categories": [
			"Supermarket",
			"Grocery Store"
		]
	},
	{
		"date": "2012-05-16T18:48:23.000Z",
		"name": "Campona Bevásárló és Szórakoztatóközpont",
		"id": "4bcd9a91937ca593fef0ac92",
		"lat": 47.40696527095432,
		"lng": 19.017238074599398,
		"address": "Nagytétényi út 37-43.",
		"postalCode": "1222",
		"city": "Budapest",
		"country": "Magyarország",
		"categories": [
			"Shopping Mall"
		]
	},
	{
		"date": "2012-05-16T19:09:18.000Z",
		"name": "Tomori Pál Főiskola",
		"id": "4dcd4976183899ddfab48695",
		"lat": 47.41125819531315,
		"lng": 19.01293983461239,
		"address": "Művelődés utca 21-27",
		"postalCode": "1223",
		"city": "Budapest",
		"country": "Magyarország",
		"categories": [
			"General College & University"
		]
	},
	{
		"date": "2012-05-16T19:10:19.000Z",
		"name": "Andor's Home",
		"id": "4f6b1ddce4b01cb02e173517",
		"lat": 47.40937552246047,
		"lng": 19.011491535783943,
		"country": "Magyarország",
		"categories": [
			"Home (private)"
		]
	},
	{
		"date": "2012-05-17T08:55:26.000Z",
		"name": "BME R épület",
		"id": "4ba8e306f964a5202cf739e3",
		"lat": 47.47900888118355,
		"lng": 19.058887218991554,
		"address": "Műegyetem rakpart 7-9.",
		"postalCode": "1111",
		"city": "Budapest",
		"country": "Magyarország",
		"categories": [
			"College Academic Building",
			"College Administrative Building",
			"Student Center"
		]
	},
	{
		"date": "2012-05-17T08:55:42.000Z",
		"name": "BME Hallgatói Számítógép Központ",
		"id": "4ea694f07ee5bebc94b27a20",
		"lat": 47.4787908396799,
		"lng": 19.05989973266769,
		"address": "BME R épület III.-IV. emelet",
		"postalCode": "1111",
		"city": "Budapest XI. kerület",
		"country": "Magyarország",
		"categories": [
			"Student Center"
		]
	},
	{
		"date": "2012-05-17T09:40:12.000Z",
		"name": "BME E épület",
		"id": "4ba8e6fbf964a5208ef839e3",
		"lat": 47.477616135843945,
		"lng": 19.057630443325607,
		"address": "Egry József u. 1.",
		"postalCode": "1111",
		"city": "Budapest",
		"country": "Magyarország",
		"categories": [
			"College Academic Building"
		]
	},
	{
		"date": "2012-05-17T09:40:25.000Z",
		"name": "BME E büfé",
		"id": "4da4087b2939b1f71cea2957",
		"lat": 47.47779195154481,
		"lng": 19.057730492251796,
		"address": "Egry József u. 1.",
		"postalCode": "1111",
		"city": "Budapest",
		"country": "Magyarország",
		"categories": [
			"College Cafeteria",
			"Snack Place",
			"Pizza Place"
		]
	},
	{
		"date": "2012-05-17T09:49:43.000Z",
		"name": "BME E1.B előadóterem",
		"id": "4e799da9aeb79f7dab8b437b",
		"lat": 47.477768,
		"lng": 19.057303,
		"address": "BME E épület",
		"postalCode": "1111",
		"city": "Budapest XI. kerület",
		"country": "Magyarország",
		"categories": [
			"College Auditorium"
		]
	},
	{
		"date": "2012-05-17T12:38:10.000Z",
		"name": "BME R épület",
		"id": "4ba8e306f964a5202cf739e3",
		"lat": 47.47900888118355,
		"lng": 19.058887218991554,
		"address": "Műegyetem rakpart 7-9.",
		"postalCode": "1111",
		"city": "Budapest",
		"country": "Magyarország",
		"categories": [
			"College Academic Building",
			"College Administrative Building",
			"Student Center"
		]
	},
	{
		"date": "2012-05-17T12:40:12.000Z",
		"name": "BME Hallgatói Számítógép Központ",
		"id": "4ea694f07ee5bebc94b27a20",
		"lat": 47.4787908396799,
		"lng": 19.05989973266769,
		"address": "BME R épület III.-IV. emelet",
		"postalCode": "1111",
		"city": "Budapest XI. kerület",
		"country": "Magyarország",
		"categories": [
			"Student Center"
		]
	},
	{
		"date": "2012-05-17T18:51:38.000Z",
		"name": "Losonci tér",
		"id": "4d9d5189a695721e11340f0d",
		"lat": 47.48958911031985,
		"lng": 19.08032029942558,
		"address": "Losonci tér",
		"postalCode": "1083",
		"city": "Budapest",
		"country": "Magyarország",
		"categories": [
			"Plaza",
			"Park"
		]
	},
	{
		"date": "2012-05-18T08:25:06.000Z",
		"name": "Tomori Pál Főiskola",
		"id": "4dcd4976183899ddfab48695",
		"lat": 47.41125819531315,
		"lng": 19.01293983461239,
		"address": "Művelődés utca 21-27",
		"postalCode": "1223",
		"city": "Budapest",
		"country": "Magyarország",
		"categories": [
			"General College & University"
		]
	},
	{
		"date": "2012-05-18T08:25:17.000Z",
		"name": "Andor's Home",
		"id": "4f6b1ddce4b01cb02e173517",
		"lat": 47.40937552246047,
		"lng": 19.011491535783943,
		"country": "Magyarország",
		"categories": [
			"Home (private)"
		]
	},
	{
		"date": "2012-05-18T09:15:27.000Z",
		"name": "BME I épület",
		"id": "4bcd89a5fb84c9b6311c223e",
		"lat": 47.472654177471675,
		"lng": 19.059821807961907,
		"address": "Magyar tudósok körútja 2.",
		"postalCode": "1117",
		"city": "Budapest",
		"country": "Magyarország",
		"categories": [
			"College Technology Building"
		]
	},
	{
		"date": "2012-05-18T12:11:17.000Z",
		"name": "Campona Bevásárló és Szórakoztatóközpont",
		"id": "4bcd9a91937ca593fef0ac92",
		"lat": 47.40696527095432,
		"lng": 19.017238074599398,
		"address": "Nagytétényi út 37-43.",
		"postalCode": "1222",
		"city": "Budapest",
		"country": "Magyarország",
		"categories": [
			"Shopping Mall"
		]
	},
	{
		"date": "2012-05-18T12:11:29.000Z",
		"name": "TESCO Hipermarket",
		"id": "4ca4ed7797c8a1cdc05c62a5",
		"lat": 47.40764243835762,
		"lng": 19.019182931058598,
		"address": "Campona földszint",
		"postalCode": "1222",
		"city": "Budapest",
		"country": "Magyarország",
		"categories": [
			"Supermarket",
			"Grocery Store"
		]
	},
	{
		"date": "2012-05-18T13:21:19.000Z",
		"name": "Tomori Pál Főiskola",
		"id": "4dcd4976183899ddfab48695",
		"lat": 47.41125819531315,
		"lng": 19.01293983461239,
		"address": "Művelődés utca 21-27",
		"postalCode": "1223",
		"city": "Budapest",
		"country": "Magyarország",
		"categories": [
			"General College & University"
		]
	},
	{
		"date": "2012-05-18T13:21:38.000Z",
		"name": "Andor's Home",
		"id": "4f6b1ddce4b01cb02e173517",
		"lat": 47.40937552246047,
		"lng": 19.011491535783943,
		"country": "Magyarország",
		"categories": [
			"Home (private)"
		]
	},
	{
		"date": "2012-05-18T17:09:04.000Z",
		"name": "OMV Bábolna-Dél",
		"id": "4ddb1ca5d16419ce67324b73",
		"lat": 47.68048269045468,
		"lng": 17.976010163956694,
		"address": "M1 93 km",
		"postalCode": "2943",
		"city": "Bábolna",
		"country": "Magyarország",
		"categories": [
			"Gas Station",
			"Rest Area"
		]
	},
	{
		"date": "2012-05-18T17:09:22.000Z",
		"name": "OMV Bábolna-Dél",
		"id": "4ddb1ca5d16419ce67324b73",
		"lat": 47.68048269045468,
		"lng": 17.976010163956694,
		"address": "M1 93 km",
		"postalCode": "2943",
		"city": "Bábolna",
		"country": "Magyarország",
		"categories": [
			"Gas Station",
			"Rest Area"
		]
	},
	{
		"date": "2012-05-18T18:50:56.000Z",
		"name": "Villa Polgar",
		"id": "4caaebc0965c9c74f70dcbfa",
		"lat": 47.671899642379415,
		"lng": 16.611052697881373,
		"city": "Sopron",
		"country": "Magyarország",
		"categories": [
			"Home (private)"
		]
	},
	{
		"date": "2012-05-19T22:15:34.000Z",
		"name": "Villa Polgar",
		"id": "4caaebc0965c9c74f70dcbfa",
		"lat": 47.671899642379415,
		"lng": 16.611052697881373,
		"city": "Sopron",
		"country": "Magyarország",
		"categories": [
			"Home (private)"
		]
	},
	{
		"date": "2012-05-20T10:26:46.000Z",
		"name": "Várkerület",
		"id": "4d3d55cb44f5a0933e04d4bb",
		"lat": 47.6850115484087,
		"lng": 16.592843179592137,
		"address": "Várkerület",
		"postalCode": "9400",
		"city": "Sopron",
		"country": "Magyarország",
		"categories": [
			"Road",
			"Pedestrian Plaza"
		]
	},
	{
		"date": "2012-05-20T10:27:23.000Z",
		"name": "Grandma's Place",
		"id": "4f5c86b7e4b086681c0fa476",
		"lat": 47.685079492343135,
		"lng": 16.59042726764715,
		"country": "Magyarország",
		"categories": [
			"Home (private)"
		]
	},
	{
		"date": "2012-05-20T20:06:42.000Z",
		"name": "MOL",
		"id": "4df64e71fa76abc3d875f2d1",
		"lat": 47.43976330903009,
		"lng": 19.044234607565794,
		"address": "Hunyadi János út 23",
		"postalCode": "1116",
		"city": "Budapest",
		"country": "Magyarország",
		"categories": [
			"Gas Station"
		]
	},
	{
		"date": "2012-05-20T22:16:35.000Z",
		"name": "Tomori Pál Főiskola",
		"id": "4dcd4976183899ddfab48695",
		"lat": 47.41125819531315,
		"lng": 19.01293983461239,
		"address": "Művelődés utca 21-27",
		"postalCode": "1223",
		"city": "Budapest",
		"country": "Magyarország",
		"categories": [
			"General College & University"
		]
	},
	{
		"date": "2012-05-20T22:17:51.000Z",
		"name": "Andor's Home",
		"id": "4f6b1ddce4b01cb02e173517",
		"lat": 47.40937552246047,
		"lng": 19.011491535783943,
		"country": "Magyarország",
		"categories": [
			"Home (private)"
		]
	},
	{
		"date": "2012-05-21T10:09:27.000Z",
		"name": "BME R épület",
		"id": "4ba8e306f964a5202cf739e3",
		"lat": 47.47900888118355,
		"lng": 19.058887218991554,
		"address": "Műegyetem rakpart 7-9.",
		"postalCode": "1111",
		"city": "Budapest",
		"country": "Magyarország",
		"categories": [
			"College Academic Building",
			"College Administrative Building",
			"Student Center"
		]
	},
	{
		"date": "2012-05-21T10:09:48.000Z",
		"name": "BME Hallgatói Számítógép Központ",
		"id": "4ea694f07ee5bebc94b27a20",
		"lat": 47.4787908396799,
		"lng": 19.05989973266769,
		"address": "BME R épület III.-IV. emelet",
		"postalCode": "1111",
		"city": "Budapest XI. kerület",
		"country": "Magyarország",
		"categories": [
			"Student Center"
		]
	},
	{
		"date": "2012-05-21T13:08:31.000Z",
		"name": "INTERSPAR",
		"id": "4bdabddf63c5c9b699c22468",
		"lat": 47.475299241950985,
		"lng": 19.049000550751416,
		"address": "Allee Bevásárlóközpont",
		"postalCode": "1117",
		"city": "Budapest",
		"country": "Magyarország",
		"categories": [
			"Supermarket"
		]
	},
	{
		"date": "2012-05-21T13:08:51.000Z",
		"name": "Allee Bevásárlóközpont",
		"id": "4ba35913f964a520883638e3",
		"lat": 47.47540787650971,
		"lng": 19.048983750822984,
		"address": "Október huszonharmadika u. 8-10.",
		"postalCode": "1117",
		"city": "Budapest",
		"country": "Magyarország",
		"categories": [
			"Shopping Mall"
		]
	},
	{
		"date": "2012-05-21T13:29:52.000Z",
		"name": "Harminckettesek tere (4, 6)",
		"id": "4c41fa8ce26920a1614f5fe7",
		"lat": 47.491346061078474,
		"lng": 19.07721140890305,
		"address": "József krt.",
		"postalCode": "1085",
		"city": "Budapest",
		"country": "Magyarország",
		"categories": [
			"Tram Station"
		]
	},
	{
		"date": "2012-05-21T14:00:04.000Z",
		"name": "Losonci tér",
		"id": "4d9d5189a695721e11340f0d",
		"lat": 47.48958911031985,
		"lng": 19.08032029942558,
		"address": "Losonci tér",
		"postalCode": "1083",
		"city": "Budapest",
		"country": "Magyarország",
		"categories": [
			"Plaza",
			"Park"
		]
	},
	{
		"date": "2012-05-21T16:24:12.000Z",
		"name": "Patent 46",
		"id": "4dc3023bfa76d685cda31e8b",
		"lat": 47.501301245302486,
		"lng": 19.061570014139324,
		"address": "Király u. 46.",
		"postalCode": "1061",
		"city": "Budapest",
		"country": "Magyarország",
		"categories": [
			"Bar",
			"Cocktail Bar"
		]
	},
	{
		"date": "2012-05-21T19:06:15.000Z",
		"name": "Pizzanet",
		"id": "4dac6b2d1e72c1ab9c1e70b3",
		"lat": 47.5021193082182,
		"lng": 19.06278416159449,
		"address": "Király u. 51.",
		"postalCode": "1077",
		"city": "Budapest",
		"country": "Magyarország",
		"categories": [
			"Pizza Place"
		]
	},
	{
		"date": "2012-05-21T19:07:11.000Z",
		"name": "Király utca (4, 6)",
		"id": "4c96542a94a0236af9f59d12",
		"lat": 47.50311239155214,
		"lng": 19.065948848368812,
		"address": "Erzsébet krt. 58.",
		"postalCode": "1066",
		"city": "Budapest",
		"country": "Magyarország",
		"categories": [
			"Tram Station"
		]
	},
	{
		"date": "2012-05-21T19:08:06.000Z",
		"name": "CBA",
		"id": "4d32b3c672a8b1f7661ea1d0",
		"lat": 47.503224861155424,
		"lng": 19.065563501794404,
		"address": "Erzsébet krt. 58.",
		"postalCode": "1077",
		"city": "Budapest",
		"country": "Magyarország",
		"categories": [
			"Grocery Store"
		]
	},
	{
		"date": "2012-05-21T19:19:07.000Z",
		"name": "Harminckettesek tere (4, 6)",
		"id": "4c41fa8ce26920a1614f5fe7",
		"lat": 47.491346061078474,
		"lng": 19.07721140890305,
		"address": "József krt.",
		"postalCode": "1085",
		"city": "Budapest",
		"country": "Magyarország",
		"categories": [
			"Tram Station"
		]
	},
	{
		"date": "2012-05-21T19:19:27.000Z",
		"name": "Harminckettesek tere",
		"id": "4bf6a540bfeac92810af9436",
		"lat": 47.48950129908545,
		"lng": 19.071492778445887,
		"address": "Harminckettesek tere",
		"postalCode": "1083",
		"city": "Budapest",
		"country": "Magyarország",
		"categories": [
			"Plaza"
		]
	},
	{
		"date": "2012-05-22T04:58:45.000Z",
		"name": "Losonci tér",
		"id": "4d9d5189a695721e11340f0d",
		"lat": 47.48958911031985,
		"lng": 19.08032029942558,
		"address": "Losonci tér",
		"postalCode": "1083",
		"city": "Budapest",
		"country": "Magyarország",
		"categories": [
			"Plaza",
			"Park"
		]
	},
	{
		"date": "2012-05-22T06:40:09.000Z",
		"name": "ShopMark",
		"id": "4ba6588ef964a520c34839e3",
		"lat": 47.46387262490235,
		"lng": 19.128141403198242,
		"address": "Üllői út 201.",
		"postalCode": "1191",
		"city": "Budapest",
		"country": "Magyarország",
		"categories": [
			"Shopping Mall"
		]
	},
	{
		"date": "2012-05-22T06:40:47.000Z",
		"name": "INTERSPAR",
		"id": "4cf3fbaa2eb25941119abca1",
		"lat": 47.46319073979057,
		"lng": 19.129101624599613,
		"address": "Europark, földszint",
		"postalCode": "1191",
		"city": "Budapest",
		"country": "Magyarország",
		"categories": [
			"Supermarket"
		]
	},
	{
		"date": "2012-05-22T07:59:54.000Z",
		"name": "BME Hallgatói Számítógép Központ",
		"id": "4ea694f07ee5bebc94b27a20",
		"lat": 47.4787908396799,
		"lng": 19.05989973266769,
		"address": "BME R épület III.-IV. emelet",
		"postalCode": "1111",
		"city": "Budapest XI. kerület",
		"country": "Magyarország",
		"categories": [
			"Student Center"
		]
	},
	{
		"date": "2012-05-22T08:00:31.000Z",
		"name": "BME R épület",
		"id": "4ba8e306f964a5202cf739e3",
		"lat": 47.47900888118355,
		"lng": 19.058887218991554,
		"address": "Műegyetem rakpart 7-9.",
		"postalCode": "1111",
		"city": "Budapest",
		"country": "Magyarország",
		"categories": [
			"College Academic Building",
			"College Administrative Building",
			"Student Center"
		]
	},
	{
		"date": "2012-05-22T10:13:23.000Z",
		"name": "Tomori Pál Főiskola",
		"id": "4dcd4976183899ddfab48695",
		"lat": 47.41125819531315,
		"lng": 19.01293983461239,
		"address": "Művelődés utca 21-27",
		"postalCode": "1223",
		"city": "Budapest",
		"country": "Magyarország",
		"categories": [
			"General College & University"
		]
	},
	{
		"date": "2012-05-22T10:13:59.000Z",
		"name": "Andor's Home",
		"id": "4f6b1ddce4b01cb02e173517",
		"lat": 47.40937552246047,
		"lng": 19.011491535783943,
		"country": "Magyarország",
		"categories": [
			"Home (private)"
		]
	},
	{
		"date": "2012-05-23T11:59:13.000Z",
		"name": "BME Hallgatói Számítógép Központ",
		"id": "4ea694f07ee5bebc94b27a20",
		"lat": 47.4787908396799,
		"lng": 19.05989973266769,
		"address": "BME R épület III.-IV. emelet",
		"postalCode": "1111",
		"city": "Budapest XI. kerület",
		"country": "Magyarország",
		"categories": [
			"Student Center"
		]
	},
	{
		"date": "2012-05-23T11:59:32.000Z",
		"name": "BME R épület",
		"id": "4ba8e306f964a5202cf739e3",
		"lat": 47.47900888118355,
		"lng": 19.058887218991554,
		"address": "Műegyetem rakpart 7-9.",
		"postalCode": "1111",
		"city": "Budapest",
		"country": "Magyarország",
		"categories": [
			"College Academic Building",
			"College Administrative Building",
			"Student Center"
		]
	},
	{
		"date": "2012-05-23T15:00:17.000Z",
		"name": "ShopMark",
		"id": "4ba6588ef964a520c34839e3",
		"lat": 47.46387262490235,
		"lng": 19.128141403198242,
		"address": "Üllői út 201.",
		"postalCode": "1191",
		"city": "Budapest",
		"country": "Magyarország",
		"categories": [
			"Shopping Mall"
		]
	},
	{
		"date": "2012-05-23T15:23:35.000Z",
		"name": "INTERSPAR",
		"id": "4cf3fbaa2eb25941119abca1",
		"lat": 47.46319073979057,
		"lng": 19.129101624599613,
		"address": "Europark, földszint",
		"postalCode": "1191",
		"city": "Budapest",
		"country": "Magyarország",
		"categories": [
			"Supermarket"
		]
	},
	{
		"date": "2012-05-23T16:54:28.000Z",
		"name": "SPAR",
		"id": "4be83036c5220f476867a9ca",
		"lat": 47.486964687669555,
		"lng": 19.080367093254154,
		"address": "Szigony utca 12.",
		"postalCode": "1083",
		"city": "Budapest VIII.",
		"country": "Magyarország",
		"categories": [
			"Supermarket",
			"Grocery Store"
		]
	},
	{
		"date": "2012-05-24T08:50:21.000Z",
		"name": "Tomori Pál Főiskola",
		"id": "4dcd4976183899ddfab48695",
		"lat": 47.41125819531315,
		"lng": 19.01293983461239,
		"address": "Művelődés utca 21-27",
		"postalCode": "1223",
		"city": "Budapest",
		"country": "Magyarország",
		"categories": [
			"General College & University"
		]
	},
	{
		"date": "2012-05-24T08:55:22.000Z",
		"name": "Andor's Home",
		"id": "4f6b1ddce4b01cb02e173517",
		"lat": 47.40937552246047,
		"lng": 19.011491535783943,
		"country": "Magyarország",
		"categories": [
			"Home (private)"
		]
	},
	{
		"date": "2012-05-24T10:34:19.000Z",
		"name": "Campona Bevásárló és Szórakoztatóközpont",
		"id": "4bcd9a91937ca593fef0ac92",
		"lat": 47.40696527095432,
		"lng": 19.017238074599398,
		"address": "Nagytétényi út 37-43.",
		"postalCode": "1222",
		"city": "Budapest",
		"country": "Magyarország",
		"categories": [
			"Shopping Mall"
		]
	},
	{
		"date": "2012-05-24T10:34:43.000Z",
		"name": "TESCO Hipermarket",
		"id": "4ca4ed7797c8a1cdc05c62a5",
		"lat": 47.40764243835762,
		"lng": 19.019182931058598,
		"address": "Campona földszint",
		"postalCode": "1222",
		"city": "Budapest",
		"country": "Magyarország",
		"categories": [
			"Supermarket",
			"Grocery Store"
		]
	},
	{
		"date": "2012-05-24T11:32:40.000Z",
		"name": "BME Hallgatói Számítógép Központ",
		"id": "4ea694f07ee5bebc94b27a20",
		"lat": 47.4787908396799,
		"lng": 19.05989973266769,
		"address": "BME R épület III.-IV. emelet",
		"postalCode": "1111",
		"city": "Budapest XI. kerület",
		"country": "Magyarország",
		"categories": [
			"Student Center"
		]
	},
	{
		"date": "2012-05-24T11:32:55.000Z",
		"name": "BME R épület",
		"id": "4ba8e306f964a5202cf739e3",
		"lat": 47.47900888118355,
		"lng": 19.058887218991554,
		"address": "Műegyetem rakpart 7-9.",
		"postalCode": "1111",
		"city": "Budapest",
		"country": "Magyarország",
		"categories": [
			"College Academic Building",
			"College Administrative Building",
			"Student Center"
		]
	},
	{
		"date": "2012-05-24T12:22:13.000Z",
		"name": "Harminckettesek tere (4, 6)",
		"id": "4c41fa8ce26920a1614f5fe7",
		"lat": 47.491346061078474,
		"lng": 19.07721140890305,
		"address": "József krt.",
		"postalCode": "1085",
		"city": "Budapest",
		"country": "Magyarország",
		"categories": [
			"Tram Station"
		]
	},
	{
		"date": "2012-05-24T12:22:26.000Z",
		"name": "Harminckettesek tere",
		"id": "4bf6a540bfeac92810af9436",
		"lat": 47.48950129908545,
		"lng": 19.071492778445887,
		"address": "Harminckettesek tere",
		"postalCode": "1083",
		"city": "Budapest",
		"country": "Magyarország",
		"categories": [
			"Plaza"
		]
	},
	{
		"date": "2012-05-24T12:52:08.000Z",
		"name": "Losonci tér",
		"id": "4d9d5189a695721e11340f0d",
		"lat": 47.48958911031985,
		"lng": 19.08032029942558,
		"address": "Losonci tér",
		"postalCode": "1083",
		"city": "Budapest",
		"country": "Magyarország",
		"categories": [
			"Plaza",
			"Park"
		]
	},
	{
		"date": "2012-05-24T12:54:41.000Z",
		"name": "SPAR",
		"id": "4be83036c5220f476867a9ca",
		"lat": 47.486964687669555,
		"lng": 19.080367093254154,
		"address": "Szigony utca 12.",
		"postalCode": "1083",
		"city": "Budapest VIII.",
		"country": "Magyarország",
		"categories": [
			"Supermarket",
			"Grocery Store"
		]
	},
	{
		"date": "2012-05-24T14:59:37.000Z",
		"name": "ShopMark",
		"id": "4ba6588ef964a520c34839e3",
		"lat": 47.46387262490235,
		"lng": 19.128141403198242,
		"address": "Üllői út 201.",
		"postalCode": "1191",
		"city": "Budapest",
		"country": "Magyarország",
		"categories": [
			"Shopping Mall"
		]
	},
	{
		"date": "2012-05-24T14:59:53.000Z",
		"name": "INTERSPAR",
		"id": "4cf3fbaa2eb25941119abca1",
		"lat": 47.46319073979057,
		"lng": 19.129101624599613,
		"address": "Europark, földszint",
		"postalCode": "1191",
		"city": "Budapest",
		"country": "Magyarország",
		"categories": [
			"Supermarket"
		]
	},
	{
		"date": "2012-05-24T15:34:03.000Z",
		"name": "Allee Bevásárlóközpont",
		"id": "4ba35913f964a520883638e3",
		"lat": 47.47540787650971,
		"lng": 19.048983750822984,
		"address": "Október huszonharmadika u. 8-10.",
		"postalCode": "1117",
		"city": "Budapest",
		"country": "Magyarország",
		"categories": [
			"Shopping Mall"
		]
	},
	{
		"date": "2012-05-24T16:59:40.000Z",
		"name": "Csendes Vintage Bar & Cafe",
		"id": "4b69bf00f964a52085b12be3",
		"lat": 47.492877426159005,
		"lng": 19.060457595117917,
		"address": "Ferenczy István u. 5.",
		"postalCode": "1053",
		"city": "Budapest",
		"country": "Magyarország",
		"categories": [
			"Bar",
			"Pub",
			"Café"
		]
	},
	{
		"date": "2012-05-24T21:35:57.000Z",
		"name": "Tomori Pál Főiskola",
		"id": "4dcd4976183899ddfab48695",
		"lat": 47.41125819531315,
		"lng": 19.01293983461239,
		"address": "Művelődés utca 21-27",
		"postalCode": "1223",
		"city": "Budapest",
		"country": "Magyarország",
		"categories": [
			"General College & University"
		]
	},
	{
		"date": "2012-05-24T21:36:10.000Z",
		"name": "Andor's Home",
		"id": "4f6b1ddce4b01cb02e173517",
		"lat": 47.40937552246047,
		"lng": 19.011491535783943,
		"country": "Magyarország",
		"categories": [
			"Home (private)"
		]
	},
	{
		"date": "2012-05-25T10:41:42.000Z",
		"name": "Tomori Pál Főiskola",
		"id": "4dcd4976183899ddfab48695",
		"lat": 47.41125819531315,
		"lng": 19.01293983461239,
		"address": "Művelődés utca 21-27",
		"postalCode": "1223",
		"city": "Budapest",
		"country": "Magyarország",
		"categories": [
			"General College & University"
		]
	},
	{
		"date": "2012-05-25T10:52:04.000Z",
		"name": "Andor's Home",
		"id": "4f6b1ddce4b01cb02e173517",
		"lat": 47.40937552246047,
		"lng": 19.011491535783943,
		"country": "Magyarország",
		"categories": [
			"Home (private)"
		]
	},
	{
		"date": "2012-05-25T12:37:25.000Z",
		"name": "Harminckettesek tere (4, 6)",
		"id": "4c41fa8ce26920a1614f5fe7",
		"lat": 47.491346061078474,
		"lng": 19.07721140890305,
		"address": "József krt.",
		"postalCode": "1085",
		"city": "Budapest",
		"country": "Magyarország",
		"categories": [
			"Tram Station"
		]
	},
	{
		"date": "2012-05-25T12:37:45.000Z",
		"name": "Harminckettesek tere",
		"id": "4bf6a540bfeac92810af9436",
		"lat": 47.48950129908545,
		"lng": 19.071492778445887,
		"address": "Harminckettesek tere",
		"postalCode": "1083",
		"city": "Budapest",
		"country": "Magyarország",
		"categories": [
			"Plaza"
		]
	},
	{
		"date": "2012-05-25T13:44:46.000Z",
		"name": "Losonci tér",
		"id": "4d9d5189a695721e11340f0d",
		"lat": 47.48958911031985,
		"lng": 19.08032029942558,
		"address": "Losonci tér",
		"postalCode": "1083",
		"city": "Budapest",
		"country": "Magyarország",
		"categories": [
			"Plaza",
			"Park"
		]
	},
	{
		"date": "2012-05-25T16:10:28.000Z",
		"name": "OMV Bábolna-Dél",
		"id": "4ddb1ca5d16419ce67324b73",
		"lat": 47.68048269045468,
		"lng": 17.976010163956694,
		"address": "M1 93 km",
		"postalCode": "2943",
		"city": "Bábolna",
		"country": "Magyarország",
		"categories": [
			"Gas Station",
			"Rest Area"
		]
	},
	{
		"date": "2012-05-25T16:10:59.000Z",
		"name": "OMV Bábolna-Dél",
		"id": "4ddb1ca5d16419ce67324b73",
		"lat": 47.68048269045468,
		"lng": 17.976010163956694,
		"address": "M1 93 km",
		"postalCode": "2943",
		"city": "Bábolna",
		"country": "Magyarország",
		"categories": [
			"Gas Station",
			"Rest Area"
		]
	},
	{
		"date": "2012-05-25T18:18:13.000Z",
		"name": "Villa Polgar",
		"id": "4caaebc0965c9c74f70dcbfa",
		"lat": 47.671899642379415,
		"lng": 16.611052697881373,
		"city": "Sopron",
		"country": "Magyarország",
		"categories": [
			"Home (private)"
		]
	},
	{
		"date": "2012-05-26T20:24:49.000Z",
		"name": "Green Café",
		"id": "4d12739bd0fda09322fdab57",
		"lat": 47.68168595564943,
		"lng": 16.577098075778334,
		"address": "Ady Endre u. 5.",
		"postalCode": "9400",
		"city": "Sopron",
		"country": "Magyarország",
		"categories": [
			"Bar",
			"Café"
		]
	},
	{
		"date": "2012-05-27T08:04:49.000Z",
		"name": "Villa Polgar",
		"id": "4caaebc0965c9c74f70dcbfa",
		"lat": 47.671899642379415,
		"lng": 16.611052697881373,
		"city": "Sopron",
		"country": "Magyarország",
		"categories": [
			"Home (private)"
		]
	},
	{
		"date": "2012-05-27T11:07:04.000Z",
		"name": "Grandma's Place",
		"id": "4f5c86b7e4b086681c0fa476",
		"lat": 47.685079492343135,
		"lng": 16.59042726764715,
		"country": "Magyarország",
		"categories": [
			"Home (private)"
		]
	},
	{
		"date": "2012-05-27T12:42:47.000Z",
		"name": "Várkerület",
		"id": "4d3d55cb44f5a0933e04d4bb",
		"lat": 47.6850115484087,
		"lng": 16.592843179592137,
		"address": "Várkerület",
		"postalCode": "9400",
		"city": "Sopron",
		"country": "Magyarország",
		"categories": [
			"Road",
			"Pedestrian Plaza"
		]
	},
	{
		"date": "2012-05-27T19:41:14.000Z",
		"name": "Agip Töltőállomás",
		"id": "4fc28357e4b012f5ffaf5827",
		"lat": 47.67324204696162,
		"lng": 16.60602197789451,
		"address": "Győri út 42.",
		"postalCode": "9400",
		"city": "Sopron",
		"country": "Magyarország",
		"categories": [
			"Gas Station"
		]
	},
	{
		"date": "2012-05-27T21:26:52.000Z",
		"name": "Villa Polgar",
		"id": "4caaebc0965c9c74f70dcbfa",
		"lat": 47.671899642379415,
		"lng": 16.611052697881373,
		"city": "Sopron",
		"country": "Magyarország",
		"categories": [
			"Home (private)"
		]
	},
	{
		"date": "2012-05-29T00:07:16.000Z",
		"name": "Losonci tér",
		"id": "4d9d5189a695721e11340f0d",
		"lat": 47.48958911031985,
		"lng": 19.08032029942558,
		"address": "Losonci tér",
		"postalCode": "1083",
		"city": "Budapest",
		"country": "Magyarország",
		"categories": [
			"Plaza",
			"Park"
		]
	},
	{
		"date": "2012-05-29T07:02:03.000Z",
		"name": "ShopMark",
		"id": "4ba6588ef964a520c34839e3",
		"lat": 47.46387262490235,
		"lng": 19.128141403198242,
		"address": "Üllői út 201.",
		"postalCode": "1191",
		"city": "Budapest",
		"country": "Magyarország",
		"categories": [
			"Shopping Mall"
		]
	},
	{
		"date": "2012-05-29T10:42:58.000Z",
		"name": "Szelet!",
		"id": "4f072f30e4b0e624d5c60966",
		"lat": 47.5122844455029,
		"lng": 19.050632643827758,
		"address": "Szent István körút 12.",
		"postalCode": "1137",
		"city": "Budapest",
		"country": "Magyarország",
		"categories": [
			"Pizza Place"
		]
	},
	{
		"date": "2012-05-29T14:40:55.000Z",
		"name": "BME Hallgatói Számítógép Központ",
		"id": "4ea694f07ee5bebc94b27a20",
		"lat": 47.4787908396799,
		"lng": 19.05989973266769,
		"address": "BME R épület III.-IV. emelet",
		"postalCode": "1111",
		"city": "Budapest XI. kerület",
		"country": "Magyarország",
		"categories": [
			"Student Center"
		]
	},
	{
		"date": "2012-05-29T14:41:07.000Z",
		"name": "BME R épület",
		"id": "4ba8e306f964a5202cf739e3",
		"lat": 47.47900888118355,
		"lng": 19.058887218991554,
		"address": "Műegyetem rakpart 7-9.",
		"postalCode": "1111",
		"city": "Budapest",
		"country": "Magyarország",
		"categories": [
			"College Academic Building",
			"College Administrative Building",
			"Student Center"
		]
	},
	{
		"date": "2012-05-29T18:49:27.000Z",
		"name": "Tomori Pál Főiskola",
		"id": "4dcd4976183899ddfab48695",
		"lat": 47.41125819531315,
		"lng": 19.01293983461239,
		"address": "Művelődés utca 21-27",
		"postalCode": "1223",
		"city": "Budapest",
		"country": "Magyarország",
		"categories": [
			"General College & University"
		]
	},
	{
		"date": "2012-05-29T18:49:38.000Z",
		"name": "Andor's Home",
		"id": "4f6b1ddce4b01cb02e173517",
		"lat": 47.40937552246047,
		"lng": 19.011491535783943,
		"country": "Magyarország",
		"categories": [
			"Home (private)"
		]
	},
	{
		"date": "2012-05-30T20:53:30.000Z",
		"name": "Harminckettesek tere (4, 6)",
		"id": "4c41fa8ce26920a1614f5fe7",
		"lat": 47.491346061078474,
		"lng": 19.07721140890305,
		"address": "József krt.",
		"postalCode": "1085",
		"city": "Budapest",
		"country": "Magyarország",
		"categories": [
			"Tram Station"
		]
	},
	{
		"date": "2012-05-30T23:23:07.000Z",
		"name": "Tomori Pál Főiskola",
		"id": "4dcd4976183899ddfab48695",
		"lat": 47.41125819531315,
		"lng": 19.01293983461239,
		"address": "Művelődés utca 21-27",
		"postalCode": "1223",
		"city": "Budapest",
		"country": "Magyarország",
		"categories": [
			"General College & University"
		]
	},
	{
		"date": "2012-05-30T23:24:33.000Z",
		"name": "Andor's Home",
		"id": "4f6b1ddce4b01cb02e173517",
		"lat": 47.40937552246047,
		"lng": 19.011491535783943,
		"country": "Magyarország",
		"categories": [
			"Home (private)"
		]
	},
	{
		"date": "2012-05-31T05:57:02.000Z",
		"name": "BME E épület",
		"id": "4ba8e6fbf964a5208ef839e3",
		"lat": 47.477616135843945,
		"lng": 19.057630443325607,
		"address": "Egry József u. 1.",
		"postalCode": "1111",
		"city": "Budapest",
		"country": "Magyarország",
		"categories": [
			"College Academic Building"
		]
	},
	{
		"date": "2012-05-31T05:59:54.000Z",
		"name": "BME E épület",
		"id": "4ba8e6fbf964a5208ef839e3",
		"lat": 47.477616135843945,
		"lng": 19.057630443325607,
		"address": "Egry József u. 1.",
		"postalCode": "1111",
		"city": "Budapest",
		"country": "Magyarország",
		"categories": [
			"College Academic Building"
		]
	},
	{
		"date": "2012-05-31T09:03:06.000Z",
		"name": "BME R épület",
		"id": "4ba8e306f964a5202cf739e3",
		"lat": 47.47900888118355,
		"lng": 19.058887218991554,
		"address": "Műegyetem rakpart 7-9.",
		"postalCode": "1111",
		"city": "Budapest",
		"country": "Magyarország",
		"categories": [
			"College Academic Building",
			"College Administrative Building",
			"Student Center"
		]
	},
	{
		"date": "2012-05-31T09:19:53.000Z",
		"name": "BME Hallgatói Számítógép Központ",
		"id": "4ea694f07ee5bebc94b27a20",
		"lat": 47.4787908396799,
		"lng": 19.05989973266769,
		"address": "BME R épület III.-IV. emelet",
		"postalCode": "1111",
		"city": "Budapest XI. kerület",
		"country": "Magyarország",
		"categories": [
			"Student Center"
		]
	},
	{
		"date": "2012-05-31T15:01:15.000Z",
		"name": "Losonci tér",
		"id": "4d9d5189a695721e11340f0d",
		"lat": 47.48958911031985,
		"lng": 19.08032029942558,
		"address": "Losonci tér",
		"postalCode": "1083",
		"city": "Budapest",
		"country": "Magyarország",
		"categories": [
			"Plaza",
			"Park"
		]
	},
	{
		"date": "2012-05-31T15:25:56.000Z",
		"name": "Corvin Plaza",
		"id": "4cc701eabe40a35d1d6a8d4c",
		"lat": 47.486046352980296,
		"lng": 19.07288581182118,
		"address": "Futó u. 37-45.",
		"postalCode": "1083",
		"city": "Budapest",
		"country": "Magyarország",
		"categories": [
			"Shopping Mall"
		]
	},
	{
		"date": "2012-05-31T16:40:22.000Z",
		"name": "Campona Bevásárló és Szórakoztatóközpont",
		"id": "4bcd9a91937ca593fef0ac92",
		"lat": 47.40696527095432,
		"lng": 19.017238074599398,
		"address": "Nagytétényi út 37-43.",
		"postalCode": "1222",
		"city": "Budapest",
		"country": "Magyarország",
		"categories": [
			"Shopping Mall"
		]
	},
	{
		"date": "2012-05-31T16:41:33.000Z",
		"name": "TESCO Hipermarket",
		"id": "4ca4ed7797c8a1cdc05c62a5",
		"lat": 47.40764243835762,
		"lng": 19.019182931058598,
		"address": "Campona földszint",
		"postalCode": "1222",
		"city": "Budapest",
		"country": "Magyarország",
		"categories": [
			"Supermarket",
			"Grocery Store"
		]
	},
	{
		"date": "2012-05-31T17:09:21.000Z",
		"name": "Tomori Pál Főiskola",
		"id": "4dcd4976183899ddfab48695",
		"lat": 47.41125819531315,
		"lng": 19.01293983461239,
		"address": "Művelődés utca 21-27",
		"postalCode": "1223",
		"city": "Budapest",
		"country": "Magyarország",
		"categories": [
			"General College & University"
		]
	},
	{
		"date": "2012-05-31T17:10:15.000Z",
		"name": "Andor's Home",
		"id": "4f6b1ddce4b01cb02e173517",
		"lat": 47.40937552246047,
		"lng": 19.011491535783943,
		"country": "Magyarország",
		"categories": [
			"Home (private)"
		]
	}
]