[
	{
		"date": "2012-02-05T13:17:33.000Z",
		"name": "Villa Polgar",
		"id": "4caaebc0965c9c74f70dcbfa",
		"lat": 47.671899642379415,
		"lng": 16.611052697881373,
		"city": "Sopron",
		"country": "Magyarország",
		"categories": [
			"Home (private)"
		]
	},
	{
		"date": "2012-02-06T07:01:36.000Z",
		"name": "BME I épület",
		"id": "4bcd89a5fb84c9b6311c223e",
		"lat": 47.472654177471675,
		"lng": 19.059821807961907,
		"address": "Magyar tudósok körútja 2.",
		"postalCode": "1117",
		"city": "Budapest",
		"country": "Magyarország",
		"categories": [
			"College Technology Building"
		]
	},
	{
		"date": "2012-02-06T09:16:57.000Z",
		"name": "BME R épület",
		"id": "4ba8e306f964a5202cf739e3",
		"lat": 47.47900888118355,
		"lng": 19.058887218991554,
		"address": "Műegyetem rakpart 7-9.",
		"postalCode": "1111",
		"city": "Budapest",
		"country": "Magyarország",
		"categories": [
			"College Academic Building",
			"College Administrative Building",
			"Student Center"
		]
	},
	{
		"date": "2012-02-06T11:01:17.000Z",
		"name": "BME Q épület",
		"id": "4c85f24fd4e23704bdf58688",
		"lat": 47.473393661934686,
		"lng": 19.059766255018825,
		"address": "Magyar tudósok körútja 2.",
		"postalCode": "1117",
		"city": "Budapest",
		"country": "Magyarország",
		"categories": [
			"College Academic Building"
		]
	},
	{
		"date": "2012-02-06T12:53:31.000Z",
		"name": "BME R épület",
		"id": "4ba8e306f964a5202cf739e3",
		"lat": 47.47900888118355,
		"lng": 19.058887218991554,
		"address": "Műegyetem rakpart 7-9.",
		"postalCode": "1111",
		"city": "Budapest",
		"country": "Magyarország",
		"categories": [
			"College Academic Building",
			"College Administrative Building",
			"Student Center"
		]
	},
	{
		"date": "2012-02-06T15:25:33.000Z",
		"name": "BME E épület",
		"id": "4ba8e6fbf964a5208ef839e3",
		"lat": 47.477616135843945,
		"lng": 19.057630443325607,
		"address": "Egry József u. 1.",
		"postalCode": "1111",
		"city": "Budapest",
		"country": "Magyarország",
		"categories": [
			"College Academic Building"
		]
	},
	{
		"date": "2012-02-06T19:18:52.000Z",
		"name": "Tomori Pál Főiskola",
		"id": "4dcd4976183899ddfab48695",
		"lat": 47.41125819531315,
		"lng": 19.01293983461239,
		"address": "Művelődés utca 21-27",
		"postalCode": "1223",
		"city": "Budapest",
		"country": "Magyarország",
		"categories": [
			"General College & University"
		]
	},
	{
		"date": "2012-02-07T09:09:05.000Z",
		"name": "BME I épület",
		"id": "4bcd89a5fb84c9b6311c223e",
		"lat": 47.472654177471675,
		"lng": 19.059821807961907,
		"address": "Magyar tudósok körútja 2.",
		"postalCode": "1117",
		"city": "Budapest",
		"country": "Magyarország",
		"categories": [
			"College Technology Building"
		]
	},
	{
		"date": "2012-02-08T07:52:58.000Z",
		"name": "BME I épület",
		"id": "4bcd89a5fb84c9b6311c223e",
		"lat": 47.472654177471675,
		"lng": 19.059821807961907,
		"address": "Magyar tudósok körútja 2.",
		"postalCode": "1117",
		"city": "Budapest",
		"country": "Magyarország",
		"categories": [
			"College Technology Building"
		]
	},
	{
		"date": "2012-02-08T10:00:06.000Z",
		"name": "IKEA",
		"id": "4baf84eff964a520a3063ce3",
		"lat": 47.505179791600206,
		"lng": 19.137999590978485,
		"address": "Örs vezér tere 22.",
		"postalCode": "1148",
		"city": "Budapest",
		"country": "Magyarország",
		"categories": [
			"Furniture / Home Store"
		]
	},
	{
		"date": "2012-02-08T10:00:36.000Z",
		"name": "IKEA HotDog",
		"id": "4ec94fcef79041351ee62867",
		"lat": 47.50540165013158,
		"lng": 19.138637342278813,
		"address": "IKEA földszint",
		"postalCode": "1148",
		"city": "Budapest",
		"country": "Magyarország",
		"categories": [
			"Hot Dog Joint"
		]
	},
	{
		"date": "2012-02-08T10:00:49.000Z",
		"name": "IKEA Étterem",
		"id": "4ce91edde888f04db950466b",
		"lat": 47.50525811287078,
		"lng": 19.13843615712221,
		"address": "Örs vezér tere 22.",
		"postalCode": "1148",
		"city": "Budapest",
		"country": "Magyarország",
		"categories": [
			"Scandinavian Restaurant"
		]
	},
	{
		"date": "2012-02-08T10:01:07.000Z",
		"name": "IKEA Fánkbolt",
		"id": "4f09ed2de4b0e624d8a45269",
		"lat": 47.50523910057665,
		"lng": 19.138222157755195,
		"address": "IKEA földszint",
		"city": "Budapest",
		"country": "Magyarország",
		"categories": [
			"Donut Shop",
			"Candy Store"
		]
	},
	{
		"date": "2012-02-08T11:03:46.000Z",
		"name": "BME I épület",
		"id": "4bcd89a5fb84c9b6311c223e",
		"lat": 47.472654177471675,
		"lng": 19.059821807961907,
		"address": "Magyar tudósok körútja 2.",
		"postalCode": "1117",
		"city": "Budapest",
		"country": "Magyarország",
		"categories": [
			"College Technology Building"
		]
	},
	{
		"date": "2012-02-08T19:27:27.000Z",
		"name": "Tomori Pál Főiskola",
		"id": "4dcd4976183899ddfab48695",
		"lat": 47.41125819531315,
		"lng": 19.01293983461239,
		"address": "Művelődés utca 21-27",
		"postalCode": "1223",
		"city": "Budapest",
		"country": "Magyarország",
		"categories": [
			"General College & University"
		]
	},
	{
		"date": "2012-02-09T07:16:17.000Z",
		"name": "BME I épület",
		"id": "4bcd89a5fb84c9b6311c223e",
		"lat": 47.472654177471675,
		"lng": 19.059821807961907,
		"address": "Magyar tudósok körútja 2.",
		"postalCode": "1117",
		"city": "Budapest",
		"country": "Magyarország",
		"categories": [
			"College Technology Building"
		]
	},
	{
		"date": "2012-02-09T08:26:51.000Z",
		"name": "BME R épület",
		"id": "4ba8e306f964a5202cf739e3",
		"lat": 47.47900888118355,
		"lng": 19.058887218991554,
		"address": "Műegyetem rakpart 7-9.",
		"postalCode": "1111",
		"city": "Budapest",
		"country": "Magyarország",
		"categories": [
			"College Academic Building",
			"College Administrative Building",
			"Student Center"
		]
	},
	{
		"date": "2012-02-09T11:08:10.000Z",
		"name": "BME F épület",
		"id": "4c19da436a21c9b68330cb97",
		"lat": 47.47997076094497,
		"lng": 19.05389783043149,
		"address": "Budafoki út 21-27.",
		"postalCode": "1111",
		"city": "Budapest",
		"country": "Magyarország",
		"categories": [
			"College Science Building"
		]
	},
	{
		"date": "2012-02-09T13:06:00.000Z",
		"name": "BME E épület",
		"id": "4ba8e6fbf964a5208ef839e3",
		"lat": 47.477616135843945,
		"lng": 19.057630443325607,
		"address": "Egry József u. 1.",
		"postalCode": "1111",
		"city": "Budapest",
		"country": "Magyarország",
		"categories": [
			"College Academic Building"
		]
	},
	{
		"date": "2012-02-09T15:10:17.000Z",
		"name": "BME I épület",
		"id": "4bcd89a5fb84c9b6311c223e",
		"lat": 47.472654177471675,
		"lng": 19.059821807961907,
		"address": "Magyar tudósok körútja 2.",
		"postalCode": "1117",
		"city": "Budapest",
		"country": "Magyarország",
		"categories": [
			"College Technology Building"
		]
	},
	{
		"date": "2012-02-09T22:26:51.000Z",
		"name": "Harminckettesek tere",
		"id": "4bf6a540bfeac92810af9436",
		"lat": 47.48950129908545,
		"lng": 19.071492778445887,
		"address": "Harminckettesek tere",
		"postalCode": "1083",
		"city": "Budapest",
		"country": "Magyarország",
		"categories": [
			"Plaza"
		]
	},
	{
		"date": "2012-02-09T22:27:23.000Z",
		"name": "Harminckettesek tere (4, 6)",
		"id": "4c41fa8ce26920a1614f5fe7",
		"lat": 47.491346061078474,
		"lng": 19.07721140890305,
		"address": "József krt.",
		"postalCode": "1085",
		"city": "Budapest",
		"country": "Magyarország",
		"categories": [
			"Tram Station"
		]
	},
	{
		"date": "2012-02-09T22:42:00.000Z",
		"name": "Móricz Zsigmond körtér",
		"id": "4bbdbe1a8ec3d13a2a5a1c28",
		"lat": 47.47730207013187,
		"lng": 19.04743043972232,
		"address": "Móricz Zsigmond körtér",
		"postalCode": "1114",
		"city": "Budapest",
		"country": "Magyarország",
		"categories": [
			"Plaza"
		]
	},
	{
		"date": "2012-02-09T22:42:15.000Z",
		"name": "Móricz Zsigmond körtér M (17, 41, 47, 47B, 48, 56, 56A, 61, 973)",
		"id": "4c89e8fba92fa093aab28cbf",
		"lat": 47.47730450559686,
		"lng": 19.04736248039663,
		"address": "Móricz Zsigmond körtér",
		"postalCode": "1114",
		"city": "Budapest",
		"country": "Magyarország",
		"categories": [
			"Tram Station",
			"Bus Stop"
		]
	},
	{
		"date": "2012-02-09T23:13:01.000Z",
		"name": "Tomori Pál Főiskola",
		"id": "4dcd4976183899ddfab48695",
		"lat": 47.41125819531315,
		"lng": 19.01293983461239,
		"address": "Művelődés utca 21-27",
		"postalCode": "1223",
		"city": "Budapest",
		"country": "Magyarország",
		"categories": [
			"General College & University"
		]
	},
	{
		"date": "2012-02-10T09:16:30.000Z",
		"name": "BME I épület",
		"id": "4bcd89a5fb84c9b6311c223e",
		"lat": 47.472654177471675,
		"lng": 19.059821807961907,
		"address": "Magyar tudósok körútja 2.",
		"postalCode": "1117",
		"city": "Budapest",
		"country": "Magyarország",
		"categories": [
			"College Technology Building"
		]
	},
	{
		"date": "2012-02-10T11:08:54.000Z",
		"name": "BME Q épület",
		"id": "4c85f24fd4e23704bdf58688",
		"lat": 47.473393661934686,
		"lng": 19.059766255018825,
		"address": "Magyar tudósok körútja 2.",
		"postalCode": "1117",
		"city": "Budapest",
		"country": "Magyarország",
		"categories": [
			"College Academic Building"
		]
	},
	{
		"date": "2012-02-10T21:50:11.000Z",
		"name": "Villa Polgar",
		"id": "4caaebc0965c9c74f70dcbfa",
		"lat": 47.671899642379415,
		"lng": 16.611052697881373,
		"city": "Sopron",
		"country": "Magyarország",
		"categories": [
			"Home (private)"
		]
	},
	{
		"date": "2012-02-11T19:47:16.000Z",
		"name": "Central Park Café",
		"id": "4ccef459c0378cfaa0ea9648",
		"lat": 47.68100131022882,
		"lng": 16.5857230942081,
		"address": "Deák tér",
		"postalCode": "9400",
		"city": "Sopron",
		"country": "Magyarország",
		"categories": [
			"Bar",
			"Café",
			"Lounge"
		]
	},
	{
		"date": "2012-02-11T21:14:26.000Z",
		"name": "Várkerület",
		"id": "4d3d55cb44f5a0933e04d4bb",
		"lat": 47.6850115484087,
		"lng": 16.592843179592137,
		"address": "Várkerület",
		"postalCode": "9400",
		"city": "Sopron",
		"country": "Magyarország",
		"categories": [
			"Road",
			"Pedestrian Plaza"
		]
	},
	{
		"date": "2012-02-12T14:15:17.000Z",
		"name": "Villa Polgar",
		"id": "4caaebc0965c9c74f70dcbfa",
		"lat": 47.671899642379415,
		"lng": 16.611052697881373,
		"city": "Sopron",
		"country": "Magyarország",
		"categories": [
			"Home (private)"
		]
	},
	{
		"date": "2012-02-13T16:44:53.000Z",
		"name": "Tomori Pál Főiskola",
		"id": "4dcd4976183899ddfab48695",
		"lat": 47.41125819531315,
		"lng": 19.01293983461239,
		"address": "Művelődés utca 21-27",
		"postalCode": "1223",
		"city": "Budapest",
		"country": "Magyarország",
		"categories": [
			"General College & University"
		]
	},
	{
		"date": "2012-02-14T08:53:35.000Z",
		"name": "BME I épület",
		"id": "4bcd89a5fb84c9b6311c223e",
		"lat": 47.472654177471675,
		"lng": 19.059821807961907,
		"address": "Magyar tudósok körútja 2.",
		"postalCode": "1117",
		"city": "Budapest",
		"country": "Magyarország",
		"categories": [
			"College Technology Building"
		]
	},
	{
		"date": "2012-02-14T11:55:03.000Z",
		"name": "Tomori Pál Főiskola",
		"id": "4dcd4976183899ddfab48695",
		"lat": 47.41125819531315,
		"lng": 19.01293983461239,
		"address": "Művelődés utca 21-27",
		"postalCode": "1223",
		"city": "Budapest",
		"country": "Magyarország",
		"categories": [
			"General College & University"
		]
	},
	{
		"date": "2012-02-14T14:33:41.000Z",
		"name": "Allee Bevásárlóközpont",
		"id": "4ba35913f964a520883638e3",
		"lat": 47.47540787650971,
		"lng": 19.048983750822984,
		"address": "Október huszonharmadika u. 8-10.",
		"postalCode": "1117",
		"city": "Budapest",
		"country": "Magyarország",
		"categories": [
			"Shopping Mall"
		]
	},
	{
		"date": "2012-02-14T14:52:39.000Z",
		"name": "BME R épület",
		"id": "4ba8e306f964a5202cf739e3",
		"lat": 47.47900888118355,
		"lng": 19.058887218991554,
		"address": "Műegyetem rakpart 7-9.",
		"postalCode": "1111",
		"city": "Budapest",
		"country": "Magyarország",
		"categories": [
			"College Academic Building",
			"College Administrative Building",
			"Student Center"
		]
	},
	{
		"date": "2012-02-14T17:27:23.000Z",
		"name": "Madách Színház",
		"id": "4c6136a954ac0f47a84fb721",
		"lat": 47.501147276050496,
		"lng": 19.068190078030863,
		"address": "Erzsébet krt. 31",
		"postalCode": "1073",
		"city": "Budapest",
		"country": "Magyarország",
		"categories": [
			"Theater"
		]
	},
	{
		"date": "2012-02-14T21:36:11.000Z",
		"name": "Losonci tér",
		"id": "4d9d5189a695721e11340f0d",
		"lat": 47.48958911031985,
		"lng": 19.08032029942558,
		"address": "Losonci tér",
		"postalCode": "1083",
		"city": "Budapest",
		"country": "Magyarország",
		"categories": [
			"Plaza",
			"Park"
		]
	},
	{
		"date": "2012-02-15T12:19:11.000Z",
		"name": "BME I épület",
		"id": "4bcd89a5fb84c9b6311c223e",
		"lat": 47.472654177471675,
		"lng": 19.059821807961907,
		"address": "Magyar tudósok körútja 2.",
		"postalCode": "1117",
		"city": "Budapest",
		"country": "Magyarország",
		"categories": [
			"College Technology Building"
		]
	},
	{
		"date": "2012-02-15T13:23:40.000Z",
		"name": "Campona Bevásárló és Szórakoztatóközpont",
		"id": "4bcd9a91937ca593fef0ac92",
		"lat": 47.40696527095432,
		"lng": 19.017238074599398,
		"address": "Nagytétényi út 37-43.",
		"postalCode": "1222",
		"city": "Budapest",
		"country": "Magyarország",
		"categories": [
			"Shopping Mall"
		]
	},
	{
		"date": "2012-02-15T13:23:52.000Z",
		"name": "TESCO Hipermarket",
		"id": "4ca4ed7797c8a1cdc05c62a5",
		"lat": 47.40764243835762,
		"lng": 19.019182931058598,
		"address": "Campona földszint",
		"postalCode": "1222",
		"city": "Budapest",
		"country": "Magyarország",
		"categories": [
			"Supermarket",
			"Grocery Store"
		]
	},
	{
		"date": "2012-02-15T13:38:27.000Z",
		"name": "Tomori Pál Főiskola",
		"id": "4dcd4976183899ddfab48695",
		"lat": 47.41125819531315,
		"lng": 19.01293983461239,
		"address": "Művelődés utca 21-27",
		"postalCode": "1223",
		"city": "Budapest",
		"country": "Magyarország",
		"categories": [
			"General College & University"
		]
	},
	{
		"date": "2012-02-15T22:07:52.000Z",
		"name": "The Club Cafe, Bar & Kitchen",
		"id": "4bebab036295c9b6c5008808",
		"lat": 47.480340284801386,
		"lng": 19.07103481044889,
		"address": "Mester u. 28.",
		"postalCode": "1095",
		"city": "Budapest",
		"country": "Magyarország",
		"categories": [
			"Bar",
			"Cocktail Bar"
		]
	},
	{
		"date": "2012-02-15T22:44:46.000Z",
		"name": "Tomori Pál Főiskola",
		"id": "4dcd4976183899ddfab48695",
		"lat": 47.41125819531315,
		"lng": 19.01293983461239,
		"address": "Művelődés utca 21-27",
		"postalCode": "1223",
		"city": "Budapest",
		"country": "Magyarország",
		"categories": [
			"General College & University"
		]
	},
	{
		"date": "2012-02-16T06:40:04.000Z",
		"name": "BME I épület",
		"id": "4bcd89a5fb84c9b6311c223e",
		"lat": 47.472654177471675,
		"lng": 19.059821807961907,
		"address": "Magyar tudósok körútja 2.",
		"postalCode": "1117",
		"city": "Budapest",
		"country": "Magyarország",
		"categories": [
			"College Technology Building"
		]
	},
	{
		"date": "2012-02-16T08:39:22.000Z",
		"name": "Schönherz Zoltán Kollégium",
		"id": "4b70505ff964a520f8112de3",
		"lat": 47.47289320855564,
		"lng": 19.053094108014353,
		"address": "Irinyi József u. 42.",
		"postalCode": "1117",
		"city": "Budapest",
		"country": "Magyarország",
		"categories": [
			"College Residence Hall",
			"College Engineering Building",
			"Student Center"
		]
	},
	{
		"date": "2012-02-16T09:29:58.000Z",
		"name": "BME Q épület",
		"id": "4c85f24fd4e23704bdf58688",
		"lat": 47.473393661934686,
		"lng": 19.059766255018825,
		"address": "Magyar tudósok körútja 2.",
		"postalCode": "1117",
		"city": "Budapest",
		"country": "Magyarország",
		"categories": [
			"College Academic Building"
		]
	},
	{
		"date": "2012-02-16T09:55:56.000Z",
		"name": "Harminckettesek tere (4, 6)",
		"id": "4c41fa8ce26920a1614f5fe7",
		"lat": 47.491346061078474,
		"lng": 19.07721140890305,
		"address": "József krt.",
		"postalCode": "1085",
		"city": "Budapest",
		"country": "Magyarország",
		"categories": [
			"Tram Station"
		]
	},
	{
		"date": "2012-02-16T09:56:14.000Z",
		"name": "Harminckettesek tere",
		"id": "4bf6a540bfeac92810af9436",
		"lat": 47.48950129908545,
		"lng": 19.071492778445887,
		"address": "Harminckettesek tere",
		"postalCode": "1083",
		"city": "Budapest",
		"country": "Magyarország",
		"categories": [
			"Plaza"
		]
	},
	{
		"date": "2012-02-16T10:53:14.000Z",
		"name": "Fővám tér",
		"id": "4bd88e5d03979c74c120bdd2",
		"lat": 47.48687500329229,
		"lng": 19.05703067779541,
		"address": "Fővám tér",
		"postalCode": "1083",
		"city": "Budapest",
		"country": "Magyarország",
		"categories": [
			"Plaza"
		]
	},
	{
		"date": "2012-02-16T10:53:51.000Z",
		"name": "Fővám tér M (2)",
		"id": "4ed32a880cd62a61dd77ef47",
		"lat": 47.48669737533618,
		"lng": 19.05680537223816,
		"address": "Fővám tér",
		"postalCode": "1093",
		"city": "Budapest",
		"country": "Magyarország",
		"categories": [
			"Tram Station"
		]
	},
	{
		"date": "2012-02-16T10:54:12.000Z",
		"name": "Fővám tér (47, 48, 49)",
		"id": "4cdac65dd4ecb1f77cbc7548",
		"lat": 47.487142823775564,
		"lng": 19.057693574806972,
		"address": "Fővám tér",
		"postalCode": "1093",
		"city": "Budapest",
		"country": "Magyarország",
		"categories": [
			"Tram Station"
		]
	},
	{
		"date": "2012-02-16T11:07:38.000Z",
		"name": "BME F épület",
		"id": "4c19da436a21c9b68330cb97",
		"lat": 47.47997076094497,
		"lng": 19.05389783043149,
		"address": "Budafoki út 21-27.",
		"postalCode": "1111",
		"city": "Budapest",
		"country": "Magyarország",
		"categories": [
			"College Science Building"
		]
	},
	{
		"date": "2012-02-16T13:19:30.000Z",
		"name": "BME E épület",
		"id": "4ba8e6fbf964a5208ef839e3",
		"lat": 47.477616135843945,
		"lng": 19.057630443325607,
		"address": "Egry József u. 1.",
		"postalCode": "1111",
		"city": "Budapest",
		"country": "Magyarország",
		"categories": [
			"College Academic Building"
		]
	},
	{
		"date": "2012-02-16T15:02:21.000Z",
		"name": "BME I épület",
		"id": "4bcd89a5fb84c9b6311c223e",
		"lat": 47.472654177471675,
		"lng": 19.059821807961907,
		"address": "Magyar tudósok körútja 2.",
		"postalCode": "1117",
		"city": "Budapest",
		"country": "Magyarország",
		"categories": [
			"College Technology Building"
		]
	},
	{
		"date": "2012-02-16T18:18:23.000Z",
		"name": "Nagymenő",
		"id": "4e18ca3bd22d512258874509",
		"lat": 47.50432033119684,
		"lng": 19.059125109105302,
		"address": "Nagymező 34.",
		"postalCode": "1065",
		"city": "Budapest",
		"country": "Magyarország",
		"categories": [
			"Bar",
			"Pub"
		]
	},
	{
		"date": "2012-02-16T22:38:06.000Z",
		"name": "Zöld Teknős Barlangja Native Teaház",
		"id": "4c909e32d38dbfb7445407e2",
		"lat": 47.50687669498168,
		"lng": 19.05962639006168,
		"address": "Jókai u. 14.",
		"postalCode": "1066",
		"city": "Budapest",
		"country": "Magyarország",
		"categories": [
			"Tea Room"
		]
	},
	{
		"date": "2012-02-16T22:50:31.000Z",
		"name": "Móricz Zsigmond körtér",
		"id": "4bbdbe1a8ec3d13a2a5a1c28",
		"lat": 47.47730207013187,
		"lng": 19.04743043972232,
		"address": "Móricz Zsigmond körtér",
		"postalCode": "1114",
		"city": "Budapest",
		"country": "Magyarország",
		"categories": [
			"Plaza"
		]
	},
	{
		"date": "2012-02-16T22:50:42.000Z",
		"name": "McDonald's",
		"id": "4b7eab6ef964a5203df82fe3",
		"lat": 47.47797702105746,
		"lng": 19.047123496277717,
		"address": "Móricz Zsigmond körtér 3.",
		"postalCode": "1117",
		"city": "Budapest",
		"country": "Magyarország",
		"categories": [
			"Fast Food Restaurant"
		]
	},
	{
		"date": "2012-02-16T22:50:58.000Z",
		"name": "Móricz Zsigmond körtér M (17, 41, 47, 47B, 48, 56, 56A, 61, 973)",
		"id": "4c89e8fba92fa093aab28cbf",
		"lat": 47.47730450559686,
		"lng": 19.04736248039663,
		"address": "Móricz Zsigmond körtér",
		"postalCode": "1114",
		"city": "Budapest",
		"country": "Magyarország",
		"categories": [
			"Tram Station",
			"Bus Stop"
		]
	},
	{
		"date": "2012-02-16T23:46:59.000Z",
		"name": "Tomori Pál Főiskola",
		"id": "4dcd4976183899ddfab48695",
		"lat": 47.41125819531315,
		"lng": 19.01293983461239,
		"address": "Művelődés utca 21-27",
		"postalCode": "1223",
		"city": "Budapest",
		"country": "Magyarország",
		"categories": [
			"General College & University"
		]
	},
	{
		"date": "2012-02-17T16:02:26.000Z",
		"name": "Várkerület",
		"id": "4d3d55cb44f5a0933e04d4bb",
		"lat": 47.6850115484087,
		"lng": 16.592843179592137,
		"address": "Várkerület",
		"postalCode": "9400",
		"city": "Sopron",
		"country": "Magyarország",
		"categories": [
			"Road",
			"Pedestrian Plaza"
		]
	},
	{
		"date": "2012-02-17T16:03:00.000Z",
		"name": "Széchenyi tér",
		"id": "4dc924f11f6e936efe52ac05",
		"lat": 47.68289779925098,
		"lng": 16.589524032040796,
		"address": "Széchenyi tér",
		"postalCode": "9400",
		"city": "Sopron",
		"country": "Magyarország",
		"categories": [
			"Park",
			"Plaza"
		]
	},
	{
		"date": "2012-02-17T20:26:50.000Z",
		"name": "Villa Polgar",
		"id": "4caaebc0965c9c74f70dcbfa",
		"lat": 47.671899642379415,
		"lng": 16.611052697881373,
		"city": "Sopron",
		"country": "Magyarország",
		"categories": [
			"Home (private)"
		]
	},
	{
		"date": "2012-02-19T11:09:31.000Z",
		"name": "Várkerület",
		"id": "4d3d55cb44f5a0933e04d4bb",
		"lat": 47.6850115484087,
		"lng": 16.592843179592137,
		"address": "Várkerület",
		"postalCode": "9400",
		"city": "Sopron",
		"country": "Magyarország",
		"categories": [
			"Road",
			"Pedestrian Plaza"
		]
	},
	{
		"date": "2012-02-19T11:19:03.000Z",
		"name": "Széchenyi tér",
		"id": "4dc924f11f6e936efe52ac05",
		"lat": 47.68289779925098,
		"lng": 16.589524032040796,
		"address": "Széchenyi tér",
		"postalCode": "9400",
		"city": "Sopron",
		"country": "Magyarország",
		"categories": [
			"Park",
			"Plaza"
		]
	},
	{
		"date": "2012-02-19T13:03:29.000Z",
		"name": "Villa Polgar",
		"id": "4caaebc0965c9c74f70dcbfa",
		"lat": 47.671899642379415,
		"lng": 16.611052697881373,
		"city": "Sopron",
		"country": "Magyarország",
		"categories": [
			"Home (private)"
		]
	},
	{
		"date": "2012-02-20T11:27:24.000Z",
		"name": "BME Q épület",
		"id": "4c85f24fd4e23704bdf58688",
		"lat": 47.473393661934686,
		"lng": 19.059766255018825,
		"address": "Magyar tudósok körútja 2.",
		"postalCode": "1117",
		"city": "Budapest",
		"country": "Magyarország",
		"categories": [
			"College Academic Building"
		]
	},
	{
		"date": "2012-02-20T11:50:47.000Z",
		"name": "BME Q épület",
		"id": "4c85f24fd4e23704bdf58688",
		"lat": 47.473393661934686,
		"lng": 19.059766255018825,
		"address": "Magyar tudósok körútja 2.",
		"postalCode": "1117",
		"city": "Budapest",
		"country": "Magyarország",
		"categories": [
			"College Academic Building"
		]
	},
	{
		"date": "2012-02-20T11:52:03.000Z",
		"name": "Magyar tudósok körútja",
		"id": "4e86b5a04fc6432751d92f35",
		"lat": 47.4732285270181,
		"lng": 19.059047698974606,
		"address": "Magyar tudósok körútja",
		"postalCode": "1117",
		"city": "Budapest",
		"country": "Magyarország",
		"categories": [
			"Road"
		]
	},
	{
		"date": "2012-02-20T12:37:18.000Z",
		"name": "Petőfi híd, budai hídfő (4, 6)",
		"id": "4de109b322713271e2c261f3",
		"lat": 47.47676141638929,
		"lng": 19.058971521383068,
		"address": "Goldmann György tér",
		"postalCode": "1117",
		"city": "Budapest",
		"country": "Magyarország",
		"categories": [
			"Tram Station"
		]
	},
	{
		"date": "2012-02-20T12:51:30.000Z",
		"name": "BME I épület",
		"id": "4bcd89a5fb84c9b6311c223e",
		"lat": 47.472654177471675,
		"lng": 19.059821807961907,
		"address": "Magyar tudósok körútja 2.",
		"postalCode": "1117",
		"city": "Budapest",
		"country": "Magyarország",
		"categories": [
			"College Technology Building"
		]
	},
	{
		"date": "2012-02-20T14:25:14.000Z",
		"name": "Tomori Pál Főiskola",
		"id": "4dcd4976183899ddfab48695",
		"lat": 47.41125819531315,
		"lng": 19.01293983461239,
		"address": "Művelődés utca 21-27",
		"postalCode": "1223",
		"city": "Budapest",
		"country": "Magyarország",
		"categories": [
			"General College & University"
		]
	},
	{
		"date": "2012-02-20T19:02:08.000Z",
		"name": "Nyugati pályaudvar M (4, 6)",
		"id": "4bbf6921006dc9b6ae8bfc3f",
		"lat": 47.51014375432035,
		"lng": 19.056376540412806,
		"address": "Nyugati tér",
		"postalCode": "1055",
		"city": "Budapest",
		"country": "Magyarország",
		"categories": [
			"Tram Station"
		]
	},
	{
		"date": "2012-02-20T19:02:30.000Z",
		"name": "Costa Coffee",
		"id": "4bc873626501c9b674194029",
		"lat": 47.509412630412314,
		"lng": 19.057686433637123,
		"address": "Teréz krt. 55-57.",
		"postalCode": "1066",
		"city": "Budapest",
		"country": "Magyarország",
		"categories": [
			"Coffee Shop"
		]
	},
	{
		"date": "2012-02-21T10:13:18.000Z",
		"name": "Losonci tér",
		"id": "4d9d5189a695721e11340f0d",
		"lat": 47.48958911031985,
		"lng": 19.08032029942558,
		"address": "Losonci tér",
		"postalCode": "1083",
		"city": "Budapest",
		"country": "Magyarország",
		"categories": [
			"Plaza",
			"Park"
		]
	},
	{
		"date": "2012-02-21T15:02:46.000Z",
		"name": "Nyugati pályaudvar M (4, 6)",
		"id": "4bbf6921006dc9b6ae8bfc3f",
		"lat": 47.51014375432035,
		"lng": 19.056376540412806,
		"address": "Nyugati tér",
		"postalCode": "1055",
		"city": "Budapest",
		"country": "Magyarország",
		"categories": [
			"Tram Station"
		]
	},
	{
		"date": "2012-02-21T15:03:03.000Z",
		"name": "Samsung Forgóóra",
		"id": "4e9b31658b81c0254ea60b41",
		"lat": 47.50991916518201,
		"lng": 19.056473705467468,
		"address": "Nyugati tér",
		"city": "Budapest",
		"country": "Magyarország",
		"categories": [
			"Plaza"
		]
	},
	{
		"date": "2012-02-21T15:30:52.000Z",
		"name": "BME Q épület",
		"id": "4c85f24fd4e23704bdf58688",
		"lat": 47.473393661934686,
		"lng": 19.059766255018825,
		"address": "Magyar tudósok körútja 2.",
		"postalCode": "1117",
		"city": "Budapest",
		"country": "Magyarország",
		"categories": [
			"College Academic Building"
		]
	},
	{
		"date": "2012-02-21T15:31:48.000Z",
		"name": "QI - Simonyi Károly nagyelőadó",
		"id": "4e78d5bd15207e35d98f9cbb",
		"lat": 47.47343860625082,
		"lng": 19.059689850959558,
		"address": "BME Q épület",
		"postalCode": "1117",
		"city": "Budapest",
		"country": "Magyarország",
		"categories": [
			"College Auditorium"
		]
	},
	{
		"date": "2012-02-21T16:17:50.000Z",
		"name": "QII - Heller Farkas nagyelőadó",
		"id": "4e788fd6c65b409c46d7d0d1",
		"lat": 47.47343073516407,
		"lng": 19.059825667724137,
		"address": "BME Q épület",
		"postalCode": "1117",
		"city": "Budapest",
		"country": "Magyarország",
		"categories": [
			"College Auditorium",
			"University"
		]
	},
	{
		"date": "2012-02-21T17:18:25.000Z",
		"name": "Magyar tudósok körútja",
		"id": "4e86b5a04fc6432751d92f35",
		"lat": 47.4732285270181,
		"lng": 19.059047698974606,
		"address": "Magyar tudósok körútja",
		"postalCode": "1117",
		"city": "Budapest",
		"country": "Magyarország",
		"categories": [
			"Road"
		]
	},
	{
		"date": "2012-02-21T18:41:14.000Z",
		"name": "Campona Bevásárló és Szórakoztatóközpont",
		"id": "4bcd9a91937ca593fef0ac92",
		"lat": 47.40696527095432,
		"lng": 19.017238074599398,
		"address": "Nagytétényi út 37-43.",
		"postalCode": "1222",
		"city": "Budapest",
		"country": "Magyarország",
		"categories": [
			"Shopping Mall"
		]
	},
	{
		"date": "2012-02-21T18:41:27.000Z",
		"name": "TESCO Hipermarket",
		"id": "4ca4ed7797c8a1cdc05c62a5",
		"lat": 47.40764243835762,
		"lng": 19.019182931058598,
		"address": "Campona földszint",
		"postalCode": "1222",
		"city": "Budapest",
		"country": "Magyarország",
		"categories": [
			"Supermarket",
			"Grocery Store"
		]
	},
	{
		"date": "2012-02-21T19:55:30.000Z",
		"name": "Tomori Pál Főiskola",
		"id": "4dcd4976183899ddfab48695",
		"lat": 47.41125819531315,
		"lng": 19.01293983461239,
		"address": "Művelődés utca 21-27",
		"postalCode": "1223",
		"city": "Budapest",
		"country": "Magyarország",
		"categories": [
			"General College & University"
		]
	},
	{
		"date": "2012-02-22T18:49:40.000Z",
		"name": "Szimpla Kert",
		"id": "4b630e1af964a52020602ae3",
		"lat": 47.49689071315625,
		"lng": 19.062936992141815,
		"address": "Kazinczy u. 14.",
		"postalCode": "1075",
		"city": "Budapest",
		"country": "Magyarország",
		"categories": [
			"Pub"
		]
	},
	{
		"date": "2012-02-22T18:50:11.000Z",
		"name": "Krimó",
		"id": "4bb63ea76edc76b00ea0301c",
		"lat": 47.49662370803289,
		"lng": 19.063707415224727,
		"address": "Kazinczy u. 8.",
		"postalCode": "1075",
		"city": "Budapest",
		"country": "Magyarország",
		"categories": [
			"Pub",
			"Wine Bar",
			"Beer Garden"
		]
	},
	{
		"date": "2012-02-22T18:53:19.000Z",
		"name": "Pizzanet",
		"id": "4dac6b2d1e72c1ab9c1e70b3",
		"lat": 47.5021193082182,
		"lng": 19.06278416159449,
		"address": "Király u. 51.",
		"postalCode": "1077",
		"city": "Budapest",
		"country": "Magyarország",
		"categories": [
			"Pizza Place"
		]
	},
	{
		"date": "2012-02-22T23:01:42.000Z",
		"name": "Losonci tér",
		"id": "4d9d5189a695721e11340f0d",
		"lat": 47.48958911031985,
		"lng": 19.08032029942558,
		"address": "Losonci tér",
		"postalCode": "1083",
		"city": "Budapest",
		"country": "Magyarország",
		"categories": [
			"Plaza",
			"Park"
		]
	},
	{
		"date": "2012-02-23T07:19:33.000Z",
		"name": "BME I épület",
		"id": "4bcd89a5fb84c9b6311c223e",
		"lat": 47.472654177471675,
		"lng": 19.059821807961907,
		"address": "Magyar tudósok körútja 2.",
		"postalCode": "1117",
		"city": "Budapest",
		"country": "Magyarország",
		"categories": [
			"College Technology Building"
		]
	},
	{
		"date": "2012-02-23T07:20:34.000Z",
		"name": "BME IB145",
		"id": "4f38fdc0e4b0a8274071361b",
		"lat": 47.47250459547692,
		"lng": 19.05985818496417,
		"address": "BME I épület",
		"city": "Budapest",
		"country": "Magyarország",
		"categories": [
			"College Classroom"
		]
	},
	{
		"date": "2012-02-23T08:52:56.000Z",
		"name": "BME R épület",
		"id": "4ba8e306f964a5202cf739e3",
		"lat": 47.47900888118355,
		"lng": 19.058887218991554,
		"address": "Műegyetem rakpart 7-9.",
		"postalCode": "1111",
		"city": "Budapest",
		"country": "Magyarország",
		"categories": [
			"College Academic Building",
			"College Administrative Building",
			"Student Center"
		]
	},
	{
		"date": "2012-02-23T08:56:11.000Z",
		"name": "BME R504",
		"id": "4f45ff29e4b0f8695e0a7a4b",
		"lat": 47.478714779315396,
		"lng": 19.059441826088182,
		"address": "BME R épület",
		"city": "Budapest",
		"country": "Magyarország",
		"categories": [
			"College Classroom"
		]
	},
	{
		"date": "2012-02-23T11:46:01.000Z",
		"name": "Tomori Pál Főiskola",
		"id": "4dcd4976183899ddfab48695",
		"lat": 47.41125819531315,
		"lng": 19.01293983461239,
		"address": "Művelődés utca 21-27",
		"postalCode": "1223",
		"city": "Budapest",
		"country": "Magyarország",
		"categories": [
			"General College & University"
		]
	},
	{
		"date": "2012-02-23T13:20:21.000Z",
		"name": "BME E épület",
		"id": "4ba8e6fbf964a5208ef839e3",
		"lat": 47.477616135843945,
		"lng": 19.057630443325607,
		"address": "Egry József u. 1.",
		"postalCode": "1111",
		"city": "Budapest",
		"country": "Magyarország",
		"categories": [
			"College Academic Building"
		]
	},
	{
		"date": "2012-02-23T13:20:39.000Z",
		"name": "BME E1.B előadóterem",
		"id": "4e799da9aeb79f7dab8b437b",
		"lat": 47.477768,
		"lng": 19.057303,
		"address": "BME E épület",
		"postalCode": "1111",
		"city": "Budapest XI. kerület",
		"country": "Magyarország",
		"categories": [
			"College Auditorium"
		]
	},
	{
		"date": "2012-02-23T14:49:24.000Z",
		"name": "BME I épület",
		"id": "4bcd89a5fb84c9b6311c223e",
		"lat": 47.472654177471675,
		"lng": 19.059821807961907,
		"address": "Magyar tudósok körútja 2.",
		"postalCode": "1117",
		"city": "Budapest",
		"country": "Magyarország",
		"categories": [
			"College Technology Building"
		]
	},
	{
		"date": "2012-02-23T15:06:50.000Z",
		"name": "I büfé",
		"id": "4de4bfebfa7651589f3489b7",
		"lat": 47.47264799524757,
		"lng": 19.059493807220463,
		"address": "BME I épület",
		"postalCode": "1117",
		"city": "Budapest",
		"country": "Magyarország",
		"categories": [
			"Snack Place"
		]
	},
	{
		"date": "2012-02-23T16:22:26.000Z",
		"name": "Magyar tudósok körútja",
		"id": "4e86b5a04fc6432751d92f35",
		"lat": 47.4732285270181,
		"lng": 19.059047698974606,
		"address": "Magyar tudósok körútja",
		"postalCode": "1117",
		"city": "Budapest",
		"country": "Magyarország",
		"categories": [
			"Road"
		]
	},
	{
		"date": "2012-02-23T17:48:11.000Z",
		"name": "Campona Bevásárló és Szórakoztatóközpont",
		"id": "4bcd9a91937ca593fef0ac92",
		"lat": 47.40696527095432,
		"lng": 19.017238074599398,
		"address": "Nagytétényi út 37-43.",
		"postalCode": "1222",
		"city": "Budapest",
		"country": "Magyarország",
		"categories": [
			"Shopping Mall"
		]
	},
	{
		"date": "2012-02-23T17:48:22.000Z",
		"name": "TESCO Hipermarket",
		"id": "4ca4ed7797c8a1cdc05c62a5",
		"lat": 47.40764243835762,
		"lng": 19.019182931058598,
		"address": "Campona földszint",
		"postalCode": "1222",
		"city": "Budapest",
		"country": "Magyarország",
		"categories": [
			"Supermarket",
			"Grocery Store"
		]
	},
	{
		"date": "2012-02-23T18:02:22.000Z",
		"name": "Tomori Pál Főiskola",
		"id": "4dcd4976183899ddfab48695",
		"lat": 47.41125819531315,
		"lng": 19.01293983461239,
		"address": "Művelődés utca 21-27",
		"postalCode": "1223",
		"city": "Budapest",
		"country": "Magyarország",
		"categories": [
			"General College & University"
		]
	},
	{
		"date": "2012-02-24T11:14:47.000Z",
		"name": "Campona Bevásárló és Szórakoztatóközpont",
		"id": "4bcd9a91937ca593fef0ac92",
		"lat": 47.40696527095432,
		"lng": 19.017238074599398,
		"address": "Nagytétényi út 37-43.",
		"postalCode": "1222",
		"city": "Budapest",
		"country": "Magyarország",
		"categories": [
			"Shopping Mall"
		]
	},
	{
		"date": "2012-02-24T11:14:58.000Z",
		"name": "TESCO Hipermarket",
		"id": "4ca4ed7797c8a1cdc05c62a5",
		"lat": 47.40764243835762,
		"lng": 19.019182931058598,
		"address": "Campona földszint",
		"postalCode": "1222",
		"city": "Budapest",
		"country": "Magyarország",
		"categories": [
			"Supermarket",
			"Grocery Store"
		]
	},
	{
		"date": "2012-02-24T11:43:00.000Z",
		"name": "Tomori Pál Főiskola",
		"id": "4dcd4976183899ddfab48695",
		"lat": 47.41125819531315,
		"lng": 19.01293983461239,
		"address": "Művelődés utca 21-27",
		"postalCode": "1223",
		"city": "Budapest",
		"country": "Magyarország",
		"categories": [
			"General College & University"
		]
	},
	{
		"date": "2012-02-24T18:58:51.000Z",
		"name": "Costa Coffee",
		"id": "4bc873626501c9b674194029",
		"lat": 47.509412630412314,
		"lng": 19.057686433637123,
		"address": "Teréz krt. 55-57.",
		"postalCode": "1066",
		"city": "Budapest",
		"country": "Magyarország",
		"categories": [
			"Coffee Shop"
		]
	},
	{
		"date": "2012-02-24T19:00:02.000Z",
		"name": "Nyugati pályaudvar M (4, 6)",
		"id": "4bbf6921006dc9b6ae8bfc3f",
		"lat": 47.51014375432035,
		"lng": 19.056376540412806,
		"address": "Nyugati tér",
		"postalCode": "1055",
		"city": "Budapest",
		"country": "Magyarország",
		"categories": [
			"Tram Station"
		]
	},
	{
		"date": "2012-02-24T19:00:59.000Z",
		"name": "Samsung Forgóóra",
		"id": "4e9b31658b81c0254ea60b41",
		"lat": 47.50991916518201,
		"lng": 19.056473705467468,
		"address": "Nyugati tér",
		"city": "Budapest",
		"country": "Magyarország",
		"categories": [
			"Plaza"
		]
	},
	{
		"date": "2012-02-24T20:04:50.000Z",
		"name": "Losonci tér",
		"id": "4d9d5189a695721e11340f0d",
		"lat": 47.48958911031985,
		"lng": 19.08032029942558,
		"address": "Losonci tér",
		"postalCode": "1083",
		"city": "Budapest",
		"country": "Magyarország",
		"categories": [
			"Plaza",
			"Park"
		]
	},
	{
		"date": "2012-02-24T23:29:03.000Z",
		"name": "Tomori Pál Főiskola",
		"id": "4dcd4976183899ddfab48695",
		"lat": 47.41125819531315,
		"lng": 19.01293983461239,
		"address": "Művelődés utca 21-27",
		"postalCode": "1223",
		"city": "Budapest",
		"country": "Magyarország",
		"categories": [
			"General College & University"
		]
	},
	{
		"date": "2012-02-25T18:46:08.000Z",
		"name": "Campona Bevásárló és Szórakoztatóközpont",
		"id": "4bcd9a91937ca593fef0ac92",
		"lat": 47.40696527095432,
		"lng": 19.017238074599398,
		"address": "Nagytétényi út 37-43.",
		"postalCode": "1222",
		"city": "Budapest",
		"country": "Magyarország",
		"categories": [
			"Shopping Mall"
		]
	},
	{
		"date": "2012-02-25T20:47:34.000Z",
		"name": "Losonci tér",
		"id": "4d9d5189a695721e11340f0d",
		"lat": 47.48958911031985,
		"lng": 19.08032029942558,
		"address": "Losonci tér",
		"postalCode": "1083",
		"city": "Budapest",
		"country": "Magyarország",
		"categories": [
			"Plaza",
			"Park"
		]
	},
	{
		"date": "2012-02-25T21:48:36.000Z",
		"name": "Control Pub",
		"id": "4cb76482c7228cfab47effcd",
		"lat": 47.50976661894624,
		"lng": 19.059495931873823,
		"address": "Podmaniczky u. 31.",
		"postalCode": "1064",
		"city": "Budapest",
		"country": "Magyarország",
		"categories": [
			"Pub",
			"Bar"
		]
	},
	{
		"date": "2012-02-25T23:15:05.000Z",
		"name": "Nagymenő",
		"id": "4e18ca3bd22d512258874509",
		"lat": 47.50432033119684,
		"lng": 19.059125109105302,
		"address": "Nagymező 34.",
		"postalCode": "1065",
		"city": "Budapest",
		"country": "Magyarország",
		"categories": [
			"Bar",
			"Pub"
		]
	},
	{
		"date": "2012-02-26T01:36:16.000Z",
		"name": "Losonci tér",
		"id": "4d9d5189a695721e11340f0d",
		"lat": 47.48958911031985,
		"lng": 19.08032029942558,
		"address": "Losonci tér",
		"postalCode": "1083",
		"city": "Budapest",
		"country": "Magyarország",
		"categories": [
			"Plaza",
			"Park"
		]
	},
	{
		"date": "2012-02-26T16:24:05.000Z",
		"name": "Corvin Plaza",
		"id": "4cc701eabe40a35d1d6a8d4c",
		"lat": 47.486046352980296,
		"lng": 19.07288581182118,
		"address": "Futó u. 37-45.",
		"postalCode": "1083",
		"city": "Budapest",
		"country": "Magyarország",
		"categories": [
			"Shopping Mall"
		]
	},
	{
		"date": "2012-02-26T16:24:36.000Z",
		"name": "CBA Príma",
		"id": "4cd037a59d87224b14ce533b",
		"lat": 47.48601991975846,
		"lng": 19.073800320225235,
		"address": "Corvin Bevásárlóközpont",
		"postalCode": "1085",
		"city": "Budapest",
		"country": "Magyarország",
		"categories": [
			"Grocery Store"
		]
	},
	{
		"date": "2012-02-26T20:23:18.000Z",
		"name": "Losonci tér",
		"id": "4d9d5189a695721e11340f0d",
		"lat": 47.48958911031985,
		"lng": 19.08032029942558,
		"address": "Losonci tér",
		"postalCode": "1083",
		"city": "Budapest",
		"country": "Magyarország",
		"categories": [
			"Plaza",
			"Park"
		]
	},
	{
		"date": "2012-02-26T21:51:28.000Z",
		"name": "Harminckettesek tere",
		"id": "4bf6a540bfeac92810af9436",
		"lat": 47.48950129908545,
		"lng": 19.071492778445887,
		"address": "Harminckettesek tere",
		"postalCode": "1083",
		"city": "Budapest",
		"country": "Magyarország",
		"categories": [
			"Plaza"
		]
	},
	{
		"date": "2012-02-26T21:51:42.000Z",
		"name": "Harminckettesek tere (4, 6)",
		"id": "4c41fa8ce26920a1614f5fe7",
		"lat": 47.491346061078474,
		"lng": 19.07721140890305,
		"address": "József krt.",
		"postalCode": "1085",
		"city": "Budapest",
		"country": "Magyarország",
		"categories": [
			"Tram Station"
		]
	},
	{
		"date": "2012-02-26T21:52:04.000Z",
		"name": "Harminckettesek tere",
		"id": "4bf6a540bfeac92810af9436",
		"lat": 47.48950129908545,
		"lng": 19.071492778445887,
		"address": "Harminckettesek tere",
		"postalCode": "1083",
		"city": "Budapest",
		"country": "Magyarország",
		"categories": [
			"Plaza"
		]
	},
	{
		"date": "2012-02-26T22:09:32.000Z",
		"name": "Móricz Zsigmond körtér",
		"id": "4bbdbe1a8ec3d13a2a5a1c28",
		"lat": 47.47730207013187,
		"lng": 19.04743043972232,
		"address": "Móricz Zsigmond körtér",
		"postalCode": "1114",
		"city": "Budapest",
		"country": "Magyarország",
		"categories": [
			"Plaza"
		]
	},
	{
		"date": "2012-02-26T22:10:33.000Z",
		"name": "Móricz Zsigmond körtér M (6)",
		"id": "4c814dd8d34ca143ee262180",
		"lat": 47.47742997325234,
		"lng": 19.048785384508754,
		"address": "Karinthy Frigyes út",
		"postalCode": "1114",
		"city": "Budapest",
		"country": "Magyarország",
		"categories": [
			"Tram Station"
		]
	},
	{
		"date": "2012-02-26T22:11:06.000Z",
		"name": "Móricz Zsigmond körtér M (33)",
		"id": "4df0f38f88775c5de12963bd",
		"lat": 47.47753183895215,
		"lng": 19.048658935604358,
		"address": "Karinthy Frigyes út",
		"postalCode": "1117",
		"city": "Budapest",
		"country": "Magyarország",
		"categories": [
			"Bus Stop"
		]
	},
	{
		"date": "2012-02-26T22:42:57.000Z",
		"name": "Tomori Pál Főiskola",
		"id": "4dcd4976183899ddfab48695",
		"lat": 47.41125819531315,
		"lng": 19.01293983461239,
		"address": "Művelődés utca 21-27",
		"postalCode": "1223",
		"city": "Budapest",
		"country": "Magyarország",
		"categories": [
			"General College & University"
		]
	},
	{
		"date": "2012-02-27T10:50:23.000Z",
		"name": "BME Q épület",
		"id": "4c85f24fd4e23704bdf58688",
		"lat": 47.473393661934686,
		"lng": 19.059766255018825,
		"address": "Magyar tudósok körútja 2.",
		"postalCode": "1117",
		"city": "Budapest",
		"country": "Magyarország",
		"categories": [
			"College Academic Building"
		]
	},
	{
		"date": "2012-02-27T10:50:47.000Z",
		"name": "BME Q épület",
		"id": "4c85f24fd4e23704bdf58688",
		"lat": 47.473393661934686,
		"lng": 19.059766255018825,
		"address": "Magyar tudósok körútja 2.",
		"postalCode": "1117",
		"city": "Budapest",
		"country": "Magyarország",
		"categories": [
			"College Academic Building"
		]
	},
	{
		"date": "2012-02-27T11:44:51.000Z",
		"name": "QAF16 terem",
		"id": "4dc14002d16455f83223e490",
		"lat": 47.4736159312583,
		"lng": 19.06017766915071,
		"country": "Magyarország",
		"categories": [
			"College Auditorium"
		]
	},
	{
		"date": "2012-02-27T12:33:40.000Z",
		"name": "Magyar tudósok körútja",
		"id": "4e86b5a04fc6432751d92f35",
		"lat": 47.4732285270181,
		"lng": 19.059047698974606,
		"address": "Magyar tudósok körútja",
		"postalCode": "1117",
		"city": "Budapest",
		"country": "Magyarország",
		"categories": [
			"Road"
		]
	},
	{
		"date": "2012-02-27T18:16:42.000Z",
		"name": "Campona Bevásárló és Szórakoztatóközpont",
		"id": "4bcd9a91937ca593fef0ac92",
		"lat": 47.40696527095432,
		"lng": 19.017238074599398,
		"address": "Nagytétényi út 37-43.",
		"postalCode": "1222",
		"city": "Budapest",
		"country": "Magyarország",
		"categories": [
			"Shopping Mall"
		]
	},
	{
		"date": "2012-02-27T18:17:09.000Z",
		"name": "TESCO Hipermarket",
		"id": "4ca4ed7797c8a1cdc05c62a5",
		"lat": 47.40764243835762,
		"lng": 19.019182931058598,
		"address": "Campona földszint",
		"postalCode": "1222",
		"city": "Budapest",
		"country": "Magyarország",
		"categories": [
			"Supermarket",
			"Grocery Store"
		]
	},
	{
		"date": "2012-02-27T18:42:45.000Z",
		"name": "Tomori Pál Főiskola",
		"id": "4dcd4976183899ddfab48695",
		"lat": 47.41125819531315,
		"lng": 19.01293983461239,
		"address": "Művelődés utca 21-27",
		"postalCode": "1223",
		"city": "Budapest",
		"country": "Magyarország",
		"categories": [
			"General College & University"
		]
	},
	{
		"date": "2012-02-28T14:41:05.000Z",
		"name": "BME E épület",
		"id": "4ba8e6fbf964a5208ef839e3",
		"lat": 47.477616135843945,
		"lng": 19.057630443325607,
		"address": "Egry József u. 1.",
		"postalCode": "1111",
		"city": "Budapest",
		"country": "Magyarország",
		"categories": [
			"College Academic Building"
		]
	},
	{
		"date": "2012-02-28T14:43:05.000Z",
		"name": "BME H épület",
		"id": "4ba8e41ef964a52096f739e3",
		"lat": 47.478140254981774,
		"lng": 19.05796041089554,
		"address": "Egry József utca 1.",
		"postalCode": "1111",
		"city": "Budapest",
		"country": "Magyarország",
		"categories": [
			"College Math Building",
			"College Engineering Building"
		]
	},
	{
		"date": "2012-02-28T14:44:41.000Z",
		"name": "BME T épület",
		"id": "4ba8e9eff964a52097f939e3",
		"lat": 47.47838140943124,
		"lng": 19.05867709631912,
		"address": "Egry József utca 1.",
		"postalCode": "1111",
		"city": "Budapest",
		"country": "Magyarország",
		"categories": [
			"College Academic Building"
		]
	},
	{
		"date": "2012-02-28T14:46:52.000Z",
		"name": "BME R épület",
		"id": "4ba8e306f964a5202cf739e3",
		"lat": 47.47900888118355,
		"lng": 19.058887218991554,
		"address": "Műegyetem rakpart 7-9.",
		"postalCode": "1111",
		"city": "Budapest",
		"country": "Magyarország",
		"categories": [
			"College Academic Building",
			"College Administrative Building",
			"Student Center"
		]
	},
	{
		"date": "2012-02-28T14:50:32.000Z",
		"name": "BME R507",
		"id": "4f4ce9a8e4b0ef284a88661d",
		"lat": 47.47865848785796,
		"lng": 19.059341899246213,
		"address": "BME R épület",
		"city": "Budapest",
		"country": "Magyarország",
		"categories": [
			"College Classroom"
		]
	},
	{
		"date": "2012-02-28T16:48:35.000Z",
		"name": "BME E épület",
		"id": "4ba8e6fbf964a5208ef839e3",
		"lat": 47.477616135843945,
		"lng": 19.057630443325607,
		"address": "Egry József u. 1.",
		"postalCode": "1111",
		"city": "Budapest",
		"country": "Magyarország",
		"categories": [
			"College Academic Building"
		]
	},
	{
		"date": "2012-02-28T17:00:33.000Z",
		"name": "Harminckettesek tere",
		"id": "4bf6a540bfeac92810af9436",
		"lat": 47.48950129908545,
		"lng": 19.071492778445887,
		"address": "Harminckettesek tere",
		"postalCode": "1083",
		"city": "Budapest",
		"country": "Magyarország",
		"categories": [
			"Plaza"
		]
	},
	{
		"date": "2012-02-28T17:00:52.000Z",
		"name": "Harminckettesek tere (4, 6)",
		"id": "4c41fa8ce26920a1614f5fe7",
		"lat": 47.491346061078474,
		"lng": 19.07721140890305,
		"address": "József krt.",
		"postalCode": "1085",
		"city": "Budapest",
		"country": "Magyarország",
		"categories": [
			"Tram Station"
		]
	},
	{
		"date": "2012-02-28T20:10:09.000Z",
		"name": "Losonci tér",
		"id": "4d9d5189a695721e11340f0d",
		"lat": 47.48958911031985,
		"lng": 19.08032029942558,
		"address": "Losonci tér",
		"postalCode": "1083",
		"city": "Budapest",
		"country": "Magyarország",
		"categories": [
			"Plaza",
			"Park"
		]
	},
	{
		"date": "2012-02-28T22:49:17.000Z",
		"name": "Harminckettesek tere (4, 6)",
		"id": "4c41fa8ce26920a1614f5fe7",
		"lat": 47.491346061078474,
		"lng": 19.07721140890305,
		"address": "József krt.",
		"postalCode": "1085",
		"city": "Budapest",
		"country": "Magyarország",
		"categories": [
			"Tram Station"
		]
	},
	{
		"date": "2012-02-28T22:49:40.000Z",
		"name": "Harminckettesek tere",
		"id": "4bf6a540bfeac92810af9436",
		"lat": 47.48950129908545,
		"lng": 19.071492778445887,
		"address": "Harminckettesek tere",
		"postalCode": "1083",
		"city": "Budapest",
		"country": "Magyarország",
		"categories": [
			"Plaza"
		]
	},
	{
		"date": "2012-02-28T22:49:51.000Z",
		"name": "Harminckettesek tere",
		"id": "4bf6a540bfeac92810af9436",
		"lat": 47.48950129908545,
		"lng": 19.071492778445887,
		"address": "Harminckettesek tere",
		"postalCode": "1083",
		"city": "Budapest",
		"country": "Magyarország",
		"categories": [
			"Plaza"
		]
	},
	{
		"date": "2012-02-28T23:06:52.000Z",
		"name": "Móricz Zsigmond körtér",
		"id": "4bbdbe1a8ec3d13a2a5a1c28",
		"lat": 47.47730207013187,
		"lng": 19.04743043972232,
		"address": "Móricz Zsigmond körtér",
		"postalCode": "1114",
		"city": "Budapest",
		"country": "Magyarország",
		"categories": [
			"Plaza"
		]
	},
	{
		"date": "2012-02-28T23:07:15.000Z",
		"name": "Móricz Zsigmond körtér M (17, 41, 47, 47B, 48, 56, 56A, 61, 973)",
		"id": "4c89e8fba92fa093aab28cbf",
		"lat": 47.47730450559686,
		"lng": 19.04736248039663,
		"address": "Móricz Zsigmond körtér",
		"postalCode": "1114",
		"city": "Budapest",
		"country": "Magyarország",
		"categories": [
			"Tram Station",
			"Bus Stop"
		]
	},
	{
		"date": "2012-02-28T23:07:55.000Z",
		"name": "Móricz Zsigmond körtér M (7, 107, 188E, 272, 907, 908, 940, 941, 972, 973)",
		"id": "4d989f5daf3d236acf4f40c7",
		"lat": 47.477811795565195,
		"lng": 19.047758044519362,
		"address": "Bartók Béla út",
		"postalCode": "1114",
		"city": "Budapest",
		"country": "Magyarország",
		"categories": [
			"Bus Stop"
		]
	},
	{
		"date": "2012-02-28T23:42:02.000Z",
		"name": "Tomori Pál Főiskola",
		"id": "4dcd4976183899ddfab48695",
		"lat": 47.41125819531315,
		"lng": 19.01293983461239,
		"address": "Művelődés utca 21-27",
		"postalCode": "1223",
		"city": "Budapest",
		"country": "Magyarország",
		"categories": [
			"General College & University"
		]
	},
	{
		"date": "2012-02-29T12:01:04.000Z",
		"name": "Campona Bevásárló és Szórakoztatóközpont",
		"id": "4bcd9a91937ca593fef0ac92",
		"lat": 47.40696527095432,
		"lng": 19.017238074599398,
		"address": "Nagytétényi út 37-43.",
		"postalCode": "1222",
		"city": "Budapest",
		"country": "Magyarország",
		"categories": [
			"Shopping Mall"
		]
	},
	{
		"date": "2012-02-29T12:01:19.000Z",
		"name": "TESCO Hipermarket",
		"id": "4ca4ed7797c8a1cdc05c62a5",
		"lat": 47.40764243835762,
		"lng": 19.019182931058598,
		"address": "Campona földszint",
		"postalCode": "1222",
		"city": "Budapest",
		"country": "Magyarország",
		"categories": [
			"Supermarket",
			"Grocery Store"
		]
	},
	{
		"date": "2012-02-29T12:21:04.000Z",
		"name": "Tomori Pál Főiskola",
		"id": "4dcd4976183899ddfab48695",
		"lat": 47.41125819531315,
		"lng": 19.01293983461239,
		"address": "Művelődés utca 21-27",
		"postalCode": "1223",
		"city": "Budapest",
		"country": "Magyarország",
		"categories": [
			"General College & University"
		]
	},
	{
		"date": "2012-02-29T14:34:06.000Z",
		"name": "Móricz Zsigmond körtér",
		"id": "4bbdbe1a8ec3d13a2a5a1c28",
		"lat": 47.47730207013187,
		"lng": 19.04743043972232,
		"address": "Móricz Zsigmond körtér",
		"postalCode": "1114",
		"city": "Budapest",
		"country": "Magyarország",
		"categories": [
			"Plaza"
		]
	},
	{
		"date": "2012-02-29T14:55:49.000Z",
		"name": "Allee Bevásárlóközpont",
		"id": "4ba35913f964a520883638e3",
		"lat": 47.47540787650971,
		"lng": 19.048983750822984,
		"address": "Október huszonharmadika u. 8-10.",
		"postalCode": "1117",
		"city": "Budapest",
		"country": "Magyarország",
		"categories": [
			"Shopping Mall"
		]
	},
	{
		"date": "2012-02-29T15:48:00.000Z",
		"name": "Széll Kálmán tér (Csaba utca) (5, 39, 956, 960, 990)",
		"id": "4d5ebf6d9f67f04d305764fb",
		"lat": 47.506700307018534,
		"lng": 19.02261257171631,
		"address": "Széll Kálmán tér",
		"city": "Budapest",
		"country": "Magyarország",
		"categories": [
			"Bus Stop"
		]
	},
	{
		"date": "2012-02-29T15:50:24.000Z",
		"name": "Széll Kálmán tér",
		"id": "4b4cc7dff964a5209abe26e3",
		"lat": 47.50695100795283,
		"lng": 19.024874284275235,
		"address": "Széll Kálmán tér",
		"postalCode": "1014",
		"city": "Budapest",
		"country": "Magyarország",
		"categories": [
			"Plaza"
		]
	},
	{
		"date": "2012-02-29T15:51:08.000Z",
		"name": "Széll Kálmán tér (M2)",
		"id": "4d748dfb9d2fa1437332f3d6",
		"lat": 47.506986577412206,
		"lng": 19.024892449378967,
		"address": "Széll Kálmán tér",
		"postalCode": "1024",
		"city": "Budapest",
		"country": "Magyarország",
		"categories": [
			"Metro Station"
		]
	},
	{
		"date": "2012-02-29T15:53:29.000Z",
		"name": "Grand Iskolaszövetkezet",
		"id": "4f4e49f5e4b0ed36945950c5",
		"lat": 47.50842226671339,
		"lng": 19.02135747562096,
		"address": "Széll Kálmán tér",
		"city": "Budapest",
		"country": "Magyarország",
		"categories": [
			"Office"
		]
	},
	{
		"date": "2012-02-29T16:32:25.000Z",
		"name": "Losonci tér",
		"id": "4d9d5189a695721e11340f0d",
		"lat": 47.48958911031985,
		"lng": 19.08032029942558,
		"address": "Losonci tér",
		"postalCode": "1083",
		"city": "Budapest",
		"country": "Magyarország",
		"categories": [
			"Plaza",
			"Park"
		]
	},
	{
		"date": "2012-02-29T21:17:30.000Z",
		"name": "Harminckettesek tere (4, 6)",
		"id": "4c41fa8ce26920a1614f5fe7",
		"lat": 47.491346061078474,
		"lng": 19.07721140890305,
		"address": "József krt.",
		"postalCode": "1085",
		"city": "Budapest",
		"country": "Magyarország",
		"categories": [
			"Tram Station"
		]
	},
	{
		"date": "2012-02-29T21:17:44.000Z",
		"name": "Harminckettesek tere",
		"id": "4bf6a540bfeac92810af9436",
		"lat": 47.48950129908545,
		"lng": 19.071492778445887,
		"address": "Harminckettesek tere",
		"postalCode": "1083",
		"city": "Budapest",
		"country": "Magyarország",
		"categories": [
			"Plaza"
		]
	},
	{
		"date": "2012-02-29T21:17:54.000Z",
		"name": "Harminckettesek tere",
		"id": "4bf6a540bfeac92810af9436",
		"lat": 47.48950129908545,
		"lng": 19.071492778445887,
		"address": "Harminckettesek tere",
		"postalCode": "1083",
		"city": "Budapest",
		"country": "Magyarország",
		"categories": [
			"Plaza"
		]
	},
	{
		"date": "2012-02-29T21:58:23.000Z",
		"name": "Tomori Pál Főiskola",
		"id": "4dcd4976183899ddfab48695",
		"lat": 47.41125819531315,
		"lng": 19.01293983461239,
		"address": "Művelődés utca 21-27",
		"postalCode": "1223",
		"city": "Budapest",
		"country": "Magyarország",
		"categories": [
			"General College & University"
		]
	}
]