[
	{
		"date": "2012-12-01T20:24:24.000Z",
		"name": "Losonci tér",
		"id": "4d9d5189a695721e11340f0d",
		"lat": 47.48958911031985,
		"lng": 19.08032029942558,
		"address": "Losonci tér",
		"postalCode": "1083",
		"city": "Budapest",
		"country": "Magyarország",
		"categories": [
			"Plaza",
			"Park"
		]
	},
	{
		"date": "2012-12-02T02:13:42.000Z",
		"name": "Vattacukor Rezidencia",
		"id": "50434c04e4b03ccc1763379d",
		"lat": 47.48882521834965,
		"lng": 19.08135897878659,
		"city": "Budapest",
		"country": "Magyarország",
		"categories": [
			"Home (private)"
		]
	},
	{
		"date": "2012-12-04T00:17:22.000Z",
		"name": "Vattacukor Rezidencia",
		"id": "50434c04e4b03ccc1763379d",
		"lat": 47.48882521834965,
		"lng": 19.08135897878659,
		"city": "Budapest",
		"country": "Magyarország",
		"categories": [
			"Home (private)"
		]
	},
	{
		"date": "2012-12-05T15:28:33.000Z",
		"name": "Losonci tér",
		"id": "4d9d5189a695721e11340f0d",
		"lat": 47.48958911031985,
		"lng": 19.08032029942558,
		"address": "Losonci tér",
		"postalCode": "1083",
		"city": "Budapest",
		"country": "Magyarország",
		"categories": [
			"Plaza",
			"Park"
		]
	},
	{
		"date": "2012-12-06T15:04:03.000Z",
		"name": "Vattacukor Rezidencia",
		"id": "50434c04e4b03ccc1763379d",
		"lat": 47.48882521834965,
		"lng": 19.08135897878659,
		"city": "Budapest",
		"country": "Magyarország",
		"categories": [
			"Home (private)"
		]
	},
	{
		"date": "2012-12-06T17:30:30.000Z",
		"name": "SPAR",
		"id": "4be83036c5220f476867a9ca",
		"lat": 47.486964687669555,
		"lng": 19.080367093254154,
		"address": "Szigony utca 12.",
		"postalCode": "1083",
		"city": "Budapest VIII.",
		"country": "Magyarország",
		"categories": [
			"Supermarket",
			"Grocery Store"
		]
	},
	{
		"date": "2012-12-07T09:35:40.000Z",
		"name": "Vattacukor Rezidencia",
		"id": "50434c04e4b03ccc1763379d",
		"lat": 47.48882521834965,
		"lng": 19.08135897878659,
		"city": "Budapest",
		"country": "Magyarország",
		"categories": [
			"Home (private)"
		]
	},
	{
		"date": "2012-12-07T12:40:12.000Z",
		"name": "Bem tér",
		"id": "4ca58b7da6e08cfa1b387294",
		"lat": 47.51205584131837,
		"lng": 19.03879165649414,
		"address": "Bem tér",
		"city": "Budapest",
		"country": "Magyarország",
		"categories": [
			"Park"
		]
	},
	{
		"date": "2012-12-07T12:40:27.000Z",
		"name": "Bem József tér (109, 960)",
		"id": "4e68e1d414954826addcd06f",
		"lat": 47.511790613872066,
		"lng": 19.038738012313843,
		"address": "Bem rkp.",
		"postalCode": "1013",
		"city": "Budapest",
		"country": "Magyarország",
		"categories": [
			"Bus Stop"
		]
	},
	{
		"date": "2012-12-07T16:40:59.000Z",
		"name": "Villa Polgar",
		"id": "4caaebc0965c9c74f70dcbfa",
		"lat": 47.671899642379415,
		"lng": 16.611052697881373,
		"city": "Sopron",
		"country": "Magyarország",
		"categories": [
			"Home (private)"
		]
	},
	{
		"date": "2012-12-09T12:20:12.000Z",
		"name": "Grandma's Place",
		"id": "4f5c86b7e4b086681c0fa476",
		"lat": 47.685079492343135,
		"lng": 16.59042726764715,
		"country": "Magyarország",
		"categories": [
			"Home (private)"
		]
	},
	{
		"date": "2012-12-09T12:42:43.000Z",
		"name": "Sopron vasútállomás",
		"id": "4bd6fe6529eb9c749dee95e1",
		"lat": 47.67771249028291,
		"lng": 16.58738136291504,
		"address": "Állomás u. 2.",
		"postalCode": "9400",
		"city": "Sopron",
		"country": "Magyarország",
		"categories": [
			"Train Station"
		]
	},
	{
		"date": "2012-12-09T18:43:32.000Z",
		"name": "Harminckettesek tere (4, 6)",
		"id": "4c41fa8ce26920a1614f5fe7",
		"lat": 47.491346061078474,
		"lng": 19.07721140890305,
		"address": "József krt.",
		"postalCode": "1085",
		"city": "Budapest",
		"country": "Magyarország",
		"categories": [
			"Tram Station"
		]
	},
	{
		"date": "2012-12-09T19:17:48.000Z",
		"name": "Vattacukor Rezidencia",
		"id": "50434c04e4b03ccc1763379d",
		"lat": 47.48882521834965,
		"lng": 19.08135897878659,
		"city": "Budapest",
		"country": "Magyarország",
		"categories": [
			"Home (private)"
		]
	},
	{
		"date": "2012-12-11T08:12:38.000Z",
		"name": "Vattacukor Rezidencia",
		"id": "50434c04e4b03ccc1763379d",
		"lat": 47.48882521834965,
		"lng": 19.08135897878659,
		"city": "Budapest",
		"country": "Magyarország",
		"categories": [
			"Home (private)"
		]
	},
	{
		"date": "2012-12-11T09:02:19.000Z",
		"name": "IB028 - Kozma László nagyelőadó",
		"id": "4de4d643d164df857532987b",
		"lat": 47.472822016033966,
		"lng": 19.060108883515067,
		"country": "Magyarország",
		"categories": [
			"College Auditorium"
		]
	},
	{
		"date": "2012-12-11T09:02:29.000Z",
		"name": "BME I épület",
		"id": "4bcd89a5fb84c9b6311c223e",
		"lat": 47.472654177471675,
		"lng": 19.059821807961907,
		"address": "Magyar tudósok körútja 2.",
		"postalCode": "1117",
		"city": "Budapest",
		"country": "Magyarország",
		"categories": [
			"College Technology Building"
		]
	},
	{
		"date": "2012-12-11T15:47:57.000Z",
		"name": "Vattacukor Rezidencia",
		"id": "50434c04e4b03ccc1763379d",
		"lat": 47.48882521834965,
		"lng": 19.08135897878659,
		"city": "Budapest",
		"country": "Magyarország",
		"categories": [
			"Home (private)"
		]
	},
	{
		"date": "2012-12-11T15:48:10.000Z",
		"name": "Losonci tér",
		"id": "4d9d5189a695721e11340f0d",
		"lat": 47.48958911031985,
		"lng": 19.08032029942558,
		"address": "Losonci tér",
		"postalCode": "1083",
		"city": "Budapest",
		"country": "Magyarország",
		"categories": [
			"Plaza",
			"Park"
		]
	},
	{
		"date": "2012-12-11T16:12:51.000Z",
		"name": "BME I épület",
		"id": "4bcd89a5fb84c9b6311c223e",
		"lat": 47.472654177471675,
		"lng": 19.059821807961907,
		"address": "Magyar tudósok körútja 2.",
		"postalCode": "1117",
		"city": "Budapest",
		"country": "Magyarország",
		"categories": [
			"College Technology Building"
		]
	},
	{
		"date": "2012-12-11T16:33:11.000Z",
		"name": "Petőfi híd, budai hídfő (4, 6)",
		"id": "4de109b322713271e2c261f3",
		"lat": 47.47676141638929,
		"lng": 19.058971521383068,
		"address": "Goldmann György tér",
		"postalCode": "1117",
		"city": "Budapest",
		"country": "Magyarország",
		"categories": [
			"Tram Station"
		]
	},
	{
		"date": "2012-12-11T16:41:56.000Z",
		"name": "Losonci tér 3.",
		"id": "50658860e4b0675fa466d3bb",
		"lat": 47.488038,
		"lng": 19.082002,
		"address": "Losonci tér 3.",
		"postalCode": "1083",
		"city": "Budapest",
		"country": "Magyarország",
		"categories": [
			"Residential Building (Apartment / Condo)"
		]
	},
	{
		"date": "2012-12-11T20:14:39.000Z",
		"name": "Gastland Bisztró Oktogon",
		"id": "4ff192ebe4b0b5102ef9dba5",
		"lat": 47.50634225087913,
		"lng": 19.062211236476262,
		"address": "Teréz krt. 23.",
		"postalCode": "1067",
		"city": "Budapest",
		"country": "Magyarország",
		"categories": [
			"BBQ Joint",
			"Deli / Bodega",
			"Breakfast Spot"
		]
	},
	{
		"date": "2012-12-11T21:07:24.000Z",
		"name": "Oktogon M (4, 6)",
		"id": "4d54e68e143ca093235fa9fc",
		"lat": 47.5058173109262,
		"lng": 19.062614255153175,
		"address": "Oktogon",
		"postalCode": "1066",
		"city": "Budapest",
		"country": "Magyarország",
		"categories": [
			"Tram Station"
		]
	},
	{
		"date": "2012-12-11T22:37:48.000Z",
		"name": "Vattacukor Rezidencia",
		"id": "50434c04e4b03ccc1763379d",
		"lat": 47.48882521834965,
		"lng": 19.08135897878659,
		"city": "Budapest",
		"country": "Magyarország",
		"categories": [
			"Home (private)"
		]
	},
	{
		"date": "2012-12-12T16:13:48.000Z",
		"name": "Losonci tér",
		"id": "4d9d5189a695721e11340f0d",
		"lat": 47.48958911031985,
		"lng": 19.08032029942558,
		"address": "Losonci tér",
		"postalCode": "1083",
		"city": "Budapest",
		"country": "Magyarország",
		"categories": [
			"Plaza",
			"Park"
		]
	},
	{
		"date": "2012-12-12T16:15:18.000Z",
		"name": "Pepsi ABC",
		"id": "4ca57bf6a6e08cfa90c87194",
		"lat": 47.48790215068848,
		"lng": 19.081916674868864,
		"country": "Magyarország",
		"categories": [
			"Deli / Bodega"
		]
	},
	{
		"date": "2012-12-13T16:31:30.000Z",
		"name": "SPAR",
		"id": "4be83036c5220f476867a9ca",
		"lat": 47.486964687669555,
		"lng": 19.080367093254154,
		"address": "Szigony utca 12.",
		"postalCode": "1083",
		"city": "Budapest VIII.",
		"country": "Magyarország",
		"categories": [
			"Supermarket",
			"Grocery Store"
		]
	},
	{
		"date": "2012-12-13T22:21:12.000Z",
		"name": "Kék Ló Fashion Pub",
		"id": "4d090e9300e6b1f7e6d210d7",
		"lat": 47.4968556221236,
		"lng": 19.06353846983471,
		"address": "Kazinczy u. 11.",
		"postalCode": "1075",
		"city": "Budapest",
		"country": "Magyarország",
		"categories": [
			"Bar",
			"Café",
			"Arts & Crafts Store"
		]
	},
	{
		"date": "2012-12-13T22:25:16.000Z",
		"name": "Szimpla Kert",
		"id": "4b630e1af964a52020602ae3",
		"lat": 47.49689071315625,
		"lng": 19.062936992141815,
		"address": "Kazinczy u. 14.",
		"postalCode": "1075",
		"city": "Budapest",
		"country": "Magyarország",
		"categories": [
			"Pub"
		]
	},
	{
		"date": "2012-12-13T23:21:20.000Z",
		"name": "Vattacukor Rezidencia",
		"id": "50434c04e4b03ccc1763379d",
		"lat": 47.48882521834965,
		"lng": 19.08135897878659,
		"city": "Budapest",
		"country": "Magyarország",
		"categories": [
			"Home (private)"
		]
	},
	{
		"date": "2012-12-14T21:06:09.000Z",
		"name": "Pepsi ABC",
		"id": "4ca57bf6a6e08cfa90c87194",
		"lat": 47.48790215068848,
		"lng": 19.081916674868864,
		"country": "Magyarország",
		"categories": [
			"Deli / Bodega"
		]
	},
	{
		"date": "2012-12-14T21:16:45.000Z",
		"name": "Vattacukor Rezidencia",
		"id": "50434c04e4b03ccc1763379d",
		"lat": 47.48882521834965,
		"lng": 19.08135897878659,
		"city": "Budapest",
		"country": "Magyarország",
		"categories": [
			"Home (private)"
		]
	},
	{
		"date": "2012-12-15T12:27:54.000Z",
		"name": "Auchan Aquincum",
		"id": "4c54133da724e21e2c7dc7f5",
		"lat": 47.55949251486867,
		"lng": 19.04961531176856,
		"address": "Szentendrei út 115.",
		"postalCode": "1033",
		"city": "Budapest",
		"country": "Magyarország",
		"categories": [
			"Supermarket"
		]
	},
	{
		"date": "2012-12-15T20:00:47.000Z",
		"name": "Vattacukor Rezidencia",
		"id": "50434c04e4b03ccc1763379d",
		"lat": 47.48882521834965,
		"lng": 19.08135897878659,
		"city": "Budapest",
		"country": "Magyarország",
		"categories": [
			"Home (private)"
		]
	},
	{
		"date": "2012-12-16T12:56:32.000Z",
		"name": "SPAR",
		"id": "4be83036c5220f476867a9ca",
		"lat": 47.486964687669555,
		"lng": 19.080367093254154,
		"address": "Szigony utca 12.",
		"postalCode": "1083",
		"city": "Budapest VIII.",
		"country": "Magyarország",
		"categories": [
			"Supermarket",
			"Grocery Store"
		]
	},
	{
		"date": "2012-12-16T23:10:45.000Z",
		"name": "Vattacukor Rezidencia",
		"id": "50434c04e4b03ccc1763379d",
		"lat": 47.48882521834965,
		"lng": 19.08135897878659,
		"city": "Budapest",
		"country": "Magyarország",
		"categories": [
			"Home (private)"
		]
	},
	{
		"date": "2012-12-17T14:38:21.000Z",
		"name": "WestEnd City Center",
		"id": "4bcc1b343740b71309846365",
		"lat": 47.51328376254626,
		"lng": 19.05914504127989,
		"address": "Váci út 1-3.",
		"postalCode": "1062",
		"city": "Budapest",
		"country": "Magyarország",
		"categories": [
			"Shopping Mall"
		]
	},
	{
		"date": "2012-12-17T14:38:58.000Z",
		"name": "CIB Bank",
		"id": "4c6916f68d22c928d642b645",
		"lat": 47.514160175838526,
		"lng": 19.059455176629132,
		"address": "Westend I.em., Pollack sétány 19.",
		"postalCode": "1062",
		"city": "Budapest",
		"country": "Magyarország",
		"categories": [
			"Bank"
		]
	},
	{
		"date": "2012-12-17T15:31:23.000Z",
		"name": "Harminckettesek tere (4, 6)",
		"id": "4c41fa8ce26920a1614f5fe7",
		"lat": 47.491346061078474,
		"lng": 19.07721140890305,
		"address": "József krt.",
		"postalCode": "1085",
		"city": "Budapest",
		"country": "Magyarország",
		"categories": [
			"Tram Station"
		]
	},
	{
		"date": "2012-12-17T15:31:32.000Z",
		"name": "Harminckettesek tere (9, 83, 109, 909)",
		"id": "4d45c5681b62b1f7248200e3",
		"lat": 47.489483785039134,
		"lng": 19.07141840391857,
		"address": "Baross u.",
		"postalCode": "1083",
		"city": "Budapest",
		"country": "Magyarország",
		"categories": [
			"Bus Stop"
		]
	},
	{
		"date": "2012-12-17T16:01:29.000Z",
		"name": "Losonci tér",
		"id": "4d9d5189a695721e11340f0d",
		"lat": 47.48958911031985,
		"lng": 19.08032029942558,
		"address": "Losonci tér",
		"postalCode": "1083",
		"city": "Budapest",
		"country": "Magyarország",
		"categories": [
			"Plaza",
			"Park"
		]
	},
	{
		"date": "2012-12-17T16:01:32.000Z",
		"name": "Vattacukor Rezidencia",
		"id": "50434c04e4b03ccc1763379d",
		"lat": 47.48882521834965,
		"lng": 19.08135897878659,
		"city": "Budapest",
		"country": "Magyarország",
		"categories": [
			"Home (private)"
		]
	},
	{
		"date": "2012-12-17T16:50:42.000Z",
		"name": "dm",
		"id": "4c15fec1a9c220a10de4599d",
		"lat": 47.48932443832361,
		"lng": 19.080645269017623,
		"address": "Baross utca 98.",
		"postalCode": "1082",
		"city": "Budapest",
		"country": "Magyarország",
		"categories": [
			"Cosmetics Shop"
		]
	},
	{
		"date": "2012-12-17T17:29:00.000Z",
		"name": "Corvin Plaza",
		"id": "4cc701eabe40a35d1d6a8d4c",
		"lat": 47.486046352980296,
		"lng": 19.07288581182118,
		"address": "Futó u. 37-45.",
		"postalCode": "1083",
		"city": "Budapest",
		"country": "Magyarország",
		"categories": [
			"Shopping Mall"
		]
	},
	{
		"date": "2012-12-17T17:29:45.000Z",
		"name": "Corvin Dumaszínház",
		"id": "4f3123714fc677646e78d598",
		"lat": 47.48576996433174,
		"lng": 19.075656056322988,
		"address": "Corvin sétány 1/b",
		"postalCode": "1083",
		"city": "Budapest",
		"country": "Magyarország",
		"categories": [
			"Comedy Club"
		]
	},
	{
		"date": "2012-12-18T08:05:25.000Z",
		"name": "Vattacukor Rezidencia",
		"id": "50434c04e4b03ccc1763379d",
		"lat": 47.48882521834965,
		"lng": 19.08135897878659,
		"city": "Budapest",
		"country": "Magyarország",
		"categories": [
			"Home (private)"
		]
	},
	{
		"date": "2012-12-19T07:25:42.000Z",
		"name": "Bem tér",
		"id": "4ca58b7da6e08cfa1b387294",
		"lat": 47.51205584131837,
		"lng": 19.03879165649414,
		"address": "Bem tér",
		"city": "Budapest",
		"country": "Magyarország",
		"categories": [
			"Park"
		]
	},
	{
		"date": "2012-12-19T09:07:55.000Z",
		"name": "RESIDENCE 1 Irodaház",
		"id": "4e6e0158fa768e6cee4d6eae",
		"lat": 47.50998991891814,
		"lng": 19.03644395337415,
		"address": "Kacsa u. 15-23.",
		"country": "Magyarország",
		"categories": [
			"Office"
		]
	},
	{
		"date": "2012-12-19T11:31:16.000Z",
		"name": "TESCO Hipermarket",
		"id": "4badf6f2f964a5202f763be3",
		"lat": 47.562805941227666,
		"lng": 19.0215917318142,
		"address": "Bécsi út 258.",
		"postalCode": "1037",
		"city": "Budapest",
		"country": "Magyarország",
		"categories": [
			"Supermarket"
		]
	},
	{
		"date": "2012-12-20T15:46:30.000Z",
		"name": "Corvin Plaza",
		"id": "4cc701eabe40a35d1d6a8d4c",
		"lat": 47.486046352980296,
		"lng": 19.07288581182118,
		"address": "Futó u. 37-45.",
		"postalCode": "1083",
		"city": "Budapest",
		"country": "Magyarország",
		"categories": [
			"Shopping Mall"
		]
	},
	{
		"date": "2012-12-20T15:55:34.000Z",
		"name": "CBA Príma",
		"id": "4cd037a59d87224b14ce533b",
		"lat": 47.48601991975846,
		"lng": 19.073800320225235,
		"address": "Corvin Bevásárlóközpont",
		"postalCode": "1085",
		"city": "Budapest",
		"country": "Magyarország",
		"categories": [
			"Grocery Store"
		]
	},
	{
		"date": "2012-12-20T16:14:04.000Z",
		"name": "Vattacukor Rezidencia",
		"id": "50434c04e4b03ccc1763379d",
		"lat": 47.48882521834965,
		"lng": 19.08135897878659,
		"city": "Budapest",
		"country": "Magyarország",
		"categories": [
			"Home (private)"
		]
	},
	{
		"date": "2012-12-20T16:14:09.000Z",
		"name": "SPAR",
		"id": "4be83036c5220f476867a9ca",
		"lat": 47.486964687669555,
		"lng": 19.080367093254154,
		"address": "Szigony utca 12.",
		"postalCode": "1083",
		"city": "Budapest VIII.",
		"country": "Magyarország",
		"categories": [
			"Supermarket",
			"Grocery Store"
		]
	},
	{
		"date": "2012-12-21T12:20:25.000Z",
		"name": "Bem tér",
		"id": "4ca58b7da6e08cfa1b387294",
		"lat": 47.51205584131837,
		"lng": 19.03879165649414,
		"address": "Bem tér",
		"city": "Budapest",
		"country": "Magyarország",
		"categories": [
			"Park"
		]
	},
	{
		"date": "2012-12-21T12:20:33.000Z",
		"name": "Bem József tér (109, 960)",
		"id": "4e68e1d414954826addcd06f",
		"lat": 47.511790613872066,
		"lng": 19.038738012313843,
		"address": "Bem rkp.",
		"postalCode": "1013",
		"city": "Budapest",
		"country": "Magyarország",
		"categories": [
			"Bus Stop"
		]
	},
	{
		"date": "2012-12-21T12:21:01.000Z",
		"name": "Hotel Regnum Residence Front Office",
		"id": "5083de6be4b00dc4a2a27a81",
		"lat": 47.51088293578362,
		"lng": 19.03707643817461,
		"address": "Ganz utca 8.",
		"city": "Budapest",
		"country": "Magyarország",
		"categories": [
			"Building"
		]
	},
	{
		"date": "2012-12-21T21:09:47.000Z",
		"name": "Villa Polgar",
		"id": "4caaebc0965c9c74f70dcbfa",
		"lat": 47.671899642379415,
		"lng": 16.611052697881373,
		"city": "Sopron",
		"country": "Magyarország",
		"categories": [
			"Home (private)"
		]
	},
	{
		"date": "2012-12-22T13:33:46.000Z",
		"name": "AlphaPark",
		"id": "4e086ed6d22d658532ab9895",
		"lat": 47.67284854195521,
		"lng": 16.61173954192847,
		"address": "Határdomb u. 1-2.",
		"postalCode": "9400",
		"city": "Sopron",
		"country": "Magyarország",
		"categories": [
			"Shopping Mall"
		]
	},
	{
		"date": "2012-12-22T13:33:58.000Z",
		"name": "Baumax",
		"id": "4e6b4516483bf2d9e6957782",
		"lat": 47.67305911893741,
		"lng": 16.609828252361986,
		"address": "Virágfüzér út 2.",
		"postalCode": "9400",
		"city": "Sopron",
		"country": "Magyarország",
		"categories": [
			"Furniture / Home Store"
		]
	},
	{
		"date": "2012-12-22T14:42:26.000Z",
		"name": "Villa Polgar",
		"id": "4caaebc0965c9c74f70dcbfa",
		"lat": 47.671899642379415,
		"lng": 16.611052697881373,
		"city": "Sopron",
		"country": "Magyarország",
		"categories": [
			"Home (private)"
		]
	},
	{
		"date": "2012-12-23T10:55:32.000Z",
		"name": "AlphaPark",
		"id": "4e086ed6d22d658532ab9895",
		"lat": 47.67284854195521,
		"lng": 16.61173954192847,
		"address": "Határdomb u. 1-2.",
		"postalCode": "9400",
		"city": "Sopron",
		"country": "Magyarország",
		"categories": [
			"Shopping Mall"
		]
	},
	{
		"date": "2012-12-23T10:55:39.000Z",
		"name": "Baumax",
		"id": "4e6b4516483bf2d9e6957782",
		"lat": 47.67305911893741,
		"lng": 16.609828252361986,
		"address": "Virágfüzér út 2.",
		"postalCode": "9400",
		"city": "Sopron",
		"country": "Magyarország",
		"categories": [
			"Furniture / Home Store"
		]
	},
	{
		"date": "2012-12-23T11:45:21.000Z",
		"name": "Natura fitt",
		"id": "501bd0b1e4b07af9f3668728",
		"lat": 47.67579620806769,
		"lng": 16.609582436522807,
		"country": "Magyarország",
		"categories": [
			"Salon / Barbershop"
		]
	},
	{
		"date": "2012-12-23T17:13:00.000Z",
		"name": "Villa Polgar",
		"id": "4caaebc0965c9c74f70dcbfa",
		"lat": 47.671899642379415,
		"lng": 16.611052697881373,
		"city": "Sopron",
		"country": "Magyarország",
		"categories": [
			"Home (private)"
		]
	},
	{
		"date": "2012-12-25T20:53:25.000Z",
		"name": "Sopron vasútállomás",
		"id": "4bd6fe6529eb9c749dee95e1",
		"lat": 47.67771249028291,
		"lng": 16.58738136291504,
		"address": "Állomás u. 2.",
		"postalCode": "9400",
		"city": "Sopron",
		"country": "Magyarország",
		"categories": [
			"Train Station"
		]
	},
	{
		"date": "2012-12-26T10:45:14.000Z",
		"name": "Villa Polgar",
		"id": "4caaebc0965c9c74f70dcbfa",
		"lat": 47.671899642379415,
		"lng": 16.611052697881373,
		"city": "Sopron",
		"country": "Magyarország",
		"categories": [
			"Home (private)"
		]
	},
	{
		"date": "2012-12-29T10:22:57.000Z",
		"name": "Vértes Center",
		"id": "4cf26461e9425481f2f46fc5",
		"lat": 47.58627385111341,
		"lng": 18.393827125687846,
		"address": "Győri út 7-9.",
		"postalCode": "2800",
		"city": "Tatabánya",
		"country": "Magyarország",
		"categories": [
			"Shopping Mall"
		]
	},
	{
		"date": "2012-12-29T17:48:59.000Z",
		"name": "Ciano Kúria",
		"id": "502e1ee2e4b00d67edf0008f",
		"lat": 47.54498888001689,
		"lng": 18.264753297830538,
		"country": "Magyarország",
		"categories": [
			"Home (private)"
		]
	},
	{
		"date": "2012-12-29T17:49:47.000Z",
		"name": "Mordor 2",
		"id": "4e46adc745dd2955e59aa8ef",
		"lat": 47.54498888001689,
		"lng": 18.264753297830538,
		"country": "Magyarország",
		"categories": [
			"Home (private)"
		]
	},
	{
		"date": "2012-12-29T17:50:02.000Z",
		"name": "Kömlőd",
		"id": "503b8c5ae4b0d21c218fe9eb",
		"lat": 47.546862852392515,
		"lng": 18.26221506721866,
		"postalCode": "2853",
		"city": "Kömlőd",
		"country": "Magyarország",
		"categories": [
			"Farm"
		]
	},
	{
		"date": "2012-12-30T19:33:45.000Z",
		"name": "Vattacukor Rezidencia",
		"id": "50434c04e4b03ccc1763379d",
		"lat": 47.48882521834965,
		"lng": 19.08135897878659,
		"city": "Budapest",
		"country": "Magyarország",
		"categories": [
			"Home (private)"
		]
	}
]