[
	{
		"date": "2015-10-06T08:55:15.000Z",
		"name": "Docler Holding",
		"id": "52cbb89a11d243c791c37510",
		"lat": 49.6317381171169,
		"lng": 6.17131892913784,
		"address": "44, Avenue John F. Kennedy",
		"postalCode": "1855",
		"city": "Lëtzebuerg",
		"country": "Lëtzebuerg",
		"categories": [
			"Tech Startup"
		]
	},
	{
		"date": "2015-10-06T10:40:35.000Z",
		"name": "Auchan",
		"id": "4b43c3bbf964a52006e925e3",
		"lat": 49.63357679951604,
		"lng": 6.169896125793457,
		"address": "5 rue Alphonse Weicker",
		"postalCode": "2721",
		"city": "Lëtzebuerg",
		"country": "Lëtzebuerg",
		"categories": [
			"Shopping Mall",
			"Supermarket"
		]
	},
	{
		"date": "2015-10-06T11:21:26.000Z",
		"name": "Docler Holding",
		"id": "52cbb89a11d243c791c37510",
		"lat": 49.6317381171169,
		"lng": 6.17131892913784,
		"address": "44, Avenue John F. Kennedy",
		"postalCode": "1855",
		"city": "Lëtzebuerg",
		"country": "Lëtzebuerg",
		"categories": [
			"Tech Startup"
		]
	},
	{
		"date": "2015-10-06T18:57:39.000Z",
		"name": "Walzwerk Trier",
		"id": "56141981498e1a81bdcc0adb",
		"lat": 49.761181705310634,
		"lng": 6.658743322662083,
		"address": "Brühlstraße 14",
		"postalCode": "54295",
		"city": "Trier",
		"country": "Deutschland",
		"categories": [
			"Indie Theater"
		]
	},
	{
		"date": "2015-10-06T21:09:13.000Z",
		"name": "Cotton Candy Residence 5",
		"id": "5614386e498e5c4e8f4927d8",
		"lat": 49.75192729865979,
		"lng": 6.6370894371892835,
		"city": "Trier",
		"country": "Deutschland",
		"categories": [
			"Home (private)"
		]
	},
	{
		"date": "2015-10-07T06:46:34.000Z",
		"name": "Auchan",
		"id": "4b43c3bbf964a52006e925e3",
		"lat": 49.63357679951604,
		"lng": 6.169896125793457,
		"address": "5 rue Alphonse Weicker",
		"postalCode": "2721",
		"city": "Lëtzebuerg",
		"country": "Lëtzebuerg",
		"categories": [
			"Shopping Mall",
			"Supermarket"
		]
	},
	{
		"date": "2015-10-07T07:24:10.000Z",
		"name": "Docler Holding",
		"id": "52cbb89a11d243c791c37510",
		"lat": 49.6317381171169,
		"lng": 6.17131892913784,
		"address": "44, Avenue John F. Kennedy",
		"postalCode": "1855",
		"city": "Lëtzebuerg",
		"country": "Lëtzebuerg",
		"categories": [
			"Tech Startup"
		]
	},
	{
		"date": "2015-10-07T16:50:23.000Z",
		"name": "Kinepolis",
		"id": "4b4d6d86f964a52040d226e3",
		"lat": 49.63353601201701,
		"lng": 6.173125299780058,
		"address": "45 av. J.-F. Kennedy",
		"postalCode": "1855",
		"city": "Lëtzebuerg",
		"country": "Lëtzebuerg",
		"categories": [
			"Multiplex"
		]
	},
	{
		"date": "2015-10-07T21:19:55.000Z",
		"name": "Cotton Candy Residence 5",
		"id": "5614386e498e5c4e8f4927d8",
		"lat": 49.75192729865979,
		"lng": 6.6370894371892835,
		"city": "Trier",
		"country": "Deutschland",
		"categories": [
			"Home (private)"
		]
	},
	{
		"date": "2015-10-08T07:14:48.000Z",
		"name": "Auchan",
		"id": "4b43c3bbf964a52006e925e3",
		"lat": 49.63357679951604,
		"lng": 6.169896125793457,
		"address": "5 rue Alphonse Weicker",
		"postalCode": "2721",
		"city": "Lëtzebuerg",
		"country": "Lëtzebuerg",
		"categories": [
			"Shopping Mall",
			"Supermarket"
		]
	},
	{
		"date": "2015-10-08T07:54:29.000Z",
		"name": "Docler Holding",
		"id": "52cbb89a11d243c791c37510",
		"lat": 49.6317381171169,
		"lng": 6.17131892913784,
		"address": "44, Avenue John F. Kennedy",
		"postalCode": "1855",
		"city": "Lëtzebuerg",
		"country": "Lëtzebuerg",
		"categories": [
			"Tech Startup"
		]
	},
	{
		"date": "2015-10-08T19:22:37.000Z",
		"name": "Cotton Candy Residence 5",
		"id": "5614386e498e5c4e8f4927d8",
		"lat": 49.75192729865979,
		"lng": 6.6370894371892835,
		"city": "Trier",
		"country": "Deutschland",
		"categories": [
			"Home (private)"
		]
	},
	{
		"date": "2015-10-09T07:11:12.000Z",
		"name": "Docler Holding",
		"id": "52cbb89a11d243c791c37510",
		"lat": 49.6317381171169,
		"lng": 6.17131892913784,
		"address": "44, Avenue John F. Kennedy",
		"postalCode": "1855",
		"city": "Lëtzebuerg",
		"country": "Lëtzebuerg",
		"categories": [
			"Tech Startup"
		]
	},
	{
		"date": "2015-10-09T15:55:17.000Z",
		"name": "Cotton Candy Residence 5",
		"id": "5614386e498e5c4e8f4927d8",
		"lat": 49.75192729865979,
		"lng": 6.6370894371892835,
		"city": "Trier",
		"country": "Deutschland",
		"categories": [
			"Home (private)"
		]
	},
	{
		"date": "2015-10-09T18:17:41.000Z",
		"name": "Kartoffelkiste",
		"id": "4c40b95eff711b8d14d61005",
		"lat": 49.753548843088936,
		"lng": 6.638939380645752,
		"address": "Fahrstraße 13-14",
		"postalCode": "54290",
		"city": "Trier",
		"country": "Deutschland",
		"categories": [
			"German Restaurant"
		]
	},
	{
		"date": "2015-10-10T09:17:50.000Z",
		"name": "Kornmarkt",
		"id": "4c2888799fb5d13a8da39957",
		"lat": 49.755001051216105,
		"lng": 6.639045141296845,
		"address": "Kornmarkt",
		"postalCode": "54290",
		"city": "Trier",
		"country": "Deutschland",
		"categories": [
			"Plaza"
		]
	},
	{
		"date": "2015-10-10T09:41:33.000Z",
		"name": "Mango Man",
		"id": "5618dd45498e249ea7c2115f",
		"lat": 49.756166,
		"lng": 6.641112,
		"address": "Grabenstraße 1",
		"postalCode": "54290",
		"city": "Trier",
		"country": "Deutschland",
		"categories": [
			"Men's Store"
		]
	},
	{
		"date": "2015-10-10T13:56:40.000Z",
		"name": "Cotton Candy Residence 5",
		"id": "5614386e498e5c4e8f4927d8",
		"lat": 49.75192729865979,
		"lng": 6.6370894371892835,
		"city": "Trier",
		"country": "Deutschland",
		"categories": [
			"Home (private)"
		]
	},
	{
		"date": "2015-10-11T12:06:59.000Z",
		"name": "Donna Mia",
		"id": "51598f91e4b0d2c6090a7b54",
		"lat": 49.75500592385751,
		"lng": 6.638961343018671,
		"address": "Am Kornmarkt 3",
		"postalCode": "54290",
		"city": "Trier",
		"country": "Deutschland",
		"categories": [
			"Italian Restaurant"
		]
	},
	{
		"date": "2015-10-11T13:01:27.000Z",
		"name": "Nikos Café",
		"id": "4b9be505f964a520a33236e3",
		"lat": 49.75504273805265,
		"lng": 6.639054807311343,
		"address": "Kornmarkt 10",
		"postalCode": "54290",
		"city": "Trier",
		"country": "Deutschland",
		"categories": [
			"Café",
			"Restaurant"
		]
	},
	{
		"date": "2015-10-11T17:38:37.000Z",
		"name": "Cotton Candy Residence 5",
		"id": "5614386e498e5c4e8f4927d8",
		"lat": 49.75192729865979,
		"lng": 6.6370894371892835,
		"city": "Trier",
		"country": "Deutschland",
		"categories": [
			"Home (private)"
		]
	},
	{
		"date": "2015-10-12T06:52:55.000Z",
		"name": "Auchan",
		"id": "4b43c3bbf964a52006e925e3",
		"lat": 49.63357679951604,
		"lng": 6.169896125793457,
		"address": "5 rue Alphonse Weicker",
		"postalCode": "2721",
		"city": "Lëtzebuerg",
		"country": "Lëtzebuerg",
		"categories": [
			"Shopping Mall",
			"Supermarket"
		]
	},
	{
		"date": "2015-10-12T07:07:42.000Z",
		"name": "Docler Holding",
		"id": "52cbb89a11d243c791c37510",
		"lat": 49.6317381171169,
		"lng": 6.17131892913784,
		"address": "44, Avenue John F. Kennedy",
		"postalCode": "1855",
		"city": "Lëtzebuerg",
		"country": "Lëtzebuerg",
		"categories": [
			"Tech Startup"
		]
	},
	{
		"date": "2015-10-12T16:44:05.000Z",
		"name": "Cotton Candy Residence 5",
		"id": "5614386e498e5c4e8f4927d8",
		"lat": 49.75192729865979,
		"lng": 6.6370894371892835,
		"city": "Trier",
		"country": "Deutschland",
		"categories": [
			"Home (private)"
		]
	},
	{
		"date": "2015-10-13T05:12:35.000Z",
		"name": "Römerbrücke",
		"id": "4cbe8182b6c4224bb4c2ed94",
		"lat": 49.75195107120467,
		"lng": 6.6263651847839355,
		"address": "Römerbrücke",
		"postalCode": "54290",
		"city": "Trier",
		"country": "Deutschland",
		"categories": [
			"Bridge"
		]
	},
	{
		"date": "2015-10-13T07:11:54.000Z",
		"name": "Auchan",
		"id": "4b43c3bbf964a52006e925e3",
		"lat": 49.63357679951604,
		"lng": 6.169896125793457,
		"address": "5 rue Alphonse Weicker",
		"postalCode": "2721",
		"city": "Lëtzebuerg",
		"country": "Lëtzebuerg",
		"categories": [
			"Shopping Mall",
			"Supermarket"
		]
	},
	{
		"date": "2015-10-13T07:24:44.000Z",
		"name": "Docler Holding",
		"id": "52cbb89a11d243c791c37510",
		"lat": 49.6317381171169,
		"lng": 6.17131892913784,
		"address": "44, Avenue John F. Kennedy",
		"postalCode": "1855",
		"city": "Lëtzebuerg",
		"country": "Lëtzebuerg",
		"categories": [
			"Tech Startup"
		]
	},
	{
		"date": "2015-10-13T18:04:47.000Z",
		"name": "Cotton Candy Residence 5",
		"id": "5614386e498e5c4e8f4927d8",
		"lat": 49.75192729865979,
		"lng": 6.6370894371892835,
		"city": "Trier",
		"country": "Deutschland",
		"categories": [
			"Home (private)"
		]
	},
	{
		"date": "2015-10-14T05:14:37.000Z",
		"name": "Römerbrücke",
		"id": "4cbe8182b6c4224bb4c2ed94",
		"lat": 49.75195107120467,
		"lng": 6.6263651847839355,
		"address": "Römerbrücke",
		"postalCode": "54290",
		"city": "Trier",
		"country": "Deutschland",
		"categories": [
			"Bridge"
		]
	},
	{
		"date": "2015-10-14T07:02:00.000Z",
		"name": "Auchan",
		"id": "4b43c3bbf964a52006e925e3",
		"lat": 49.63357679951604,
		"lng": 6.169896125793457,
		"address": "5 rue Alphonse Weicker",
		"postalCode": "2721",
		"city": "Lëtzebuerg",
		"country": "Lëtzebuerg",
		"categories": [
			"Shopping Mall",
			"Supermarket"
		]
	},
	{
		"date": "2015-10-14T07:08:25.000Z",
		"name": "Docler Holding",
		"id": "52cbb89a11d243c791c37510",
		"lat": 49.6317381171169,
		"lng": 6.17131892913784,
		"address": "44, Avenue John F. Kennedy",
		"postalCode": "1855",
		"city": "Lëtzebuerg",
		"country": "Lëtzebuerg",
		"categories": [
			"Tech Startup"
		]
	},
	{
		"date": "2015-10-14T17:30:46.000Z",
		"name": "Cotton Candy Residence 5",
		"id": "5614386e498e5c4e8f4927d8",
		"lat": 49.75192729865979,
		"lng": 6.6370894371892835,
		"city": "Trier",
		"country": "Deutschland",
		"categories": [
			"Home (private)"
		]
	},
	{
		"date": "2015-10-15T05:11:23.000Z",
		"name": "Römerbrücke",
		"id": "4cbe8182b6c4224bb4c2ed94",
		"lat": 49.75195107120467,
		"lng": 6.6263651847839355,
		"address": "Römerbrücke",
		"postalCode": "54290",
		"city": "Trier",
		"country": "Deutschland",
		"categories": [
			"Bridge"
		]
	},
	{
		"date": "2015-10-15T06:46:27.000Z",
		"name": "Auchan",
		"id": "4b43c3bbf964a52006e925e3",
		"lat": 49.63357679951604,
		"lng": 6.169896125793457,
		"address": "5 rue Alphonse Weicker",
		"postalCode": "2721",
		"city": "Lëtzebuerg",
		"country": "Lëtzebuerg",
		"categories": [
			"Shopping Mall",
			"Supermarket"
		]
	},
	{
		"date": "2015-10-15T08:52:50.000Z",
		"name": "Docler Holding",
		"id": "52cbb89a11d243c791c37510",
		"lat": 49.6317381171169,
		"lng": 6.17131892913784,
		"address": "44, Avenue John F. Kennedy",
		"postalCode": "1855",
		"city": "Lëtzebuerg",
		"country": "Lëtzebuerg",
		"categories": [
			"Tech Startup"
		]
	},
	{
		"date": "2015-10-15T08:57:27.000Z",
		"name": "Axento",
		"id": "4f8bc7f7e4b0e67b873a7fe9",
		"lat": 49.631671361079555,
		"lng": 6.171258741285815,
		"address": "44 avenue John F. Kennedy",
		"postalCode": "1855",
		"city": "Lëtzebuerg",
		"country": "Lëtzebuerg",
		"categories": [
			"Office"
		]
	},
	{
		"date": "2015-10-15T09:36:07.000Z",
		"name": "Docler Holding",
		"id": "52cbb89a11d243c791c37510",
		"lat": 49.6317381171169,
		"lng": 6.17131892913784,
		"address": "44, Avenue John F. Kennedy",
		"postalCode": "1855",
		"city": "Lëtzebuerg",
		"country": "Lëtzebuerg",
		"categories": [
			"Tech Startup"
		]
	},
	{
		"date": "2015-10-15T17:30:28.000Z",
		"name": "Moselufer",
		"id": "4fbba444e4b0d498b4133eca",
		"lat": 49.755455,
		"lng": 6.6287274,
		"address": "Krahnenufer",
		"postalCode": "54290",
		"city": "Trier",
		"country": "Deutschland",
		"categories": [
			"Waterfront"
		]
	},
	{
		"date": "2015-10-15T17:38:59.000Z",
		"name": "Cotton Candy Residence 5",
		"id": "5614386e498e5c4e8f4927d8",
		"lat": 49.75192729865979,
		"lng": 6.6370894371892835,
		"city": "Trier",
		"country": "Deutschland",
		"categories": [
			"Home (private)"
		]
	},
	{
		"date": "2015-10-16T05:07:49.000Z",
		"name": "Römerbrücke",
		"id": "4cbe8182b6c4224bb4c2ed94",
		"lat": 49.75195107120467,
		"lng": 6.6263651847839355,
		"address": "Römerbrücke",
		"postalCode": "54290",
		"city": "Trier",
		"country": "Deutschland",
		"categories": [
			"Bridge"
		]
	},
	{
		"date": "2015-10-16T06:47:03.000Z",
		"name": "Auchan",
		"id": "4b43c3bbf964a52006e925e3",
		"lat": 49.63357679951604,
		"lng": 6.169896125793457,
		"address": "5 rue Alphonse Weicker",
		"postalCode": "2721",
		"city": "Lëtzebuerg",
		"country": "Lëtzebuerg",
		"categories": [
			"Shopping Mall",
			"Supermarket"
		]
	},
	{
		"date": "2015-10-16T07:09:43.000Z",
		"name": "Docler Holding",
		"id": "52cbb89a11d243c791c37510",
		"lat": 49.6317381171169,
		"lng": 6.17131892913784,
		"address": "44, Avenue John F. Kennedy",
		"postalCode": "1855",
		"city": "Lëtzebuerg",
		"country": "Lëtzebuerg",
		"categories": [
			"Tech Startup"
		]
	},
	{
		"date": "2015-10-16T09:48:57.000Z",
		"name": "Café Coyote",
		"id": "4bcf445f462cb713715ed607",
		"lat": 49.63369918766768,
		"lng": 6.1733699425430295,
		"address": "45 Avenue J.-F. Kennedy",
		"postalCode": "1855",
		"city": "Lëtzebuerg",
		"country": "Lëtzebuerg",
		"categories": [
			"Bar",
			"American Restaurant"
		]
	},
	{
		"date": "2015-10-16T15:28:45.000Z",
		"name": "Cotton Candy Residence 5",
		"id": "5614386e498e5c4e8f4927d8",
		"lat": 49.75192729865979,
		"lng": 6.6370894371892835,
		"city": "Trier",
		"country": "Deutschland",
		"categories": [
			"Home (private)"
		]
	},
	{
		"date": "2015-10-16T18:29:11.000Z",
		"name": "Raststätte Reinhardshain Nord",
		"id": "4c08a491ffb8c9b6b4a16861",
		"lat": 50.623491721322296,
		"lng": 8.89519188180395,
		"address": "A 5",
		"postalCode": "35305",
		"city": "Grünberg",
		"country": "Deutschland",
		"categories": [
			"Rest Area",
			"Gas Station",
			"Restaurant"
		]
	},
	{
		"date": "2015-10-16T22:34:32.000Z",
		"name": "Pfullendorf",
		"id": "56217b71498e997b01206117",
		"lat": 51.007883,
		"lng": 10.722339,
		"country": "Deutschland",
		"categories": [
			"Housing Development"
		]
	},
	{
		"date": "2015-10-17T10:16:57.000Z",
		"name": "Wan Bao",
		"id": "4e7f66ecd22d7a570b10d932",
		"lat": 50.9423907838346,
		"lng": 10.700643360614777,
		"address": "Puschkinallee 3",
		"postalCode": "99867",
		"city": "Gotha",
		"country": "Deutschland",
		"categories": [
			"Chinese Restaurant"
		]
	},
	{
		"date": "2015-10-17T12:13:58.000Z",
		"name": "Thüringen-Park",
		"id": "4b79b578f964a520a80c2fe3",
		"lat": 51.0085560295509,
		"lng": 10.993583349228949,
		"address": "Nordhäuser Str. 73t",
		"postalCode": "99091",
		"city": "Erfurt",
		"country": "Deutschland",
		"categories": [
			"Shopping Mall"
		]
	},
	{
		"date": "2015-10-17T13:16:20.000Z",
		"name": "MediaMarkt",
		"id": "4cd595a42944b1f7e3f75dec",
		"lat": 51.0084461317959,
		"lng": 10.993652336458725,
		"address": "Nordhäuser Str. 73t",
		"postalCode": "99091",
		"city": "Erfurt",
		"country": "Deutschland",
		"categories": [
			"Electronics Store"
		]
	},
	{
		"date": "2015-10-17T13:22:36.000Z",
		"name": "Sternenbäck",
		"id": "519b6447498eb4f24592938c",
		"lat": 51.00811,
		"lng": 10.993774,
		"country": "Deutschland",
		"categories": [
			"Café"
		]
	},
	{
		"date": "2015-10-17T15:42:35.000Z",
		"name": "Bufleben",
		"id": "56128e04498ea85873cfc26b",
		"lat": 51.007883264027825,
		"lng": 10.722505637303524,
		"country": "Deutschland",
		"categories": [
			"Village"
		]
	},
	{
		"date": "2015-10-18T15:50:25.000Z",
		"name": "Raststätte Rimberg Nord",
		"id": "4d3c462b84d46ea8bd8bfc5c",
		"lat": 50.79286800447108,
		"lng": 9.473485497062063,
		"address": "A 5",
		"postalCode": "36287",
		"city": "Breitenbach am Herzberg",
		"country": "Deutschland",
		"categories": [
			"Rest Area",
			"Gastropub"
		]
	},
	{
		"date": "2015-10-18T18:31:00.000Z",
		"name": "Raststätte Elztal",
		"id": "4c7419cbd8948cfadf0c64da",
		"lat": 50.26517584380536,
		"lng": 7.225891549734943,
		"country": "Deutschland",
		"categories": [
			"Rest Area"
		]
	},
	{
		"date": "2015-10-18T19:39:20.000Z",
		"name": "Aussichtspunkt Petrisberg",
		"id": "4d975641b188721e1df60c37",
		"lat": 49.746935728209344,
		"lng": 6.653009761416176,
		"address": "Sickingenstr",
		"city": "Trier",
		"country": "Deutschland",
		"categories": [
			"Scenic Lookout"
		]
	},
	{
		"date": "2015-10-18T20:04:36.000Z",
		"name": "Cotton Candy Residence 5",
		"id": "5614386e498e5c4e8f4927d8",
		"lat": 49.75192729865979,
		"lng": 6.6370894371892835,
		"city": "Trier",
		"country": "Deutschland",
		"categories": [
			"Home (private)"
		]
	},
	{
		"date": "2015-10-18T20:53:07.000Z",
		"name": "Berliner Gemüse Kebap",
		"id": "526e76b811d262db3e73c534",
		"lat": 49.7575904628635,
		"lng": 6.640866162164985,
		"address": "Judengasse 4",
		"postalCode": "54290",
		"city": "Trier",
		"country": "Deutschland",
		"categories": [
			"Turkish Restaurant"
		]
	},
	{
		"date": "2015-10-18T21:22:54.000Z",
		"name": "Mai Tai",
		"id": "4eb5ef59dab4fe5111e422b5",
		"lat": 49.753610219589255,
		"lng": 6.6352601089965395,
		"address": "Brückenstraße 13",
		"city": "Trier",
		"country": "Deutschland",
		"categories": [
			"Hookah Bar"
		]
	},
	{
		"date": "2015-10-18T23:41:49.000Z",
		"name": "Cotton Candy Residence 5",
		"id": "5614386e498e5c4e8f4927d8",
		"lat": 49.75192729865979,
		"lng": 6.6370894371892835,
		"city": "Trier",
		"country": "Deutschland",
		"categories": [
			"Home (private)"
		]
	},
	{
		"date": "2015-10-19T06:53:09.000Z",
		"name": "Auchan",
		"id": "4b43c3bbf964a52006e925e3",
		"lat": 49.63357679951604,
		"lng": 6.169896125793457,
		"address": "5 rue Alphonse Weicker",
		"postalCode": "2721",
		"city": "Lëtzebuerg",
		"country": "Lëtzebuerg",
		"categories": [
			"Shopping Mall",
			"Supermarket"
		]
	},
	{
		"date": "2015-10-19T07:54:48.000Z",
		"name": "Docler Holding",
		"id": "52cbb89a11d243c791c37510",
		"lat": 49.6317381171169,
		"lng": 6.17131892913784,
		"address": "44, Avenue John F. Kennedy",
		"postalCode": "1855",
		"city": "Lëtzebuerg",
		"country": "Lëtzebuerg",
		"categories": [
			"Tech Startup"
		]
	},
	{
		"date": "2015-10-19T16:43:17.000Z",
		"name": "Cotton Candy Residence 5",
		"id": "5614386e498e5c4e8f4927d8",
		"lat": 49.75192729865979,
		"lng": 6.6370894371892835,
		"city": "Trier",
		"country": "Deutschland",
		"categories": [
			"Home (private)"
		]
	},
	{
		"date": "2015-10-20T06:51:40.000Z",
		"name": "Auchan",
		"id": "4b43c3bbf964a52006e925e3",
		"lat": 49.63357679951604,
		"lng": 6.169896125793457,
		"address": "5 rue Alphonse Weicker",
		"postalCode": "2721",
		"city": "Lëtzebuerg",
		"country": "Lëtzebuerg",
		"categories": [
			"Shopping Mall",
			"Supermarket"
		]
	},
	{
		"date": "2015-10-20T07:02:50.000Z",
		"name": "Docler Holding",
		"id": "52cbb89a11d243c791c37510",
		"lat": 49.6317381171169,
		"lng": 6.17131892913784,
		"address": "44, Avenue John F. Kennedy",
		"postalCode": "1855",
		"city": "Lëtzebuerg",
		"country": "Lëtzebuerg",
		"categories": [
			"Tech Startup"
		]
	},
	{
		"date": "2015-10-20T09:37:13.000Z",
		"name": "Auchan Snacking",
		"id": "56260b3b498ec7228731a346",
		"lat": 49.6327935192468,
		"lng": 6.170054092253696,
		"country": "Lëtzebuerg",
		"categories": [
			"Snack Place"
		]
	},
	{
		"date": "2015-10-20T10:46:51.000Z",
		"name": "Docler Holding",
		"id": "52cbb89a11d243c791c37510",
		"lat": 49.6317381171169,
		"lng": 6.17131892913784,
		"address": "44, Avenue John F. Kennedy",
		"postalCode": "1855",
		"city": "Lëtzebuerg",
		"country": "Lëtzebuerg",
		"categories": [
			"Tech Startup"
		]
	},
	{
		"date": "2015-10-20T17:14:24.000Z",
		"name": "Mj Pizzawelt",
		"id": "56267669498e50b91d9ba63f",
		"lat": 49.753866,
		"lng": 6.635823,
		"country": "Deutschland",
		"categories": [
			"Turkish Restaurant",
			"Kebab Restaurant"
		]
	},
	{
		"date": "2015-10-20T18:06:58.000Z",
		"name": "Cotton Candy Residence 5",
		"id": "5614386e498e5c4e8f4927d8",
		"lat": 49.75192729865979,
		"lng": 6.6370894371892835,
		"city": "Trier",
		"country": "Deutschland",
		"categories": [
			"Home (private)"
		]
	},
	{
		"date": "2015-10-21T06:55:15.000Z",
		"name": "Auchan",
		"id": "4b43c3bbf964a52006e925e3",
		"lat": 49.63357679951604,
		"lng": 6.169896125793457,
		"address": "5 rue Alphonse Weicker",
		"postalCode": "2721",
		"city": "Lëtzebuerg",
		"country": "Lëtzebuerg",
		"categories": [
			"Shopping Mall",
			"Supermarket"
		]
	},
	{
		"date": "2015-10-21T07:13:03.000Z",
		"name": "Docler Holding",
		"id": "52cbb89a11d243c791c37510",
		"lat": 49.6317381171169,
		"lng": 6.17131892913784,
		"address": "44, Avenue John F. Kennedy",
		"postalCode": "1855",
		"city": "Lëtzebuerg",
		"country": "Lëtzebuerg",
		"categories": [
			"Tech Startup"
		]
	},
	{
		"date": "2015-10-21T11:38:07.000Z",
		"name": "Auchan Snacking",
		"id": "56260b3b498ec7228731a346",
		"lat": 49.6327935192468,
		"lng": 6.170054092253696,
		"country": "Lëtzebuerg",
		"categories": [
			"Snack Place"
		]
	},
	{
		"date": "2015-10-21T14:20:51.000Z",
		"name": "Docler Holding",
		"id": "52cbb89a11d243c791c37510",
		"lat": 49.6317381171169,
		"lng": 6.17131892913784,
		"address": "44, Avenue John F. Kennedy",
		"postalCode": "1855",
		"city": "Lëtzebuerg",
		"country": "Lëtzebuerg",
		"categories": [
			"Tech Startup"
		]
	},
	{
		"date": "2015-10-21T21:30:58.000Z",
		"name": "Cotton Candy Residence 5",
		"id": "5614386e498e5c4e8f4927d8",
		"lat": 49.75192729865979,
		"lng": 6.6370894371892835,
		"city": "Trier",
		"country": "Deutschland",
		"categories": [
			"Home (private)"
		]
	},
	{
		"date": "2015-10-22T06:44:23.000Z",
		"name": "Auchan",
		"id": "4b43c3bbf964a52006e925e3",
		"lat": 49.63357679951604,
		"lng": 6.169896125793457,
		"address": "5 rue Alphonse Weicker",
		"postalCode": "2721",
		"city": "Lëtzebuerg",
		"country": "Lëtzebuerg",
		"categories": [
			"Shopping Mall",
			"Supermarket"
		]
	},
	{
		"date": "2015-10-22T08:43:46.000Z",
		"name": "Docler Holding",
		"id": "52cbb89a11d243c791c37510",
		"lat": 49.6317381171169,
		"lng": 6.17131892913784,
		"address": "44, Avenue John F. Kennedy",
		"postalCode": "1855",
		"city": "Lëtzebuerg",
		"country": "Lëtzebuerg",
		"categories": [
			"Tech Startup"
		]
	},
	{
		"date": "2015-10-22T10:13:55.000Z",
		"name": "OrientX",
		"id": "4b94eed9f964a5204e8834e3",
		"lat": 49.633586781634136,
		"lng": 6.169116659059767,
		"address": "5, rue Alphonse Weicker",
		"postalCode": "2721",
		"city": "Lëtzebuerg",
		"country": "Lëtzebuerg",
		"categories": [
			"Middle Eastern Restaurant",
			"Falafel Restaurant",
			"Turkish Restaurant"
		]
	},
	{
		"date": "2015-10-23T06:52:22.000Z",
		"name": "Auchan",
		"id": "4b43c3bbf964a52006e925e3",
		"lat": 49.63357679951604,
		"lng": 6.169896125793457,
		"address": "5 rue Alphonse Weicker",
		"postalCode": "2721",
		"city": "Lëtzebuerg",
		"country": "Lëtzebuerg",
		"categories": [
			"Shopping Mall",
			"Supermarket"
		]
	},
	{
		"date": "2015-10-23T07:22:07.000Z",
		"name": "Docler Holding",
		"id": "52cbb89a11d243c791c37510",
		"lat": 49.6317381171169,
		"lng": 6.17131892913784,
		"address": "44, Avenue John F. Kennedy",
		"postalCode": "1855",
		"city": "Lëtzebuerg",
		"country": "Lëtzebuerg",
		"categories": [
			"Tech Startup"
		]
	},
	{
		"date": "2015-10-23T11:51:53.000Z",
		"name": "Auchan Snacking",
		"id": "56260b3b498ec7228731a346",
		"lat": 49.6327935192468,
		"lng": 6.170054092253696,
		"country": "Lëtzebuerg",
		"categories": [
			"Snack Place"
		]
	},
	{
		"date": "2015-10-23T15:05:55.000Z",
		"name": "Cotton Candy Residence 5",
		"id": "5614386e498e5c4e8f4927d8",
		"lat": 49.75192729865979,
		"lng": 6.6370894371892835,
		"city": "Trier",
		"country": "Deutschland",
		"categories": [
			"Home (private)"
		]
	},
	{
		"date": "2015-10-24T09:33:30.000Z",
		"name": "Globus Baumarkt Trier",
		"id": "54f1b4e8498e19d7bc0c3514",
		"lat": 49.77207,
		"lng": 6.660959999999999,
		"address": "Castelforte-Str. 1",
		"postalCode": "54292",
		"city": "Trier",
		"country": "Deutschland",
		"categories": [
			"Hardware Store",
			"Garden Center",
			"Miscellaneous Shop"
		]
	},
	{
		"date": "2015-10-24T13:33:04.000Z",
		"name": "Trier Galerie",
		"id": "4bc2e26c74a9a5933ad0d3f6",
		"lat": 49.75574434830903,
		"lng": 6.638750525074942,
		"address": "Fleischstr. 62",
		"postalCode": "54290",
		"city": "Trier",
		"country": "Deutschland",
		"categories": [
			"Shopping Mall"
		]
	},
	{
		"date": "2015-10-24T13:34:44.000Z",
		"name": "REWE City",
		"id": "57a3a39c498e406b9d2fd43a",
		"lat": 49.755999119833014,
		"lng": 6.637973785400391,
		"address": "Fleischstr. 62-65",
		"postalCode": "54290",
		"city": "Trier",
		"country": "Deutschland",
		"categories": [
			"Supermarket"
		]
	},
	{
		"date": "2015-10-24T14:31:44.000Z",
		"name": "NORDSEE",
		"id": "4bcee46968f976b053a66683",
		"lat": 49.75525221,
		"lng": 6.640683,
		"address": "Brotstr. 6",
		"postalCode": "54290",
		"city": "Trier",
		"country": "Deutschland",
		"categories": [
			"Seafood Restaurant"
		]
	},
	{
		"date": "2015-10-24T14:37:11.000Z",
		"name": "Saturn",
		"id": "4bc07375f8219c74138eb110",
		"lat": 49.75841808348975,
		"lng": 6.642463803291321,
		"address": "Simeonstrasse 53",
		"postalCode": "54290",
		"city": "Trier",
		"country": "Deutschland",
		"categories": [
			"Electronics Store",
			"Miscellaneous Shop"
		]
	},
	{
		"date": "2015-10-24T14:51:33.000Z",
		"name": "Galeria Karstadt Kaufhof",
		"id": "4bced3cc29d4b713b916a9dc",
		"lat": 49.758402321262075,
		"lng": 6.642170291856277,
		"address": "Simeonstr. 53",
		"postalCode": "54290",
		"city": "Trier",
		"country": "Deutschland",
		"categories": [
			"Department Store"
		]
	},
	{
		"date": "2015-10-25T12:55:24.000Z",
		"name": "Piranha",
		"id": "4b9a9a2cf964a52065c535e3",
		"lat": 49.75289140088518,
		"lng": 6.633951045154068,
		"address": "Karl-Marx-Straße 17",
		"postalCode": "54290",
		"city": "Trier",
		"country": "Deutschland",
		"categories": [
			"Cocktail Bar"
		]
	},
	{
		"date": "2015-10-25T13:42:50.000Z",
		"name": "Reisser Musik",
		"id": "52601414498e9f22f4d7281c",
		"lat": 49.75473648154801,
		"lng": 6.637400385977946,
		"country": "Deutschland",
		"categories": [
			"Music Store"
		]
	},
	{
		"date": "2015-10-25T14:00:47.000Z",
		"name": "Mango Man",
		"id": "5618dd45498e249ea7c2115f",
		"lat": 49.756166,
		"lng": 6.641112,
		"address": "Grabenstraße 1",
		"postalCode": "54290",
		"city": "Trier",
		"country": "Deutschland",
		"categories": [
			"Men's Store"
		]
	},
	{
		"date": "2015-10-25T14:18:18.000Z",
		"name": "NORDSEE",
		"id": "4bcefb09cc8cd13a721cc5cf",
		"lat": 49.75736321133297,
		"lng": 6.641951155291467,
		"address": "Simeonstr. 41",
		"postalCode": "54290",
		"city": "Trier",
		"country": "Deutschland",
		"categories": [
			"Seafood Restaurant"
		]
	},
	{
		"date": "2015-10-25T14:46:00.000Z",
		"name": "Mambo",
		"id": "4dfb79ab1f6eeef806aaf518",
		"lat": 49.756887,
		"lng": 6.640493,
		"city": "Trier",
		"country": "Deutschland",
		"categories": [
			"Gift Shop"
		]
	},
	{
		"date": "2015-10-25T14:55:54.000Z",
		"name": "Cotton Candy Residence 5",
		"id": "5614386e498e5c4e8f4927d8",
		"lat": 49.75192729865979,
		"lng": 6.6370894371892835,
		"city": "Trier",
		"country": "Deutschland",
		"categories": [
			"Home (private)"
		]
	},
	{
		"date": "2015-10-26T08:02:45.000Z",
		"name": "Auchan",
		"id": "4b43c3bbf964a52006e925e3",
		"lat": 49.63357679951604,
		"lng": 6.169896125793457,
		"address": "5 rue Alphonse Weicker",
		"postalCode": "2721",
		"city": "Lëtzebuerg",
		"country": "Lëtzebuerg",
		"categories": [
			"Shopping Mall",
			"Supermarket"
		]
	},
	{
		"date": "2015-10-26T08:05:52.000Z",
		"name": "Docler Holding",
		"id": "52cbb89a11d243c791c37510",
		"lat": 49.6317381171169,
		"lng": 6.17131892913784,
		"address": "44, Avenue John F. Kennedy",
		"postalCode": "1855",
		"city": "Lëtzebuerg",
		"country": "Lëtzebuerg",
		"categories": [
			"Tech Startup"
		]
	},
	{
		"date": "2015-10-26T10:35:14.000Z",
		"name": "Auchan Snacking",
		"id": "56260b3b498ec7228731a346",
		"lat": 49.6327935192468,
		"lng": 6.170054092253696,
		"country": "Lëtzebuerg",
		"categories": [
			"Snack Place"
		]
	},
	{
		"date": "2015-10-26T18:34:10.000Z",
		"name": "Cotton Candy Residence 5",
		"id": "5614386e498e5c4e8f4927d8",
		"lat": 49.75192729865979,
		"lng": 6.6370894371892835,
		"city": "Trier",
		"country": "Deutschland",
		"categories": [
			"Home (private)"
		]
	},
	{
		"date": "2015-10-27T07:58:10.000Z",
		"name": "Docler Holding",
		"id": "52cbb89a11d243c791c37510",
		"lat": 49.6317381171169,
		"lng": 6.17131892913784,
		"address": "44, Avenue John F. Kennedy",
		"postalCode": "1855",
		"city": "Lëtzebuerg",
		"country": "Lëtzebuerg",
		"categories": [
			"Tech Startup"
		]
	},
	{
		"date": "2015-10-27T10:27:00.000Z",
		"name": "Auchan",
		"id": "4b43c3bbf964a52006e925e3",
		"lat": 49.63357679951604,
		"lng": 6.169896125793457,
		"address": "5 rue Alphonse Weicker",
		"postalCode": "2721",
		"city": "Lëtzebuerg",
		"country": "Lëtzebuerg",
		"categories": [
			"Shopping Mall",
			"Supermarket"
		]
	},
	{
		"date": "2015-10-27T18:29:40.000Z",
		"name": "Cotton Candy Residence 5",
		"id": "5614386e498e5c4e8f4927d8",
		"lat": 49.75192729865979,
		"lng": 6.6370894371892835,
		"city": "Trier",
		"country": "Deutschland",
		"categories": [
			"Home (private)"
		]
	},
	{
		"date": "2015-10-28T07:45:27.000Z",
		"name": "Auchan",
		"id": "4b43c3bbf964a52006e925e3",
		"lat": 49.63357679951604,
		"lng": 6.169896125793457,
		"address": "5 rue Alphonse Weicker",
		"postalCode": "2721",
		"city": "Lëtzebuerg",
		"country": "Lëtzebuerg",
		"categories": [
			"Shopping Mall",
			"Supermarket"
		]
	},
	{
		"date": "2015-10-28T08:41:18.000Z",
		"name": "Docler Holding",
		"id": "52cbb89a11d243c791c37510",
		"lat": 49.6317381171169,
		"lng": 6.17131892913784,
		"address": "44, Avenue John F. Kennedy",
		"postalCode": "1855",
		"city": "Lëtzebuerg",
		"country": "Lëtzebuerg",
		"categories": [
			"Tech Startup"
		]
	},
	{
		"date": "2015-10-28T10:45:16.000Z",
		"name": "Auchan Snacking",
		"id": "56260b3b498ec7228731a346",
		"lat": 49.6327935192468,
		"lng": 6.170054092253696,
		"country": "Lëtzebuerg",
		"categories": [
			"Snack Place"
		]
	},
	{
		"date": "2015-10-28T18:39:02.000Z",
		"name": "Cotton Candy Residence 5",
		"id": "5614386e498e5c4e8f4927d8",
		"lat": 49.75192729865979,
		"lng": 6.6370894371892835,
		"city": "Trier",
		"country": "Deutschland",
		"categories": [
			"Home (private)"
		]
	},
	{
		"date": "2015-10-29T08:05:07.000Z",
		"name": "Docler Holding",
		"id": "52cbb89a11d243c791c37510",
		"lat": 49.6317381171169,
		"lng": 6.17131892913784,
		"address": "44, Avenue John F. Kennedy",
		"postalCode": "1855",
		"city": "Lëtzebuerg",
		"country": "Lëtzebuerg",
		"categories": [
			"Tech Startup"
		]
	},
	{
		"date": "2015-10-29T10:38:24.000Z",
		"name": "McDonald's",
		"id": "4ee3c150490138df8c9047ba",
		"lat": 49.63355644536983,
		"lng": 6.173131320520858,
		"address": "45 Ave. J-f Kennedy",
		"postalCode": "1855",
		"city": "Lëtzebuerg",
		"country": "Lëtzebuerg",
		"categories": [
			"Fast Food Restaurant"
		]
	},
	{
		"date": "2015-10-29T14:31:43.000Z",
		"name": "Auchan",
		"id": "4b43c3bbf964a52006e925e3",
		"lat": 49.63357679951604,
		"lng": 6.169896125793457,
		"address": "5 rue Alphonse Weicker",
		"postalCode": "2721",
		"city": "Lëtzebuerg",
		"country": "Lëtzebuerg",
		"categories": [
			"Shopping Mall",
			"Supermarket"
		]
	},
	{
		"date": "2015-10-29T18:40:51.000Z",
		"name": "Melusina",
		"id": "4c01a907b58376b0ef8d443c",
		"lat": 49.61137894428399,
		"lng": 6.141337669983996,
		"address": "145, rue de la Tour Jacob",
		"postalCode": "1831",
		"city": "Lëtzebuerg",
		"country": "Lëtzebuerg",
		"categories": [
			"Nightclub"
		]
	},
	{
		"date": "2015-10-29T23:56:07.000Z",
		"name": "Cotton Candy Residence 5",
		"id": "5614386e498e5c4e8f4927d8",
		"lat": 49.75192729865979,
		"lng": 6.6370894371892835,
		"city": "Trier",
		"country": "Deutschland",
		"categories": [
			"Home (private)"
		]
	},
	{
		"date": "2015-10-30T09:46:21.000Z",
		"name": "Docler Holding",
		"id": "52cbb89a11d243c791c37510",
		"lat": 49.6317381171169,
		"lng": 6.17131892913784,
		"address": "44, Avenue John F. Kennedy",
		"postalCode": "1855",
		"city": "Lëtzebuerg",
		"country": "Lëtzebuerg",
		"categories": [
			"Tech Startup"
		]
	},
	{
		"date": "2015-10-30T12:25:08.000Z",
		"name": "Vapiano",
		"id": "4c51b35b3940be9a6a8e4e09",
		"lat": 49.63180649278271,
		"lng": 6.17125118616227,
		"address": "Avenue John F. Kennedy 44",
		"postalCode": "1855",
		"city": "Kirchberg",
		"country": "Lëtzebuerg",
		"categories": [
			"Italian Restaurant",
			"Mediterranean Restaurant"
		]
	},
	{
		"date": "2015-10-30T16:38:12.000Z",
		"name": "Cotton Candy Residence 5",
		"id": "5614386e498e5c4e8f4927d8",
		"lat": 49.75192729865979,
		"lng": 6.6370894371892835,
		"city": "Trier",
		"country": "Deutschland",
		"categories": [
			"Home (private)"
		]
	},
	{
		"date": "2015-10-31T11:50:42.000Z",
		"name": "Frisör X-Press",
		"id": "4be440757e2a76b05aab1c9b",
		"lat": 49.75467830862341,
		"lng": 6.637507929870502,
		"address": "Fleischstr. 29",
		"postalCode": "54290",
		"city": "Trier",
		"country": "Deutschland",
		"categories": [
			"Salon / Barbershop"
		]
	},
	{
		"date": "2015-10-31T11:57:38.000Z",
		"name": "Galeria Karstadt Kaufhof",
		"id": "4bced3cc29d4b713b916a9dc",
		"lat": 49.758402321262075,
		"lng": 6.642170291856277,
		"address": "Simeonstr. 53",
		"postalCode": "54290",
		"city": "Trier",
		"country": "Deutschland",
		"categories": [
			"Department Store"
		]
	},
	{
		"date": "2015-10-31T11:58:04.000Z",
		"name": "Saturn",
		"id": "4bc07375f8219c74138eb110",
		"lat": 49.75841808348975,
		"lng": 6.642463803291321,
		"address": "Simeonstrasse 53",
		"postalCode": "54290",
		"city": "Trier",
		"country": "Deutschland",
		"categories": [
			"Electronics Store",
			"Miscellaneous Shop"
		]
	},
	{
		"date": "2015-10-31T12:18:28.000Z",
		"name": "Kornmarkt",
		"id": "4c2888799fb5d13a8da39957",
		"lat": 49.755001051216105,
		"lng": 6.639045141296845,
		"address": "Kornmarkt",
		"postalCode": "54290",
		"city": "Trier",
		"country": "Deutschland",
		"categories": [
			"Plaza"
		]
	},
	{
		"date": "2015-10-31T15:29:33.000Z",
		"name": "H&M",
		"id": "4d1c77ddc50e6ea804b5d2b8",
		"lat": 49.756784969730255,
		"lng": 6.641383972252984,
		"address": "Domfreihof 1",
		"postalCode": "54290",
		"city": "Trier",
		"country": "Deutschland",
		"categories": [
			"Clothing Store"
		]
	},
	{
		"date": "2015-10-31T15:35:41.000Z",
		"name": "Mambo",
		"id": "4dfb79ab1f6eeef806aaf518",
		"lat": 49.756887,
		"lng": 6.640493,
		"city": "Trier",
		"country": "Deutschland",
		"categories": [
			"Gift Shop"
		]
	},
	{
		"date": "2015-10-31T16:02:16.000Z",
		"name": "Cotton Candy Residence 5",
		"id": "5614386e498e5c4e8f4927d8",
		"lat": 49.75192729865979,
		"lng": 6.6370894371892835,
		"city": "Trier",
		"country": "Deutschland",
		"categories": [
			"Home (private)"
		]
	}
]