[
	{
		"date": "2015-08-07T20:45:28.000Z",
		"name": "Telep Art Bar and Bistro",
		"id": "4dda90141838b8561d330b0e",
		"lat": 47.49814378711768,
		"lng": 19.05816091688116,
		"address": "Madách Imre u. 8.",
		"postalCode": "1075",
		"city": "Budapest",
		"country": "Magyarország",
		"categories": [
			"Bar",
			"Music Venue",
			"Restaurant"
		]
	},
	{
		"date": "2015-08-07T21:41:42.000Z",
		"name": "Akvárium klub",
		"id": "52fbb202498ebfa06326ef27",
		"lat": 47.49840207975642,
		"lng": 19.054216756404397,
		"address": "Erzsébet tér",
		"postalCode": "1051",
		"city": "Budapest",
		"country": "Magyarország",
		"categories": [
			"Concert Hall",
			"Bar"
		]
	},
	{
		"date": "2015-08-07T22:42:55.000Z",
		"name": "W35 ROM American & Mexican Grill Bar",
		"id": "5288ffd511d26592c29a6b99",
		"lat": 47.49831442841667,
		"lng": 19.06638354063034,
		"address": "Klauzál u. 21.",
		"postalCode": "1075",
		"city": "Budapest",
		"country": "Magyarország",
		"categories": [
			"Burger Joint",
			"American Restaurant",
			"Mexican Restaurant"
		]
	}
]