[
	{
		"date": "2014-05-01T17:00:18.000Z",
		"name": "Cotton Candy Residence 4",
		"id": "52a22aa9498e89ee46de6d01",
		"lat": 49.75121242954277,
		"lng": 6.6495358280281724,
		"city": "Trier",
		"country": "Deutschland",
		"categories": [
			"Home (private)"
		]
	},
	{
		"date": "2014-05-02T12:33:22.000Z",
		"name": "Grasmarktstraat / Rue du Marché aux Herbes (Grasmarktstraat)",
		"id": "4bdac3583904a5931b3a479e",
		"lat": 50.84707844661854,
		"lng": 4.353686571121216,
		"address": "Rue du Marché aux Herbes / Grasmarktstraat",
		"postalCode": "1000",
		"city": "Brussel",
		"country": "België",
		"categories": [
			"Road"
		]
	},
	{
		"date": "2014-05-02T12:33:46.000Z",
		"name": "Belgian Frit 'N Toast",
		"id": "52b6fd3a11d225bfaca2ce6a",
		"lat": 50.846249,
		"lng": 4.354702,
		"country": "België",
		"categories": [
			"Friterie"
		]
	},
	{
		"date": "2014-05-02T14:42:57.000Z",
		"name": "Atomium",
		"id": "4ade0d7ff964a520ea6b21e3",
		"lat": 50.89495444433718,
		"lng": 4.341513925772141,
		"address": "Square de l'Atomiumsquare",
		"postalCode": "1020",
		"city": "Laken",
		"country": "België",
		"categories": [
			"Monument / Landmark",
			"Outdoor Sculpture"
		]
	},
	{
		"date": "2014-05-03T08:01:58.000Z",
		"name": "Le Pain Quotidien",
		"id": "4ade0daaf964a520cf6c21e3",
		"lat": 50.84004,
		"lng": 4.35536,
		"address": "Rue des Sablons 11",
		"postalCode": "1000",
		"city": "Brussel",
		"country": "België",
		"categories": [
			"Bakery",
			"Breakfast Spot",
			"Sandwich Place"
		]
	},
	{
		"date": "2014-05-03T10:05:05.000Z",
		"name": "EXKi",
		"id": "4c727d4d0e23b1f726d41ddc",
		"lat": 50.842369,
		"lng": 4.384814,
		"address": "Wetstraat 232 Rue de la Loi",
		"postalCode": "1000",
		"city": "Brussel",
		"country": "België",
		"categories": [
			"Sandwich Place",
			"Vegetarian / Vegan Restaurant",
			"Salad Place"
		]
	},
	{
		"date": "2014-05-03T10:05:55.000Z",
		"name": "European Parliament (Europees Parlement)",
		"id": "4b9f36f5f964a520371837e3",
		"lat": 50.838989,
		"lng": 4.374812,
		"address": "Rue Wiertzstraat 60",
		"postalCode": "1047",
		"city": "Brussel",
		"country": "België",
		"categories": [
			"Capitol Building"
		]
	},
	{
		"date": "2014-05-04T17:21:05.000Z",
		"name": "Cotton Candy Residence 4",
		"id": "52a22aa9498e89ee46de6d01",
		"lat": 49.75121242954277,
		"lng": 6.6495358280281724,
		"city": "Trier",
		"country": "Deutschland",
		"categories": [
			"Home (private)"
		]
	},
	{
		"date": "2014-05-05T06:40:05.000Z",
		"name": "Docler Holding",
		"id": "52cbb89a11d243c791c37510",
		"lat": 49.6317381171169,
		"lng": 6.17131892913784,
		"address": "44, Avenue John F. Kennedy",
		"postalCode": "1855",
		"city": "Lëtzebuerg",
		"country": "Lëtzebuerg",
		"categories": [
			"Tech Startup"
		]
	},
	{
		"date": "2014-05-05T17:47:14.000Z",
		"name": "Cotton Candy Residence 4",
		"id": "52a22aa9498e89ee46de6d01",
		"lat": 49.75121242954277,
		"lng": 6.6495358280281724,
		"city": "Trier",
		"country": "Deutschland",
		"categories": [
			"Home (private)"
		]
	},
	{
		"date": "2014-05-06T12:12:12.000Z",
		"name": "Docler Holding",
		"id": "52cbb89a11d243c791c37510",
		"lat": 49.6317381171169,
		"lng": 6.17131892913784,
		"address": "44, Avenue John F. Kennedy",
		"postalCode": "1855",
		"city": "Lëtzebuerg",
		"country": "Lëtzebuerg",
		"categories": [
			"Tech Startup"
		]
	},
	{
		"date": "2014-05-06T16:50:27.000Z",
		"name": "Porta Nigra",
		"id": "4b4db8b3f964a52049d626e3",
		"lat": 49.7593832564217,
		"lng": 6.643506476073801,
		"address": "Porta-Nigra-Platz",
		"postalCode": "54290",
		"city": "Trier",
		"country": "Deutschland",
		"categories": [
			"Historic Site",
			"Monument / Landmark"
		]
	},
	{
		"date": "2014-05-06T16:51:02.000Z",
		"name": "Vitas",
		"id": "4f393856e4b00af17bd31de9",
		"lat": 49.755693,
		"lng": 6.638858,
		"address": "Trier Galerie",
		"city": "Trier",
		"country": "Deutschland",
		"categories": [
			"Dentist's Office"
		]
	},
	{
		"date": "2014-05-07T07:39:00.000Z",
		"name": "Docler Holding",
		"id": "52cbb89a11d243c791c37510",
		"lat": 49.6317381171169,
		"lng": 6.17131892913784,
		"address": "44, Avenue John F. Kennedy",
		"postalCode": "1855",
		"city": "Lëtzebuerg",
		"country": "Lëtzebuerg",
		"categories": [
			"Tech Startup"
		]
	},
	{
		"date": "2014-05-07T18:17:24.000Z",
		"name": "Cotton Candy Residence 4",
		"id": "52a22aa9498e89ee46de6d01",
		"lat": 49.75121242954277,
		"lng": 6.6495358280281724,
		"city": "Trier",
		"country": "Deutschland",
		"categories": [
			"Home (private)"
		]
	},
	{
		"date": "2014-05-08T07:22:35.000Z",
		"name": "Docler Holding",
		"id": "52cbb89a11d243c791c37510",
		"lat": 49.6317381171169,
		"lng": 6.17131892913784,
		"address": "44, Avenue John F. Kennedy",
		"postalCode": "1855",
		"city": "Lëtzebuerg",
		"country": "Lëtzebuerg",
		"categories": [
			"Tech Startup"
		]
	},
	{
		"date": "2014-05-08T18:58:04.000Z",
		"name": "Cotton Candy Residence 4",
		"id": "52a22aa9498e89ee46de6d01",
		"lat": 49.75121242954277,
		"lng": 6.6495358280281724,
		"city": "Trier",
		"country": "Deutschland",
		"categories": [
			"Home (private)"
		]
	},
	{
		"date": "2014-05-09T06:45:38.000Z",
		"name": "Auchan",
		"id": "4b43c3bbf964a52006e925e3",
		"lat": 49.63357679951604,
		"lng": 6.169896125793457,
		"address": "5 rue Alphonse Weicker",
		"postalCode": "2721",
		"city": "Lëtzebuerg",
		"country": "Lëtzebuerg",
		"categories": [
			"Shopping Mall",
			"Supermarket"
		]
	},
	{
		"date": "2014-05-09T12:43:42.000Z",
		"name": "Docler Holding",
		"id": "52cbb89a11d243c791c37510",
		"lat": 49.6317381171169,
		"lng": 6.17131892913784,
		"address": "44, Avenue John F. Kennedy",
		"postalCode": "1855",
		"city": "Lëtzebuerg",
		"country": "Lëtzebuerg",
		"categories": [
			"Tech Startup"
		]
	},
	{
		"date": "2014-05-09T20:38:34.000Z",
		"name": "Cotton Candy Residence 4",
		"id": "52a22aa9498e89ee46de6d01",
		"lat": 49.75121242954277,
		"lng": 6.6495358280281724,
		"city": "Trier",
		"country": "Deutschland",
		"categories": [
			"Home (private)"
		]
	},
	{
		"date": "2014-05-12T07:14:55.000Z",
		"name": "Docler Holding",
		"id": "52cbb89a11d243c791c37510",
		"lat": 49.6317381171169,
		"lng": 6.17131892913784,
		"address": "44, Avenue John F. Kennedy",
		"postalCode": "1855",
		"city": "Lëtzebuerg",
		"country": "Lëtzebuerg",
		"categories": [
			"Tech Startup"
		]
	},
	{
		"date": "2014-05-12T21:05:28.000Z",
		"name": "Cotton Candy Residence 4",
		"id": "52a22aa9498e89ee46de6d01",
		"lat": 49.75121242954277,
		"lng": 6.6495358280281724,
		"city": "Trier",
		"country": "Deutschland",
		"categories": [
			"Home (private)"
		]
	},
	{
		"date": "2014-05-13T08:14:58.000Z",
		"name": "Docler Holding",
		"id": "52cbb89a11d243c791c37510",
		"lat": 49.6317381171169,
		"lng": 6.17131892913784,
		"address": "44, Avenue John F. Kennedy",
		"postalCode": "1855",
		"city": "Lëtzebuerg",
		"country": "Lëtzebuerg",
		"categories": [
			"Tech Startup"
		]
	},
	{
		"date": "2014-05-13T18:53:18.000Z",
		"name": "Cotton Candy Residence 4",
		"id": "52a22aa9498e89ee46de6d01",
		"lat": 49.75121242954277,
		"lng": 6.6495358280281724,
		"city": "Trier",
		"country": "Deutschland",
		"categories": [
			"Home (private)"
		]
	},
	{
		"date": "2014-05-14T07:46:06.000Z",
		"name": "Docler Holding",
		"id": "52cbb89a11d243c791c37510",
		"lat": 49.6317381171169,
		"lng": 6.17131892913784,
		"address": "44, Avenue John F. Kennedy",
		"postalCode": "1855",
		"city": "Lëtzebuerg",
		"country": "Lëtzebuerg",
		"categories": [
			"Tech Startup"
		]
	},
	{
		"date": "2014-05-14T20:38:18.000Z",
		"name": "Cotton Candy Residence 4",
		"id": "52a22aa9498e89ee46de6d01",
		"lat": 49.75121242954277,
		"lng": 6.6495358280281724,
		"city": "Trier",
		"country": "Deutschland",
		"categories": [
			"Home (private)"
		]
	},
	{
		"date": "2014-05-15T22:22:12.000Z",
		"name": "Cotton Candy Residence 4",
		"id": "52a22aa9498e89ee46de6d01",
		"lat": 49.75121242954277,
		"lng": 6.6495358280281724,
		"city": "Trier",
		"country": "Deutschland",
		"categories": [
			"Home (private)"
		]
	},
	{
		"date": "2014-05-16T06:51:25.000Z",
		"name": "Docler Holding",
		"id": "52cbb89a11d243c791c37510",
		"lat": 49.6317381171169,
		"lng": 6.17131892913784,
		"address": "44, Avenue John F. Kennedy",
		"postalCode": "1855",
		"city": "Lëtzebuerg",
		"country": "Lëtzebuerg",
		"categories": [
			"Tech Startup"
		]
	},
	{
		"date": "2014-05-16T21:23:24.000Z",
		"name": "Cotton Candy Residence 4",
		"id": "52a22aa9498e89ee46de6d01",
		"lat": 49.75121242954277,
		"lng": 6.6495358280281724,
		"city": "Trier",
		"country": "Deutschland",
		"categories": [
			"Home (private)"
		]
	},
	{
		"date": "2014-05-19T05:14:27.000Z",
		"name": "Sparkasse Trier (Theodor-Heuss-Allee)",
		"id": "4bcc7ade3740b7138e0c6465",
		"lat": 49.759485789862126,
		"lng": 6.645067863852004,
		"address": "Theodor-Heuss-Allee 1",
		"postalCode": "54292",
		"city": "Trier",
		"country": "Deutschland",
		"categories": [
			"Bank"
		]
	},
	{
		"date": "2014-05-19T06:44:58.000Z",
		"name": "Docler Holding",
		"id": "52cbb89a11d243c791c37510",
		"lat": 49.6317381171169,
		"lng": 6.17131892913784,
		"address": "44, Avenue John F. Kennedy",
		"postalCode": "1855",
		"city": "Lëtzebuerg",
		"country": "Lëtzebuerg",
		"categories": [
			"Tech Startup"
		]
	},
	{
		"date": "2014-05-19T21:16:46.000Z",
		"name": "Cotton Candy Residence 4",
		"id": "52a22aa9498e89ee46de6d01",
		"lat": 49.75121242954277,
		"lng": 6.6495358280281724,
		"city": "Trier",
		"country": "Deutschland",
		"categories": [
			"Home (private)"
		]
	},
	{
		"date": "2014-05-20T15:05:50.000Z",
		"name": "Docler Holding",
		"id": "52cbb89a11d243c791c37510",
		"lat": 49.6317381171169,
		"lng": 6.17131892913784,
		"address": "44, Avenue John F. Kennedy",
		"postalCode": "1855",
		"city": "Lëtzebuerg",
		"country": "Lëtzebuerg",
		"categories": [
			"Tech Startup"
		]
	},
	{
		"date": "2014-05-21T17:51:44.000Z",
		"name": "Docler Holding",
		"id": "52cbb89a11d243c791c37510",
		"lat": 49.6317381171169,
		"lng": 6.17131892913784,
		"address": "44, Avenue John F. Kennedy",
		"postalCode": "1855",
		"city": "Lëtzebuerg",
		"country": "Lëtzebuerg",
		"categories": [
			"Tech Startup"
		]
	},
	{
		"date": "2014-05-21T19:25:08.000Z",
		"name": "Cotton Candy Residence 4",
		"id": "52a22aa9498e89ee46de6d01",
		"lat": 49.75121242954277,
		"lng": 6.6495358280281724,
		"city": "Trier",
		"country": "Deutschland",
		"categories": [
			"Home (private)"
		]
	},
	{
		"date": "2014-05-22T11:00:08.000Z",
		"name": "Docler Holding",
		"id": "52cbb89a11d243c791c37510",
		"lat": 49.6317381171169,
		"lng": 6.17131892913784,
		"address": "44, Avenue John F. Kennedy",
		"postalCode": "1855",
		"city": "Lëtzebuerg",
		"country": "Lëtzebuerg",
		"categories": [
			"Tech Startup"
		]
	},
	{
		"date": "2014-05-22T22:15:09.000Z",
		"name": "Cotton Candy Residence 4",
		"id": "52a22aa9498e89ee46de6d01",
		"lat": 49.75121242954277,
		"lng": 6.6495358280281724,
		"city": "Trier",
		"country": "Deutschland",
		"categories": [
			"Home (private)"
		]
	},
	{
		"date": "2014-05-24T10:08:59.000Z",
		"name": "Alleencenter",
		"id": "4d80f5a6490f8eec93c66f2e",
		"lat": 49.756290067396584,
		"lng": 6.649675928291878,
		"address": "Ostallee 3-5",
		"postalCode": "54290",
		"city": "Trier",
		"country": "Deutschland",
		"categories": [
			"Shopping Mall"
		]
	},
	{
		"date": "2014-05-24T10:25:47.000Z",
		"name": "Kaufland",
		"id": "4b9fdd75f964a520c24537e3",
		"lat": 49.7566412,
		"lng": 6.6498349,
		"address": "Ostallee 3-7",
		"postalCode": "54290",
		"city": "Trier",
		"country": "Deutschland",
		"categories": [
			"Big Box Store",
			"Supermarket"
		]
	},
	{
		"date": "2014-05-24T10:33:15.000Z",
		"name": "Cotton Candy Residence 4",
		"id": "52a22aa9498e89ee46de6d01",
		"lat": 49.75121242954277,
		"lng": 6.6495358280281724,
		"city": "Trier",
		"country": "Deutschland",
		"categories": [
			"Home (private)"
		]
	},
	{
		"date": "2014-05-24T17:25:45.000Z",
		"name": "Eich",
		"id": "50b23babe4b04c369e6a4a85",
		"lat": 49.634611661796946,
		"lng": 6.133667841306444,
		"country": "Lëtzebuerg",
		"categories": [
			"Neighborhood"
		]
	},
	{
		"date": "2014-05-26T06:48:46.000Z",
		"name": "Docler Holding",
		"id": "52cbb89a11d243c791c37510",
		"lat": 49.6317381171169,
		"lng": 6.17131892913784,
		"address": "44, Avenue John F. Kennedy",
		"postalCode": "1855",
		"city": "Lëtzebuerg",
		"country": "Lëtzebuerg",
		"categories": [
			"Tech Startup"
		]
	},
	{
		"date": "2014-05-26T18:32:48.000Z",
		"name": "Cotton Candy Residence 4",
		"id": "52a22aa9498e89ee46de6d01",
		"lat": 49.75121242954277,
		"lng": 6.6495358280281724,
		"city": "Trier",
		"country": "Deutschland",
		"categories": [
			"Home (private)"
		]
	},
	{
		"date": "2014-05-27T05:14:37.000Z",
		"name": "Sparkasse Trier (Theodor-Heuss-Allee)",
		"id": "4bcc7ade3740b7138e0c6465",
		"lat": 49.759485789862126,
		"lng": 6.645067863852004,
		"address": "Theodor-Heuss-Allee 1",
		"postalCode": "54292",
		"city": "Trier",
		"country": "Deutschland",
		"categories": [
			"Bank"
		]
	},
	{
		"date": "2014-05-27T07:02:30.000Z",
		"name": "Docler Holding",
		"id": "52cbb89a11d243c791c37510",
		"lat": 49.6317381171169,
		"lng": 6.17131892913784,
		"address": "44, Avenue John F. Kennedy",
		"postalCode": "1855",
		"city": "Lëtzebuerg",
		"country": "Lëtzebuerg",
		"categories": [
			"Tech Startup"
		]
	},
	{
		"date": "2014-05-27T19:25:51.000Z",
		"name": "Cotton Candy Residence 4",
		"id": "52a22aa9498e89ee46de6d01",
		"lat": 49.75121242954277,
		"lng": 6.6495358280281724,
		"city": "Trier",
		"country": "Deutschland",
		"categories": [
			"Home (private)"
		]
	},
	{
		"date": "2014-05-28T08:36:57.000Z",
		"name": "Docler Holding",
		"id": "52cbb89a11d243c791c37510",
		"lat": 49.6317381171169,
		"lng": 6.17131892913784,
		"address": "44, Avenue John F. Kennedy",
		"postalCode": "1855",
		"city": "Lëtzebuerg",
		"country": "Lëtzebuerg",
		"categories": [
			"Tech Startup"
		]
	},
	{
		"date": "2014-05-29T19:51:17.000Z",
		"name": "Cotton Candy Residence 4",
		"id": "52a22aa9498e89ee46de6d01",
		"lat": 49.75121242954277,
		"lng": 6.6495358280281724,
		"city": "Trier",
		"country": "Deutschland",
		"categories": [
			"Home (private)"
		]
	},
	{
		"date": "2014-05-30T13:27:06.000Z",
		"name": "Docler Holding",
		"id": "52cbb89a11d243c791c37510",
		"lat": 49.6317381171169,
		"lng": 6.17131892913784,
		"address": "44, Avenue John F. Kennedy",
		"postalCode": "1855",
		"city": "Lëtzebuerg",
		"country": "Lëtzebuerg",
		"categories": [
			"Tech Startup"
		]
	},
	{
		"date": "2014-05-30T13:28:02.000Z",
		"name": "Vapiano",
		"id": "4c51b35b3940be9a6a8e4e09",
		"lat": 49.63180649278271,
		"lng": 6.17125118616227,
		"address": "Avenue John F. Kennedy 44",
		"postalCode": "1855",
		"city": "Kirchberg",
		"country": "Lëtzebuerg",
		"categories": [
			"Italian Restaurant",
			"Mediterranean Restaurant"
		]
	},
	{
		"date": "2014-05-30T15:31:30.000Z",
		"name": "Luxembourg Airport (LUX) (Fluchhafe Lëtzebuerg)",
		"id": "4ba14c55f964a52045aa37e3",
		"lat": 49.634630283133625,
		"lng": 6.216286980455832,
		"address": "4 Rue de Trèves",
		"postalCode": "2016",
		"city": "Findel",
		"country": "Lëtzebuerg",
		"categories": [
			"Airport"
		]
	},
	{
		"date": "2014-05-30T16:19:01.000Z",
		"name": "Gate A11",
		"id": "4f510b42e4b0d16b305f7582",
		"lat": 49.63390307341026,
		"lng": 6.216672616785617,
		"address": "Terminal A",
		"city": "Lëtzebuerg",
		"country": "Lëtzebuerg",
		"categories": [
			"Airport Gate"
		]
	},
	{
		"date": "2014-05-30T20:01:51.000Z",
		"name": "Vienna International Airport (VIE) (Flughafen Wien-Schwechat)",
		"id": "4b05889af964a520e5cf22e3",
		"lat": 48.11934401963146,
		"lng": 16.56264517485397,
		"address": "Abflugstraße",
		"postalCode": "1300",
		"city": "Schwechat",
		"country": "Österreich",
		"categories": [
			"Airport"
		]
	},
	{
		"date": "2014-05-30T20:06:23.000Z",
		"name": "Arrivals Hall (Ankunftshalle)",
		"id": "4b4d8235f964a52050d326e3",
		"lat": 48.12069725992322,
		"lng": 16.56184673309326,
		"address": "VIE Airport",
		"postalCode": "1300",
		"city": "Schwechat",
		"country": "Österreich",
		"categories": [
			"Airport Terminal"
		]
	},
	{
		"date": "2014-05-30T23:12:44.000Z",
		"name": "Villa Polgar",
		"id": "4caaebc0965c9c74f70dcbfa",
		"lat": 47.671899642379415,
		"lng": 16.611052697881373,
		"city": "Sopron",
		"country": "Magyarország",
		"categories": [
			"Home (private)"
		]
	},
	{
		"date": "2014-05-31T12:50:03.000Z",
		"name": "TESCO Hipermarket",
		"id": "4ce6721f0f196dcb236437ae",
		"lat": 47.66973675901383,
		"lng": 16.612279833176512,
		"address": "Ipar krt. 30.",
		"postalCode": "9400",
		"city": "Sopron",
		"country": "Magyarország",
		"categories": [
			"Supermarket",
			"Grocery Store"
		]
	}
]