[
	{
		"date": "2014-12-20T23:09:27.000Z",
		"name": "Corvin Club",
		"id": "4b9d6607f964a520cfa936e3",
		"lat": 47.496238919069796,
		"lng": 19.069240505068223,
		"address": "Blaha Lujza tér 1.",
		"postalCode": "1085",
		"city": "Budapest",
		"country": "Magyarország",
		"categories": [
			"Nightclub",
			"Music Venue",
			"Concert Hall"
		]
	},
	{
		"date": "2014-12-21T21:26:00.000Z",
		"name": "Villa Polgar",
		"id": "4caaebc0965c9c74f70dcbfa",
		"lat": 47.671899642379415,
		"lng": 16.611052697881373,
		"city": "Sopron",
		"country": "Magyarország",
		"categories": [
			"Home (private)"
		]
	},
	{
		"date": "2014-12-23T18:52:38.000Z",
		"name": "Gázfröccs",
		"id": "4e1c132e922e66c066417ce3",
		"lat": 47.680832103433204,
		"lng": 16.585444490141782,
		"address": "Deák tér 28.",
		"postalCode": "9400",
		"city": "Sopron",
		"country": "Magyarország",
		"categories": [
			"Beer Garden",
			"Bar"
		]
	},
	{
		"date": "2014-12-23T20:35:26.000Z",
		"name": "McDonald's",
		"id": "4c2f08963896e21edb43e390",
		"lat": 47.69342888945339,
		"lng": 16.582018388219954,
		"address": "Lackner Kristóf u. 60.",
		"postalCode": "9400",
		"city": "Sopron",
		"country": "Magyarország",
		"categories": [
			"Fast Food Restaurant"
		]
	},
	{
		"date": "2014-12-23T22:20:30.000Z",
		"name": "Bohémia Rockabilly Club",
		"id": "4dffa8e552b1d747f67a61a8",
		"lat": 47.68001298918722,
		"lng": 16.585304118191107,
		"address": "Csengery u. 30-32.",
		"postalCode": "9400",
		"city": "Sopron",
		"country": "Magyarország",
		"categories": [
			"Rock Club",
			"Karaoke Bar"
		]
	},
	{
		"date": "2014-12-28T20:15:26.000Z",
		"name": "Cotton Candy Residence 4",
		"id": "52a22aa9498e89ee46de6d01",
		"lat": 49.75121242954277,
		"lng": 6.6495358280281724,
		"city": "Trier",
		"country": "Deutschland",
		"categories": [
			"Home (private)"
		]
	}
]