[
	{
		"date": "2017-03-01T08:21:46.000Z",
		"name": "WeWork Metropool",
		"id": "56a14a68498e77945ee2ced1",
		"lat": 52.36480793621647,
		"lng": 4.906191453337669,
		"address": "Weesperstraat 61",
		"postalCode": "1018 VN",
		"city": "Amsterdam",
		"country": "Nederland",
		"categories": [
			"Coworking Space",
			"Business Service"
		]
	},
	{
		"date": "2017-03-01T08:22:57.000Z",
		"name": "Docler Holding Amsterdam",
		"id": "58b684db52a051661da12674",
		"lat": 52.36505739184381,
		"lng": 4.906015988886142,
		"address": "Weespertraat 61",
		"postalCode": "1018 VN",
		"city": "Amsterdam",
		"country": "Nederland",
		"categories": [
			"Tech Startup"
		]
	},
	{
		"date": "2017-03-01T10:59:33.000Z",
		"name": "Wok to Walk",
		"id": "4a27db38f964a520a8921fe3",
		"lat": 52.366403050982846,
		"lng": 4.89548766742662,
		"address": "Reguliersbreestraat 45",
		"postalCode": "1017 CM",
		"city": "Amsterdam",
		"country": "Nederland",
		"categories": [
			"Asian Restaurant",
			"Noodle House"
		]
	},
	{
		"date": "2017-03-01T18:00:18.000Z",
		"name": "SPAR city Van Kempen",
		"id": "4b4c4089f964a52022b026e3",
		"lat": 52.36421961630775,
		"lng": 4.9056606671851295,
		"address": "Nieuwe Kerkstraat 65",
		"postalCode": "1018 DZ",
		"city": "Amsterdam",
		"country": "Nederland",
		"categories": [
			"Convenience Store",
			"Supermarket",
			"Grocery Store"
		]
	},
	{
		"date": "2017-03-01T19:38:57.000Z",
		"name": "Cotton Candy Residence 9",
		"id": "58b5b40cf8408553bbaa8e3a",
		"lat": 52.36057991801562,
		"lng": 4.913380536475984,
		"country": "Nederland",
		"categories": [
			"Home (private)"
		]
	},
	{
		"date": "2017-03-02T08:13:46.000Z",
		"name": "WeWork Metropool",
		"id": "56a14a68498e77945ee2ced1",
		"lat": 52.36480793621647,
		"lng": 4.906191453337669,
		"address": "Weesperstraat 61",
		"postalCode": "1018 VN",
		"city": "Amsterdam",
		"country": "Nederland",
		"categories": [
			"Coworking Space",
			"Business Service"
		]
	},
	{
		"date": "2017-03-02T08:44:42.000Z",
		"name": "Docler Holding Amsterdam",
		"id": "58b684db52a051661da12674",
		"lat": 52.36505739184381,
		"lng": 4.906015988886142,
		"address": "Weespertraat 61",
		"postalCode": "1018 VN",
		"city": "Amsterdam",
		"country": "Nederland",
		"categories": [
			"Tech Startup"
		]
	},
	{
		"date": "2017-03-02T13:36:48.000Z",
		"name": "Starbucks",
		"id": "4f019124a69d45461f2458e7",
		"lat": 52.36607678472145,
		"lng": 4.897430803910262,
		"address": "Utrechtsestraat 9",
		"postalCode": "1017 CV",
		"city": "Amsterdam",
		"country": "Nederland",
		"categories": [
			"Coffee Shop"
		]
	},
	{
		"date": "2017-03-02T19:36:31.000Z",
		"name": "Cotton Candy Residence 9",
		"id": "58b5b40cf8408553bbaa8e3a",
		"lat": 52.36057991801562,
		"lng": 4.913380536475984,
		"country": "Nederland",
		"categories": [
			"Home (private)"
		]
	},
	{
		"date": "2017-03-03T08:04:04.000Z",
		"name": "Docler Holding Amsterdam",
		"id": "58b684db52a051661da12674",
		"lat": 52.36505739184381,
		"lng": 4.906015988886142,
		"address": "Weespertraat 61",
		"postalCode": "1018 VN",
		"city": "Amsterdam",
		"country": "Nederland",
		"categories": [
			"Tech Startup"
		]
	},
	{
		"date": "2017-03-03T11:42:42.000Z",
		"name": "World Trade Center",
		"id": "4aa4c217f964a520424720e3",
		"lat": 52.34028118908635,
		"lng": 4.874472446939538,
		"address": "Strawinskylaan 1",
		"postalCode": "1077 XW",
		"city": "Amsterdam",
		"country": "Nederland",
		"categories": [
			"Business Center"
		]
	},
	{
		"date": "2017-03-03T11:45:06.000Z",
		"name": "IN Amsterdam",
		"id": "4cc6d2a53d7fa1cd3f7cb95f",
		"lat": 52.340155350955854,
		"lng": 4.873256680353796,
		"address": "Strawinskylaan 39",
		"postalCode": "1077",
		"city": "Amsterdam",
		"country": "Nederland",
		"categories": [
			"Government Building"
		]
	},
	{
		"date": "2017-03-03T13:34:33.000Z",
		"name": "Morena aan de Amstel",
		"id": "52dabde2498e516303dc5adc",
		"lat": 52.36625555810526,
		"lng": 4.9015951825233985,
		"address": "Amstel 47",
		"postalCode": "1011 PW",
		"city": "Amsterdam",
		"country": "Nederland",
		"categories": [
			"Greek Restaurant"
		]
	},
	{
		"date": "2017-03-04T13:49:47.000Z",
		"name": "Cotton Candy Residence 9",
		"id": "58b5b40cf8408553bbaa8e3a",
		"lat": 52.36057991801562,
		"lng": 4.913380536475984,
		"country": "Nederland",
		"categories": [
			"Home (private)"
		]
	},
	{
		"date": "2017-03-04T15:43:29.000Z",
		"name": "Station Amsterdam Bijlmer ArenA",
		"id": "4a73fd66f964a520a8dd1fe3",
		"lat": 52.31197135888793,
		"lng": 4.94719643397193,
		"address": "Hoogoordplein 1",
		"postalCode": "1102 BH",
		"city": "Amsterdam",
		"country": "Nederland",
		"categories": [
			"Train Station"
		]
	},
	{
		"date": "2017-03-04T16:42:59.000Z",
		"name": "Texaco",
		"id": "4ac99f97f964a52018c020e3",
		"lat": 51.983499983924716,
		"lng": 4.393849412435197,
		"address": "Rijksweg A13",
		"city": "Delft",
		"country": "Nederland",
		"categories": [
			"Gas Station"
		]
	},
	{
		"date": "2017-03-04T18:12:11.000Z",
		"name": "Rubroek",
		"id": "5314b192e4b0d805d3737709",
		"lat": 51.92754911903051,
		"lng": 4.491432144956231,
		"city": "Rotterdam",
		"country": "Nederland",
		"categories": [
			"Neighborhood"
		]
	},
	{
		"date": "2017-03-04T18:43:35.000Z",
		"name": "Museumpark",
		"id": "4bf959d3b182c9b6b4bf785a",
		"lat": 51.91376202324923,
		"lng": 4.471628711697534,
		"address": "Melkkoppad",
		"postalCode": "3015",
		"city": "Rotterdam",
		"country": "Nederland",
		"categories": [
			"Park"
		]
	},
	{
		"date": "2017-03-04T19:43:34.000Z",
		"name": "Museum Boijmans Van Beuningen",
		"id": "4aec66e9f964a520b6c621e3",
		"lat": 51.91422149494322,
		"lng": 4.473584906125096,
		"address": "Museumpark 18-20",
		"postalCode": "3015 CX",
		"city": "Rotterdam",
		"country": "Nederland",
		"categories": [
			"Art Museum"
		]
	},
	{
		"date": "2017-03-04T21:53:44.000Z",
		"name": "Jaffa Shoarma",
		"id": "4b0d8e34f964a520f74a23e3",
		"lat": 51.91558,
		"lng": 4.477476,
		"address": "Witte de Withstraat 44",
		"postalCode": "3012 BR",
		"city": "Rotterdam",
		"country": "Nederland",
		"categories": [
			"Middle Eastern Restaurant",
			"Shawarma Place"
		]
	},
	{
		"date": "2017-03-04T22:33:26.000Z",
		"name": "Witte de With, Center for Contemporary Art",
		"id": "4ba61fe0f964a5205e3539e3",
		"lat": 51.915421,
		"lng": 4.477072,
		"address": "Witte de Withstraat 50",
		"postalCode": "3012 BR",
		"city": "Rotterdam",
		"country": "Nederland",
		"categories": [
			"Art Museum",
			"Art Gallery"
		]
	},
	{
		"date": "2017-03-04T23:18:40.000Z",
		"name": "Santa Claus (Kabouter Buttplug)",
		"id": "4bd6c22f5631c9b6ec47a630",
		"lat": 51.91702337290763,
		"lng": 4.4733040185062505,
		"address": "Eendrachtsplein",
		"postalCode": "3012",
		"city": "Rotterdam",
		"country": "Nederland",
		"categories": [
			"Outdoor Sculpture"
		]
	},
	{
		"date": "2017-03-04T23:19:04.000Z",
		"name": "Belgisch Biercaf√© Boudewijn",
		"id": "4abbb8a5f964a520928420e3",
		"lat": 51.91645527136546,
		"lng": 4.470207305781213,
		"address": "Nieuwe Binnenweg 53a-53b",
		"postalCode": "3014 GD",
		"city": "Rotterdam",
		"country": "Nederland",
		"categories": [
			"Beer Bar"
		]
	},
	{
		"date": "2017-03-05T11:57:48.000Z",
		"name": "Station Duivendrecht",
		"id": "4a73fd02f964a520a7dd1fe3",
		"lat": 52.32348920291057,
		"lng": 4.936662247516323,
		"address": "Stationsplein 1",
		"postalCode": "1115 BZ",
		"city": "Duivendrecht",
		"country": "Nederland",
		"categories": [
			"Train Station"
		]
	},
	{
		"date": "2017-03-05T12:32:10.000Z",
		"name": "Cotton Candy Residence 9",
		"id": "58b5b40cf8408553bbaa8e3a",
		"lat": 52.36057991801562,
		"lng": 4.913380536475984,
		"country": "Nederland",
		"categories": [
			"Home (private)"
		]
	},
	{
		"date": "2017-03-06T10:47:33.000Z",
		"name": "Docler Holding Amsterdam",
		"id": "58b684db52a051661da12674",
		"lat": 52.36505739184381,
		"lng": 4.906015988886142,
		"address": "Weespertraat 61",
		"postalCode": "1018 VN",
		"city": "Amsterdam",
		"country": "Nederland",
		"categories": [
			"Tech Startup"
		]
	},
	{
		"date": "2017-03-06T11:11:15.000Z",
		"name": "wagamama",
		"id": "4ee4a1c84690f88940adf317",
		"lat": 52.36623736758097,
		"lng": 4.898547124211683,
		"address": "Amstelstraat 8",
		"postalCode": "1017 DA",
		"city": "Amsterdam",
		"country": "Nederland",
		"categories": [
			"Asian Restaurant",
			"Japanese Restaurant",
			"Noodle House"
		]
	},
	{
		"date": "2017-03-06T11:53:49.000Z",
		"name": "WeWork Metropool",
		"id": "56a14a68498e77945ee2ced1",
		"lat": 52.36480793621647,
		"lng": 4.906191453337669,
		"address": "Weesperstraat 61",
		"postalCode": "1018 VN",
		"city": "Amsterdam",
		"country": "Nederland",
		"categories": [
			"Coworking Space",
			"Business Service"
		]
	},
	{
		"date": "2017-03-06T17:13:19.000Z",
		"name": "Cotton Candy Residence 9",
		"id": "58b5b40cf8408553bbaa8e3a",
		"lat": 52.36057991801562,
		"lng": 4.913380536475984,
		"country": "Nederland",
		"categories": [
			"Home (private)"
		]
	},
	{
		"date": "2017-03-07T08:32:11.000Z",
		"name": "SPAR city Van Kempen",
		"id": "4b4c4089f964a52022b026e3",
		"lat": 52.36421961630775,
		"lng": 4.9056606671851295,
		"address": "Nieuwe Kerkstraat 65",
		"postalCode": "1018 DZ",
		"city": "Amsterdam",
		"country": "Nederland",
		"categories": [
			"Convenience Store",
			"Supermarket",
			"Grocery Store"
		]
	},
	{
		"date": "2017-03-07T11:26:15.000Z",
		"name": "Pancake king",
		"id": "580b443638fae4e1a384d66d",
		"lat": 52.36627,
		"lng": 4.899774,
		"city": "Ansterdam",
		"country": "Nederland",
		"categories": [
			"Breakfast Spot"
		]
	},
	{
		"date": "2017-03-07T12:58:06.000Z",
		"name": "WeWork Metropool",
		"id": "56a14a68498e77945ee2ced1",
		"lat": 52.36480793621647,
		"lng": 4.906191453337669,
		"address": "Weesperstraat 61",
		"postalCode": "1018 VN",
		"city": "Amsterdam",
		"country": "Nederland",
		"categories": [
			"Coworking Space",
			"Business Service"
		]
	},
	{
		"date": "2017-03-07T18:15:38.000Z",
		"name": "Cotton Candy Residence 9",
		"id": "58b5b40cf8408553bbaa8e3a",
		"lat": 52.36057991801562,
		"lng": 4.913380536475984,
		"country": "Nederland",
		"categories": [
			"Home (private)"
		]
	},
	{
		"date": "2017-03-08T11:35:02.000Z",
		"name": "Vapiano",
		"id": "4fb28f2be4b0e2be9a5f1f6f",
		"lat": 52.36612800819601,
		"lng": 4.897454374802111,
		"address": "Amstelstraat 2-4",
		"postalCode": "1017 DA",
		"city": "Amsterdam",
		"country": "Nederland",
		"categories": [
			"Italian Restaurant",
			"Pizza Place"
		]
	},
	{
		"date": "2017-03-08T12:25:21.000Z",
		"name": "WeWork Metropool",
		"id": "56a14a68498e77945ee2ced1",
		"lat": 52.36480793621647,
		"lng": 4.906191453337669,
		"address": "Weesperstraat 61",
		"postalCode": "1018 VN",
		"city": "Amsterdam",
		"country": "Nederland",
		"categories": [
			"Coworking Space",
			"Business Service"
		]
	},
	{
		"date": "2017-03-08T14:10:05.000Z",
		"name": "World Trade Center",
		"id": "4aa4c217f964a520424720e3",
		"lat": 52.34028118908635,
		"lng": 4.874472446939538,
		"address": "Strawinskylaan 1",
		"postalCode": "1077 XW",
		"city": "Amsterdam",
		"country": "Nederland",
		"categories": [
			"Business Center"
		]
	},
	{
		"date": "2017-03-08T14:10:59.000Z",
		"name": "ABN AMRO",
		"id": "56c48889cd100533a9387318",
		"lat": 52.3403283029106,
		"lng": 4.874408097843293,
		"address": "Strawinskylaan 31",
		"postalCode": "1077 XW",
		"city": "Amsterdam",
		"country": "Nederland",
		"categories": [
			"Bank"
		]
	},
	{
		"date": "2017-03-08T15:16:37.000Z",
		"name": "Docler Holding Amsterdam",
		"id": "58b684db52a051661da12674",
		"lat": 52.36505739184381,
		"lng": 4.906015988886142,
		"address": "Weespertraat 61",
		"postalCode": "1018 VN",
		"city": "Amsterdam",
		"country": "Nederland",
		"categories": [
			"Tech Startup"
		]
	},
	{
		"date": "2017-03-08T18:44:53.000Z",
		"name": "Cotton Candy Residence 9",
		"id": "58b5b40cf8408553bbaa8e3a",
		"lat": 52.36057991801562,
		"lng": 4.913380536475984,
		"country": "Nederland",
		"categories": [
			"Home (private)"
		]
	},
	{
		"date": "2017-03-09T08:15:33.000Z",
		"name": "WeWork Metropool",
		"id": "56a14a68498e77945ee2ced1",
		"lat": 52.36480793621647,
		"lng": 4.906191453337669,
		"address": "Weesperstraat 61",
		"postalCode": "1018 VN",
		"city": "Amsterdam",
		"country": "Nederland",
		"categories": [
			"Coworking Space",
			"Business Service"
		]
	},
	{
		"date": "2017-03-09T11:09:49.000Z",
		"name": "Three Sisters Pub",
		"id": "51c1d3b1498e8c2d1863a2c4",
		"lat": 52.36633860746892,
		"lng": 4.897152489889772,
		"address": "Rembrandtplein 19",
		"postalCode": "1017 CT",
		"city": "Amsterdam",
		"country": "Nederland",
		"categories": [
			"Gastropub",
			"Sports Bar"
		]
	},
	{
		"date": "2017-03-09T12:49:03.000Z",
		"name": "Docler Holding Amsterdam",
		"id": "58b684db52a051661da12674",
		"lat": 52.36505739184381,
		"lng": 4.906015988886142,
		"address": "Weespertraat 61",
		"postalCode": "1018 VN",
		"city": "Amsterdam",
		"country": "Nederland",
		"categories": [
			"Tech Startup"
		]
	},
	{
		"date": "2017-03-09T19:40:59.000Z",
		"name": "Cotton Candy Residence 9",
		"id": "58b5b40cf8408553bbaa8e3a",
		"lat": 52.36057991801562,
		"lng": 4.913380536475984,
		"country": "Nederland",
		"categories": [
			"Home (private)"
		]
	},
	{
		"date": "2017-03-10T07:48:49.000Z",
		"name": "WeWork Metropool",
		"id": "56a14a68498e77945ee2ced1",
		"lat": 52.36480793621647,
		"lng": 4.906191453337669,
		"address": "Weesperstraat 61",
		"postalCode": "1018 VN",
		"city": "Amsterdam",
		"country": "Nederland",
		"categories": [
			"Coworking Space",
			"Business Service"
		]
	},
	{
		"date": "2017-03-10T07:51:38.000Z",
		"name": "Docler Holding Amsterdam",
		"id": "58b684db52a051661da12674",
		"lat": 52.36505739184381,
		"lng": 4.906015988886142,
		"address": "Weespertraat 61",
		"postalCode": "1018 VN",
		"city": "Amsterdam",
		"country": "Nederland",
		"categories": [
			"Tech Startup"
		]
	},
	{
		"date": "2017-03-10T12:01:08.000Z",
		"name": "Burgermeester",
		"id": "4a76cc70f964a5202ee31fe3",
		"lat": 52.36682656103072,
		"lng": 4.912215544101274,
		"address": "Plantage Kerklaan 37",
		"postalCode": "1018 CZ",
		"city": "Amsterdam",
		"country": "Nederland",
		"categories": [
			"Burger Joint"
		]
	},
	{
		"date": "2017-03-11T09:39:53.000Z",
		"name": "Cotton Candy Residence 9",
		"id": "58b5b40cf8408553bbaa8e3a",
		"lat": 52.36057991801562,
		"lng": 4.913380536475984,
		"country": "Nederland",
		"categories": [
			"Home (private)"
		]
	},
	{
		"date": "2017-03-11T17:16:06.000Z",
		"name": "Vapiano",
		"id": "4a424b00f964a520b3a51fe3",
		"lat": 52.37569806871261,
		"lng": 4.908188144651513,
		"address": "Oosterdokskade 145",
		"postalCode": "1011 DL",
		"city": "Amsterdam",
		"country": "Nederland",
		"categories": [
			"Italian Restaurant"
		]
	},
	{
		"date": "2017-03-11T17:38:32.000Z",
		"name": "MediaMarkt",
		"id": "4f85272ae4b0657ba76d7762",
		"lat": 52.37609799833515,
		"lng": 4.907226586015713,
		"address": "Oosterdokskade 67",
		"postalCode": "1011 DL",
		"city": "Amsterdam",
		"country": "Nederland",
		"categories": [
			"Electronics Store"
		]
	},
	{
		"date": "2017-03-11T18:16:12.000Z",
		"name": "Eetkunst Asmara",
		"id": "4a27db5df964a52066931fe3",
		"lat": 52.366898,
		"lng": 4.904642,
		"address": "Jonas Daniel Meijerplein 8",
		"postalCode": "1011 RH",
		"city": "Amsterdam",
		"country": "Nederland",
		"categories": [
			"Ethiopian Restaurant"
		]
	},
	{
		"date": "2017-03-11T19:54:51.000Z",
		"name": "Albert Heijn",
		"id": "4a8189bcf964a520d8f61fe3",
		"lat": 52.35570282780258,
		"lng": 4.91076391539513,
		"address": "Wibautstraat 80",
		"postalCode": "1091 GP",
		"city": "Amsterdam",
		"country": "Nederland",
		"categories": [
			"Supermarket"
		]
	},
	{
		"date": "2017-03-11T20:25:42.000Z",
		"name": "Cotton Candy Residence 9",
		"id": "58b5b40cf8408553bbaa8e3a",
		"lat": 52.36057991801562,
		"lng": 4.913380536475984,
		"country": "Nederland",
		"categories": [
			"Home (private)"
		]
	},
	{
		"date": "2017-03-12T13:59:35.000Z",
		"name": "KattenKabinet",
		"id": "4a270709f964a520c48c1fe3",
		"lat": 52.3655981878245,
		"lng": 4.891557991504669,
		"address": "Herengracht 497",
		"postalCode": "1017 BT",
		"city": "Amsterdam",
		"country": "Nederland",
		"categories": [
			"Art Museum"
		]
	},
	{
		"date": "2017-03-12T14:58:15.000Z",
		"name": "The Public House of Art",
		"id": "561113d3498e78508511f076",
		"lat": 52.36355553897359,
		"lng": 4.888829018014066,
		"address": "Nieuwe Spiegelstraat 39",
		"postalCode": "1017 DC",
		"city": "Amsterdam",
		"country": "Nederland",
		"categories": [
			"Art Gallery"
		]
	},
	{
		"date": "2017-03-12T15:27:45.000Z",
		"name": "Het Zwarte Fietsenplan",
		"id": "4b5af98bf964a520fbdc28e3",
		"lat": 52.362024052166916,
		"lng": 4.886546246668779,
		"address": "Lijnbaansgracht 282",
		"postalCode": "1017 RM",
		"city": "Amsterdam",
		"country": "Nederland",
		"categories": [
			"Bike Shop"
		]
	},
	{
		"date": "2017-03-12T15:37:40.000Z",
		"name": "Starbucks",
		"id": "4d9f4ce483f0b1f7ac8996c7",
		"lat": 52.36457890923462,
		"lng": 4.8835384560699575,
		"address": "Leidsestraat 101",
		"postalCode": "1017 NZ",
		"city": "Amsterdam",
		"country": "Nederland",
		"categories": [
			"Coffee Shop"
		]
	},
	{
		"date": "2017-03-12T17:05:19.000Z",
		"name": "Albert Heijn",
		"id": "4a8189bcf964a520d8f61fe3",
		"lat": 52.35570282780258,
		"lng": 4.91076391539513,
		"address": "Wibautstraat 80",
		"postalCode": "1091 GP",
		"city": "Amsterdam",
		"country": "Nederland",
		"categories": [
			"Supermarket"
		]
	},
	{
		"date": "2017-03-12T20:58:04.000Z",
		"name": "Cotton Candy Residence 9",
		"id": "58b5b40cf8408553bbaa8e3a",
		"lat": 52.36057991801562,
		"lng": 4.913380536475984,
		"country": "Nederland",
		"categories": [
			"Home (private)"
		]
	},
	{
		"date": "2017-03-13T09:21:06.000Z",
		"name": "Docler Holding Amsterdam",
		"id": "58b684db52a051661da12674",
		"lat": 52.36505739184381,
		"lng": 4.906015988886142,
		"address": "Weespertraat 61",
		"postalCode": "1018 VN",
		"city": "Amsterdam",
		"country": "Nederland",
		"categories": [
			"Tech Startup"
		]
	},
	{
		"date": "2017-03-13T10:17:35.000Z",
		"name": "WeWork Metropool",
		"id": "56a14a68498e77945ee2ced1",
		"lat": 52.36480793621647,
		"lng": 4.906191453337669,
		"address": "Weesperstraat 61",
		"postalCode": "1018 VN",
		"city": "Amsterdam",
		"country": "Nederland",
		"categories": [
			"Coworking Space",
			"Business Service"
		]
	},
	{
		"date": "2017-03-13T11:34:43.000Z",
		"name": "Avram Grill Restaurant",
		"id": "4a27074ff964a5208f8d1fe3",
		"lat": 52.36686919515765,
		"lng": 4.9017573656130455,
		"address": "Waterlooplein 369",
		"postalCode": "1011 PG",
		"city": "Amsterdam",
		"country": "Nederland",
		"categories": [
			"Steakhouse"
		]
	},
	{
		"date": "2017-03-13T19:20:10.000Z",
		"name": "Cotton Candy Residence 9",
		"id": "58b5b40cf8408553bbaa8e3a",
		"lat": 52.36057991801562,
		"lng": 4.913380536475984,
		"country": "Nederland",
		"categories": [
			"Home (private)"
		]
	},
	{
		"date": "2017-03-14T11:26:45.000Z",
		"name": "Docler Holding Amsterdam",
		"id": "58b684db52a051661da12674",
		"lat": 52.36505739184381,
		"lng": 4.906015988886142,
		"address": "Weespertraat 61",
		"postalCode": "1018 VN",
		"city": "Amsterdam",
		"country": "Nederland",
		"categories": [
			"Tech Startup"
		]
	},
	{
		"date": "2017-03-14T12:21:14.000Z",
		"name": "Lunchroom T",
		"id": "4bd58edecfa7b71369ef25da",
		"lat": 52.36389859461347,
		"lng": 4.910835093413327,
		"address": "Roetersstraat 4HS",
		"postalCode": "1018 WC",
		"city": "Amsterdam",
		"country": "Nederland",
		"categories": [
			"Sandwich Place"
		]
	},
	{
		"date": "2017-03-14T14:15:02.000Z",
		"name": "WeWork Metropool",
		"id": "56a14a68498e77945ee2ced1",
		"lat": 52.36480793621647,
		"lng": 4.906191453337669,
		"address": "Weesperstraat 61",
		"postalCode": "1018 VN",
		"city": "Amsterdam",
		"country": "Nederland",
		"categories": [
			"Coworking Space",
			"Business Service"
		]
	},
	{
		"date": "2017-03-14T20:53:57.000Z",
		"name": "Cotton Candy Residence 9",
		"id": "58b5b40cf8408553bbaa8e3a",
		"lat": 52.36057991801562,
		"lng": 4.913380536475984,
		"country": "Nederland",
		"categories": [
			"Home (private)"
		]
	},
	{
		"date": "2017-03-15T08:04:06.000Z",
		"name": "Docler Holding Amsterdam",
		"id": "58b684db52a051661da12674",
		"lat": 52.36505739184381,
		"lng": 4.906015988886142,
		"address": "Weespertraat 61",
		"postalCode": "1018 VN",
		"city": "Amsterdam",
		"country": "Nederland",
		"categories": [
			"Tech Startup"
		]
	},
	{
		"date": "2017-03-15T11:14:14.000Z",
		"name": "Bagels & Beans",
		"id": "5124b2ffe4b09ac38ea39ef7",
		"lat": 52.364046730172916,
		"lng": 4.910781025648928,
		"country": "Nederland",
		"categories": [
			"Bagel Shop"
		]
	},
	{
		"date": "2017-03-15T12:59:14.000Z",
		"name": "Amsterdam Central Railway Station (Station Amsterdam Centraal)",
		"id": "4a688ba1f964a52088ca1fe3",
		"lat": 52.37878224866535,
		"lng": 4.900374412536621,
		"address": "Stationsplein 15",
		"postalCode": "1012 AB",
		"city": "Amsterdam",
		"country": "Nederland",
		"categories": [
			"Train Station"
		]
	},
	{
		"date": "2017-03-15T13:52:32.000Z",
		"name": "Station Haarlem",
		"id": "4a8c3036f964a5203a0d20e3",
		"lat": 52.38801057573046,
		"lng": 4.638713550666082,
		"address": "Stationsplein 11 L",
		"postalCode": "2011 LR",
		"city": "Haarlem",
		"country": "Nederland",
		"categories": [
			"Train Station"
		]
	},
	{
		"date": "2017-03-15T14:15:26.000Z",
		"name": "Haarlem",
		"id": "4e6f9dc61838a9b627ba7ccf",
		"lat": 52.389220590621235,
		"lng": 4.638376235961914,
		"country": "Nederland",
		"categories": [
			"City"
		]
	},
	{
		"date": "2017-03-15T20:25:27.000Z",
		"name": "Cotton Candy Residence 9",
		"id": "58b5b40cf8408553bbaa8e3a",
		"lat": 52.36057991801562,
		"lng": 4.913380536475984,
		"country": "Nederland",
		"categories": [
			"Home (private)"
		]
	},
	{
		"date": "2017-03-16T10:51:09.000Z",
		"name": "Docler Holding Amsterdam",
		"id": "58b684db52a051661da12674",
		"lat": 52.36505739184381,
		"lng": 4.906015988886142,
		"address": "Weespertraat 61",
		"postalCode": "1018 VN",
		"city": "Amsterdam",
		"country": "Nederland",
		"categories": [
			"Tech Startup"
		]
	},
	{
		"date": "2017-03-16T11:10:48.000Z",
		"name": "la roma",
		"id": "535bad7711d223058e9370b9",
		"lat": 52.36620594567039,
		"lng": 4.911556469892711,
		"country": "Nederland",
		"categories": [
			"Pizza Place"
		]
	},
	{
		"date": "2017-03-16T18:41:53.000Z",
		"name": "WeWork Metropool",
		"id": "56a14a68498e77945ee2ced1",
		"lat": 52.36480793621647,
		"lng": 4.906191453337669,
		"address": "Weesperstraat 61",
		"postalCode": "1018 VN",
		"city": "Amsterdam",
		"country": "Nederland",
		"categories": [
			"Coworking Space",
			"Business Service"
		]
	},
	{
		"date": "2017-03-17T06:01:45.000Z",
		"name": "Cotton Candy Residence 9",
		"id": "58b5b40cf8408553bbaa8e3a",
		"lat": 52.36057991801562,
		"lng": 4.913380536475984,
		"country": "Nederland",
		"categories": [
			"Home (private)"
		]
	},
	{
		"date": "2017-03-17T08:32:03.000Z",
		"name": "WeWork Metropool",
		"id": "56a14a68498e77945ee2ced1",
		"lat": 52.36480793621647,
		"lng": 4.906191453337669,
		"address": "Weesperstraat 61",
		"postalCode": "1018 VN",
		"city": "Amsterdam",
		"country": "Nederland",
		"categories": [
			"Coworking Space",
			"Business Service"
		]
	},
	{
		"date": "2017-03-17T11:24:05.000Z",
		"name": "Vapiano",
		"id": "4fb28f2be4b0e2be9a5f1f6f",
		"lat": 52.36612800819601,
		"lng": 4.897454374802111,
		"address": "Amstelstraat 2-4",
		"postalCode": "1017 DA",
		"city": "Amsterdam",
		"country": "Nederland",
		"categories": [
			"Italian Restaurant",
			"Pizza Place"
		]
	},
	{
		"date": "2017-03-17T14:18:15.000Z",
		"name": "WeWork Metropool",
		"id": "56a14a68498e77945ee2ced1",
		"lat": 52.36480793621647,
		"lng": 4.906191453337669,
		"address": "Weesperstraat 61",
		"postalCode": "1018 VN",
		"city": "Amsterdam",
		"country": "Nederland",
		"categories": [
			"Coworking Space",
			"Business Service"
		]
	},
	{
		"date": "2017-03-17T15:47:08.000Z",
		"name": "Docler Holding Amsterdam",
		"id": "58b684db52a051661da12674",
		"lat": 52.36505739184381,
		"lng": 4.906015988886142,
		"address": "Weespertraat 61",
		"postalCode": "1018 VN",
		"city": "Amsterdam",
		"country": "Nederland",
		"categories": [
			"Tech Startup"
		]
	},
	{
		"date": "2017-03-17T17:05:09.000Z",
		"name": "Cotton Candy Residence 9",
		"id": "58b5b40cf8408553bbaa8e3a",
		"lat": 52.36057991801562,
		"lng": 4.913380536475984,
		"country": "Nederland",
		"categories": [
			"Home (private)"
		]
	},
	{
		"date": "2017-03-18T14:29:21.000Z",
		"name": "P&R Zeeburg I",
		"id": "4b30f6f9f964a5206bfd24e3",
		"lat": 52.37174485507882,
		"lng": 4.962066723491951,
		"address": "Zuiderzeeweg 46A",
		"postalCode": "1095 KJ",
		"city": "Amsterdam",
		"country": "Nederland",
		"categories": [
			"Parking"
		]
	},
	{
		"date": "2017-03-18T15:19:08.000Z",
		"name": "Cotton Candy Residence 10",
		"id": "58cd4fe316f000799f4cf4f4",
		"lat": 52.392946926098126,
		"lng": 4.640537129468235,
		"city": "Haarlem",
		"country": "Nederland",
		"categories": [
			"Home (private)"
		]
	},
	{
		"date": "2017-03-18T15:47:00.000Z",
		"name": "IKEA",
		"id": "4b48d278f964a520a75826e3",
		"lat": 52.38470382072317,
		"lng": 4.669883675315246,
		"address": "Laan van Decima 1",
		"postalCode": "2031 CX",
		"city": "Haarlem",
		"country": "Nederland",
		"categories": [
			"Furniture / Home Store"
		]
	},
	{
		"date": "2017-03-18T16:23:29.000Z",
		"name": "IKEA Restaurant",
		"id": "4d52d39e747f6dcb7372d1d4",
		"lat": 52.384716105241544,
		"lng": 4.669890708050926,
		"address": "Laan van Decima 1",
		"postalCode": "2031 CX",
		"city": "Haarlem",
		"country": "Nederland",
		"categories": [
			"Scandinavian Restaurant"
		]
	},
	{
		"date": "2017-03-18T20:33:36.000Z",
		"name": "Fietsenstalling Station Rai",
		"id": "4d8774ee61676dcb63dab4e4",
		"lat": 52.337030444417465,
		"lng": 4.890330331652168,
		"address": "Europaboulevard 4A",
		"postalCode": "1083 AD",
		"city": "Amsterdam",
		"country": "Nederland",
		"categories": [
			"Parking",
			"Bike Rental / Bike Share"
		]
	},
	{
		"date": "2017-03-18T20:37:00.000Z",
		"name": "Station Amsterdam RAI",
		"id": "4a787baef964a520bee51fe3",
		"lat": 52.33718464872812,
		"lng": 4.89039256055098,
		"address": "Europaboulevard 6",
		"postalCode": "1083 AD",
		"city": "Amsterdam",
		"country": "Nederland",
		"categories": [
			"Train Station",
			"Tram Station",
			"Metro Station"
		]
	},
	{
		"date": "2017-03-18T20:57:11.000Z",
		"name": "Cotton Candy Residence 9",
		"id": "58b5b40cf8408553bbaa8e3a",
		"lat": 52.36057991801562,
		"lng": 4.913380536475984,
		"country": "Nederland",
		"categories": [
			"Home (private)"
		]
	},
	{
		"date": "2017-03-19T12:47:56.000Z",
		"name": "Action",
		"id": "511e6875e4b092d806e20531",
		"lat": 52.33956999371265,
		"lng": 4.892741749172706,
		"address": "Europaboulevard 17",
		"postalCode": "1079 PC",
		"city": "Amsterdam",
		"country": "Nederland",
		"categories": [
			"Discount Store"
		]
	},
	{
		"date": "2017-03-19T14:13:55.000Z",
		"name": "Cotton Candy Residence 10",
		"id": "58cd4fe316f000799f4cf4f4",
		"lat": 52.392946926098126,
		"lng": 4.640537129468235,
		"city": "Haarlem",
		"country": "Nederland",
		"categories": [
			"Home (private)"
		]
	},
	{
		"date": "2017-03-19T14:33:51.000Z",
		"name": "IKEA",
		"id": "4b48d278f964a520a75826e3",
		"lat": 52.38470382072317,
		"lng": 4.669883675315246,
		"address": "Laan van Decima 1",
		"postalCode": "2031 CX",
		"city": "Haarlem",
		"country": "Nederland",
		"categories": [
			"Furniture / Home Store"
		]
	},
	{
		"date": "2017-03-19T19:32:00.000Z",
		"name": "ArenA Boulevard",
		"id": "4bfb81f9f214a593774aaf0e",
		"lat": 52.312726957233366,
		"lng": 4.944250529549545,
		"address": "Arena Boulevard",
		"city": "Amsterdam",
		"country": "Nederland",
		"categories": [
			"Plaza"
		]
	},
	{
		"date": "2017-03-19T19:32:15.000Z",
		"name": "Station Amsterdam Bijlmer ArenA",
		"id": "4a73fd66f964a520a8dd1fe3",
		"lat": 52.31197135888793,
		"lng": 4.94719643397193,
		"address": "Hoogoordplein 1",
		"postalCode": "1102 BH",
		"city": "Amsterdam",
		"country": "Nederland",
		"categories": [
			"Train Station"
		]
	},
	{
		"date": "2017-03-20T06:45:21.000Z",
		"name": "Cotton Candy Residence 9",
		"id": "58b5b40cf8408553bbaa8e3a",
		"lat": 52.36057991801562,
		"lng": 4.913380536475984,
		"country": "Nederland",
		"categories": [
			"Home (private)"
		]
	},
	{
		"date": "2017-03-20T08:21:05.000Z",
		"name": "Docler Holding Amsterdam",
		"id": "58b684db52a051661da12674",
		"lat": 52.36505739184381,
		"lng": 4.906015988886142,
		"address": "Weespertraat 61",
		"postalCode": "1018 VN",
		"city": "Amsterdam",
		"country": "Nederland",
		"categories": [
			"Tech Startup"
		]
	},
	{
		"date": "2017-03-20T11:28:25.000Z",
		"name": "WeWork Metropool",
		"id": "56a14a68498e77945ee2ced1",
		"lat": 52.36480793621647,
		"lng": 4.906191453337669,
		"address": "Weesperstraat 61",
		"postalCode": "1018 VN",
		"city": "Amsterdam",
		"country": "Nederland",
		"categories": [
			"Coworking Space",
			"Business Service"
		]
	},
	{
		"date": "2017-03-21T06:41:57.000Z",
		"name": "Cotton Candy Residence 9",
		"id": "58b5b40cf8408553bbaa8e3a",
		"lat": 52.36057991801562,
		"lng": 4.913380536475984,
		"country": "Nederland",
		"categories": [
			"Home (private)"
		]
	},
	{
		"date": "2017-03-21T09:22:46.000Z",
		"name": "WeWork Metropool",
		"id": "56a14a68498e77945ee2ced1",
		"lat": 52.36480793621647,
		"lng": 4.906191453337669,
		"address": "Weesperstraat 61",
		"postalCode": "1018 VN",
		"city": "Amsterdam",
		"country": "Nederland",
		"categories": [
			"Coworking Space",
			"Business Service"
		]
	},
	{
		"date": "2017-03-21T09:23:14.000Z",
		"name": "Docler Holding Amsterdam",
		"id": "58b684db52a051661da12674",
		"lat": 52.36505739184381,
		"lng": 4.906015988886142,
		"address": "Weespertraat 61",
		"postalCode": "1018 VN",
		"city": "Amsterdam",
		"country": "Nederland",
		"categories": [
			"Tech Startup"
		]
	},
	{
		"date": "2017-03-21T11:15:48.000Z",
		"name": "Shabu Shabu",
		"id": "54f316cf498ec9c89eef9b7f",
		"lat": 52.366150566029894,
		"lng": 4.897576489003899,
		"address": "Rembrantplein 47",
		"postalCode": "1017 CT",
		"city": "Amsterdam",
		"country": "Nederland",
		"categories": [
			"Sushi Restaurant"
		]
	},
	{
		"date": "2017-03-21T18:45:37.000Z",
		"name": "Cotton Candy Residence 9",
		"id": "58b5b40cf8408553bbaa8e3a",
		"lat": 52.36057991801562,
		"lng": 4.913380536475984,
		"country": "Nederland",
		"categories": [
			"Home (private)"
		]
	},
	{
		"date": "2017-03-22T08:34:34.000Z",
		"name": "WeWork Metropool",
		"id": "56a14a68498e77945ee2ced1",
		"lat": 52.36480793621647,
		"lng": 4.906191453337669,
		"address": "Weesperstraat 61",
		"postalCode": "1018 VN",
		"city": "Amsterdam",
		"country": "Nederland",
		"categories": [
			"Coworking Space",
			"Business Service"
		]
	},
	{
		"date": "2017-03-22T10:34:06.000Z",
		"name": "Docler Holding Amsterdam",
		"id": "58b684db52a051661da12674",
		"lat": 52.36505739184381,
		"lng": 4.906015988886142,
		"address": "Weespertraat 61",
		"postalCode": "1018 VN",
		"city": "Amsterdam",
		"country": "Nederland",
		"categories": [
			"Tech Startup"
		]
	},
	{
		"date": "2017-03-22T10:46:28.000Z",
		"name": "Dignita Hoftuin",
		"id": "533be41d498e27abec15de89",
		"lat": 52.36560821263587,
		"lng": 4.904463683198305,
		"address": "Nieuwe Herengracht 18A",
		"postalCode": "1018 DP",
		"city": "Amsterdam",
		"country": "Nederland",
		"categories": [
			"Tea Room",
			"Breakfast Spot",
			"Bistro"
		]
	},
	{
		"date": "2017-03-22T21:18:16.000Z",
		"name": "Cotton Candy Residence 9",
		"id": "58b5b40cf8408553bbaa8e3a",
		"lat": 52.36057991801562,
		"lng": 4.913380536475984,
		"country": "Nederland",
		"categories": [
			"Home (private)"
		]
	},
	{
		"date": "2017-03-23T08:36:56.000Z",
		"name": "WeWork Metropool",
		"id": "56a14a68498e77945ee2ced1",
		"lat": 52.36480793621647,
		"lng": 4.906191453337669,
		"address": "Weesperstraat 61",
		"postalCode": "1018 VN",
		"city": "Amsterdam",
		"country": "Nederland",
		"categories": [
			"Coworking Space",
			"Business Service"
		]
	},
	{
		"date": "2017-03-23T10:39:00.000Z",
		"name": "Docler Holding Amsterdam",
		"id": "58b684db52a051661da12674",
		"lat": 52.36505739184381,
		"lng": 4.906015988886142,
		"address": "Weespertraat 61",
		"postalCode": "1018 VN",
		"city": "Amsterdam",
		"country": "Nederland",
		"categories": [
			"Tech Startup"
		]
	},
	{
		"date": "2017-03-23T11:44:54.000Z",
		"name": "SPAR city Van Kempen",
		"id": "4b4c4089f964a52022b026e3",
		"lat": 52.36421961630775,
		"lng": 4.9056606671851295,
		"address": "Nieuwe Kerkstraat 65",
		"postalCode": "1018 DZ",
		"city": "Amsterdam",
		"country": "Nederland",
		"categories": [
			"Convenience Store",
			"Supermarket",
			"Grocery Store"
		]
	},
	{
		"date": "2017-03-24T06:47:59.000Z",
		"name": "Cotton Candy Residence 9",
		"id": "58b5b40cf8408553bbaa8e3a",
		"lat": 52.36057991801562,
		"lng": 4.913380536475984,
		"country": "Nederland",
		"categories": [
			"Home (private)"
		]
	},
	{
		"date": "2017-03-24T08:09:31.000Z",
		"name": "WeWork Metropool",
		"id": "56a14a68498e77945ee2ced1",
		"lat": 52.36480793621647,
		"lng": 4.906191453337669,
		"address": "Weesperstraat 61",
		"postalCode": "1018 VN",
		"city": "Amsterdam",
		"country": "Nederland",
		"categories": [
			"Coworking Space",
			"Business Service"
		]
	},
	{
		"date": "2017-03-24T10:49:13.000Z",
		"name": "Docler Holding Amsterdam",
		"id": "58b684db52a051661da12674",
		"lat": 52.36505739184381,
		"lng": 4.906015988886142,
		"address": "Weespertraat 61",
		"postalCode": "1018 VN",
		"city": "Amsterdam",
		"country": "Nederland",
		"categories": [
			"Tech Startup"
		]
	},
	{
		"date": "2017-03-24T11:30:55.000Z",
		"name": "Burger Fabriek",
		"id": "55c35e78498e67347a9e864d",
		"lat": 52.366324473377624,
		"lng": 4.8956677020610755,
		"address": "Reguliersbreestraat 44",
		"postalCode": "1017 CN",
		"city": "Amsterdam",
		"country": "Nederland",
		"categories": [
			"Burger Joint"
		]
	},
	{
		"date": "2017-03-24T18:22:44.000Z",
		"name": "Albert Heijn",
		"id": "4a8189bcf964a520d8f61fe3",
		"lat": 52.35570282780258,
		"lng": 4.91076391539513,
		"address": "Wibautstraat 80",
		"postalCode": "1091 GP",
		"city": "Amsterdam",
		"country": "Nederland",
		"categories": [
			"Supermarket"
		]
	},
	{
		"date": "2017-03-24T20:21:35.000Z",
		"name": "Mama Dough",
		"id": "57ee9dce498e629325b130ae",
		"lat": 52.357068896436346,
		"lng": 4.918279484011874,
		"address": "Beukenplein 21",
		"postalCode": "1092 BB",
		"city": "Amsterdam",
		"country": "Nederland",
		"categories": [
			"Italian Restaurant",
			"Pizza Place"
		]
	},
	{
		"date": "2017-03-25T07:44:35.000Z",
		"name": "Cotton Candy Residence 9",
		"id": "58b5b40cf8408553bbaa8e3a",
		"lat": 52.36057991801562,
		"lng": 4.913380536475984,
		"country": "Nederland",
		"categories": [
			"Home (private)"
		]
	},
	{
		"date": "2017-03-25T09:14:04.000Z",
		"name": "Amsterdam Central Railway Station (Station Amsterdam Centraal)",
		"id": "4a688ba1f964a52088ca1fe3",
		"lat": 52.37878224866535,
		"lng": 4.900374412536621,
		"address": "Stationsplein 15",
		"postalCode": "1012 AB",
		"city": "Amsterdam",
		"country": "Nederland",
		"categories": [
			"Train Station"
		]
	},
	{
		"date": "2017-03-25T10:02:09.000Z",
		"name": "CIGO",
		"id": "4da04ae8bb206ea8fafed7fd",
		"lat": 52.38698266012458,
		"lng": 4.636698269208286,
		"address": "Kruisweg 37",
		"postalCode": "2011 LA",
		"city": "Haarlem",
		"country": "Nederland",
		"categories": [
			"Bookstore",
			"Smoke Shop"
		]
	},
	{
		"date": "2017-03-25T10:07:39.000Z",
		"name": "Cotton Candy Residence 10",
		"id": "58cd4fe316f000799f4cf4f4",
		"lat": 52.392946926098126,
		"lng": 4.640537129468235,
		"city": "Haarlem",
		"country": "Nederland",
		"categories": [
			"Home (private)"
		]
	},
	{
		"date": "2017-03-25T12:12:51.000Z",
		"name": "Busstation Haarlem",
		"id": "4bb04ff4f964a5209e403ce3",
		"lat": 52.387472209186306,
		"lng": 4.637818403573609,
		"address": "Stationsplein 1",
		"city": "Haarlem",
		"country": "Nederland",
		"categories": [
			"Bus Station"
		]
	},
	{
		"date": "2017-03-25T12:26:00.000Z",
		"name": "ING Bank",
		"id": "4bbc2563e5b0d13a27fe6e7c",
		"lat": 52.37556882140811,
		"lng": 4.630967565374206,
		"address": "Houtplein 9",
		"postalCode": "2012 DD",
		"city": "Haarlem",
		"country": "Nederland",
		"categories": [
			"Bank"
		]
	},
	{
		"date": "2017-03-25T12:48:07.000Z",
		"name": "Botermarkt",
		"id": "4baddc96f964a520216e3be3",
		"lat": 52.379734,
		"lng": 4.631808,
		"address": "Botermarkt",
		"city": "Haarlem",
		"country": "Nederland",
		"categories": [
			"Plaza"
		]
	},
	{
		"date": "2017-03-25T12:56:18.000Z",
		"name": "De Soepkantine",
		"id": "51ae78fc7dd2c9a33c53d18c",
		"lat": 52.379392370013235,
		"lng": 4.632510706456413,
		"address": "Gierstraat 4",
		"postalCode": "2011GD",
		"city": "Haarlem",
		"country": "Nederland",
		"categories": [
			"Soup Place"
		]
	},
	{
		"date": "2017-03-25T15:11:49.000Z",
		"name": "RataPlan Kringloopwinkel",
		"id": "521897ae11d2a6c2dd0f0d1a",
		"lat": 52.39045815391731,
		"lng": 4.648954410718502,
		"address": "Werfstraat 3",
		"city": "Haarlem",
		"country": "Nederland",
		"categories": [
			"Thrift / Vintage Store"
		]
	},
	{
		"date": "2017-03-25T16:17:54.000Z",
		"name": "Station Haarlem",
		"id": "4a8c3036f964a5203a0d20e3",
		"lat": 52.38801057573046,
		"lng": 4.638713550666082,
		"address": "Stationsplein 11 L",
		"postalCode": "2011 LR",
		"city": "Haarlem",
		"country": "Nederland",
		"categories": [
			"Train Station"
		]
	},
	{
		"date": "2017-03-25T17:04:06.000Z",
		"name": "Albert Heijn",
		"id": "4a8189bcf964a520d8f61fe3",
		"lat": 52.35570282780258,
		"lng": 4.91076391539513,
		"address": "Wibautstraat 80",
		"postalCode": "1091 GP",
		"city": "Amsterdam",
		"country": "Nederland",
		"categories": [
			"Supermarket"
		]
	},
	{
		"date": "2017-03-26T10:52:53.000Z",
		"name": "Cotton Candy Residence 9",
		"id": "58b5b40cf8408553bbaa8e3a",
		"lat": 52.36057991801562,
		"lng": 4.913380536475984,
		"country": "Nederland",
		"categories": [
			"Home (private)"
		]
	},
	{
		"date": "2017-03-26T18:27:48.000Z",
		"name": "Taytu",
		"id": "576cf084498e6c4527e043dd",
		"lat": 52.35759019675256,
		"lng": 4.913163185119629,
		"address": "Blasiusstraat 62",
		"postalCode": "1091 CV",
		"city": "Amsterdam",
		"country": "Nederland",
		"categories": [
			"Ethiopian Restaurant"
		]
	},
	{
		"date": "2017-03-26T20:44:30.000Z",
		"name": "Cotton Candy Residence 9",
		"id": "58b5b40cf8408553bbaa8e3a",
		"lat": 52.36057991801562,
		"lng": 4.913380536475984,
		"country": "Nederland",
		"categories": [
			"Home (private)"
		]
	},
	{
		"date": "2017-03-27T07:11:28.000Z",
		"name": "WeWork Metropool",
		"id": "56a14a68498e77945ee2ced1",
		"lat": 52.36480793621647,
		"lng": 4.906191453337669,
		"address": "Weesperstraat 61",
		"postalCode": "1018 VN",
		"city": "Amsterdam",
		"country": "Nederland",
		"categories": [
			"Coworking Space",
			"Business Service"
		]
	},
	{
		"date": "2017-03-27T10:35:53.000Z",
		"name": "Bagels & Beans",
		"id": "5124b2ffe4b09ac38ea39ef7",
		"lat": 52.364046730172916,
		"lng": 4.910781025648928,
		"country": "Nederland",
		"categories": [
			"Bagel Shop"
		]
	},
	{
		"date": "2017-03-27T12:41:06.000Z",
		"name": "Docler Holding Amsterdam",
		"id": "58b684db52a051661da12674",
		"lat": 52.36505739184381,
		"lng": 4.906015988886142,
		"address": "Weespertraat 61",
		"postalCode": "1018 VN",
		"city": "Amsterdam",
		"country": "Nederland",
		"categories": [
			"Tech Startup"
		]
	},
	{
		"date": "2017-03-28T05:45:53.000Z",
		"name": "Cotton Candy Residence 9",
		"id": "58b5b40cf8408553bbaa8e3a",
		"lat": 52.36057991801562,
		"lng": 4.913380536475984,
		"country": "Nederland",
		"categories": [
			"Home (private)"
		]
	},
	{
		"date": "2017-03-28T08:57:53.000Z",
		"name": "WeWork Metropool",
		"id": "56a14a68498e77945ee2ced1",
		"lat": 52.36480793621647,
		"lng": 4.906191453337669,
		"address": "Weesperstraat 61",
		"postalCode": "1018 VN",
		"city": "Amsterdam",
		"country": "Nederland",
		"categories": [
			"Coworking Space",
			"Business Service"
		]
	},
	{
		"date": "2017-03-28T10:22:58.000Z",
		"name": "De Pizzabakkers",
		"id": "4d7a218c15958cfaf4251a25",
		"lat": 52.365446741247425,
		"lng": 4.910993391874042,
		"address": "Plantage Kerklaan 2",
		"postalCode": "1018 TA",
		"city": "Amsterdam",
		"country": "Nederland",
		"categories": [
			"Pizza Place"
		]
	},
	{
		"date": "2017-03-28T11:21:07.000Z",
		"name": "Docler Holding Amsterdam",
		"id": "58b684db52a051661da12674",
		"lat": 52.36505739184381,
		"lng": 4.906015988886142,
		"address": "Weespertraat 61",
		"postalCode": "1018 VN",
		"city": "Amsterdam",
		"country": "Nederland",
		"categories": [
			"Tech Startup"
		]
	},
	{
		"date": "2017-03-28T17:04:56.000Z",
		"name": "Cotton Candy Residence 9",
		"id": "58b5b40cf8408553bbaa8e3a",
		"lat": 52.36057991801562,
		"lng": 4.913380536475984,
		"country": "Nederland",
		"categories": [
			"Home (private)"
		]
	},
	{
		"date": "2017-03-29T10:11:02.000Z",
		"name": "Vapiano",
		"id": "4fb28f2be4b0e2be9a5f1f6f",
		"lat": 52.36612800819601,
		"lng": 4.897454374802111,
		"address": "Amstelstraat 2-4",
		"postalCode": "1017 DA",
		"city": "Amsterdam",
		"country": "Nederland",
		"categories": [
			"Italian Restaurant",
			"Pizza Place"
		]
	},
	{
		"date": "2017-03-29T16:15:12.000Z",
		"name": "WeWork Metropool",
		"id": "56a14a68498e77945ee2ced1",
		"lat": 52.36480793621647,
		"lng": 4.906191453337669,
		"address": "Weesperstraat 61",
		"postalCode": "1018 VN",
		"city": "Amsterdam",
		"country": "Nederland",
		"categories": [
			"Coworking Space",
			"Business Service"
		]
	},
	{
		"date": "2017-03-29T16:15:19.000Z",
		"name": "Docler Holding Amsterdam",
		"id": "58b684db52a051661da12674",
		"lat": 52.36505739184381,
		"lng": 4.906015988886142,
		"address": "Weespertraat 61",
		"postalCode": "1018 VN",
		"city": "Amsterdam",
		"country": "Nederland",
		"categories": [
			"Tech Startup"
		]
	},
	{
		"date": "2017-03-29T16:38:33.000Z",
		"name": "SPAR city Van Kempen",
		"id": "4b4c4089f964a52022b026e3",
		"lat": 52.36421961630775,
		"lng": 4.9056606671851295,
		"address": "Nieuwe Kerkstraat 65",
		"postalCode": "1018 DZ",
		"city": "Amsterdam",
		"country": "Nederland",
		"categories": [
			"Convenience Store",
			"Supermarket",
			"Grocery Store"
		]
	},
	{
		"date": "2017-03-29T16:50:36.000Z",
		"name": "Cotton Candy Residence 9",
		"id": "58b5b40cf8408553bbaa8e3a",
		"lat": 52.36057991801562,
		"lng": 4.913380536475984,
		"country": "Nederland",
		"categories": [
			"Home (private)"
		]
	},
	{
		"date": "2017-03-30T09:11:44.000Z",
		"name": "WeWork Metropool",
		"id": "56a14a68498e77945ee2ced1",
		"lat": 52.36480793621647,
		"lng": 4.906191453337669,
		"address": "Weesperstraat 61",
		"postalCode": "1018 VN",
		"city": "Amsterdam",
		"country": "Nederland",
		"categories": [
			"Coworking Space",
			"Business Service"
		]
	},
	{
		"date": "2017-03-30T10:26:47.000Z",
		"name": "wagamama",
		"id": "4ee4a1c84690f88940adf317",
		"lat": 52.36623736758097,
		"lng": 4.898547124211683,
		"address": "Amstelstraat 8",
		"postalCode": "1017 DA",
		"city": "Amsterdam",
		"country": "Nederland",
		"categories": [
			"Asian Restaurant",
			"Japanese Restaurant",
			"Noodle House"
		]
	},
	{
		"date": "2017-03-30T11:17:04.000Z",
		"name": "Docler Holding Amsterdam",
		"id": "58b684db52a051661da12674",
		"lat": 52.36505739184381,
		"lng": 4.906015988886142,
		"address": "Weespertraat 61",
		"postalCode": "1018 VN",
		"city": "Amsterdam",
		"country": "Nederland",
		"categories": [
			"Tech Startup"
		]
	},
	{
		"date": "2017-03-30T18:39:12.000Z",
		"name": "McDonald's",
		"id": "4a27db81f964a52032941fe3",
		"lat": 52.337693462537395,
		"lng": 4.9214284373180135,
		"address": "Spaklerweg 38",
		"postalCode": "1096 BA",
		"city": "Amsterdam",
		"country": "Nederland",
		"categories": [
			"Fast Food Restaurant",
			"Burger Joint",
			"Restaurant"
		]
	},
	{
		"date": "2017-03-30T19:39:26.000Z",
		"name": "Cotton Candy Residence 9",
		"id": "58b5b40cf8408553bbaa8e3a",
		"lat": 52.36057991801562,
		"lng": 4.913380536475984,
		"country": "Nederland",
		"categories": [
			"Home (private)"
		]
	},
	{
		"date": "2017-03-31T10:11:03.000Z",
		"name": "Tasty Burger",
		"id": "58ba0f14117420736151e102",
		"lat": 52.36620858404363,
		"lng": 4.8995569027015335,
		"country": "Nederland",
		"categories": [
			"Burger Joint"
		]
	},
	{
		"date": "2017-03-31T10:43:32.000Z",
		"name": "WeWork Metropool",
		"id": "56a14a68498e77945ee2ced1",
		"lat": 52.36480793621647,
		"lng": 4.906191453337669,
		"address": "Weesperstraat 61",
		"postalCode": "1018 VN",
		"city": "Amsterdam",
		"country": "Nederland",
		"categories": [
			"Coworking Space",
			"Business Service"
		]
	},
	{
		"date": "2017-03-31T15:10:21.000Z",
		"name": "Docler Holding Amsterdam",
		"id": "58b684db52a051661da12674",
		"lat": 52.36505739184381,
		"lng": 4.906015988886142,
		"address": "Weespertraat 61",
		"postalCode": "1018 VN",
		"city": "Amsterdam",
		"country": "Nederland",
		"categories": [
			"Tech Startup"
		]
	},
	{
		"date": "2017-03-31T18:21:39.000Z",
		"name": "Cotton Candy Residence 10",
		"id": "58cd4fe316f000799f4cf4f4",
		"lat": 52.392946926098126,
		"lng": 4.640537129468235,
		"city": "Haarlem",
		"country": "Nederland",
		"categories": [
			"Home (private)"
		]
	},
	{
		"date": "2017-03-31T18:33:05.000Z",
		"name": "Sultan shoarma",
		"id": "573362de498e4009791e56a8",
		"lat": 52.386933,
		"lng": 4.636699,
		"country": "Nederland",
		"categories": [
			"Snack Place"
		]
	}
]