[
	{
		"date": "2017-06-01T06:12:42.000Z",
		"name": "Station Haarlem",
		"id": "4a8c3036f964a5203a0d20e3",
		"lat": 52.38801057573046,
		"lng": 4.638713550666082,
		"address": "Stationsplein 11 L",
		"postalCode": "2011 LR",
		"city": "Haarlem",
		"country": "Nederland",
		"categories": [
			"Train Station"
		]
	},
	{
		"date": "2017-06-01T06:41:04.000Z",
		"name": "Amsterdam Central Railway Station (Station Amsterdam Centraal)",
		"id": "4a688ba1f964a52088ca1fe3",
		"lat": 52.37878224866535,
		"lng": 4.900374412536621,
		"address": "Stationsplein 15",
		"postalCode": "1012 AB",
		"city": "Amsterdam",
		"country": "Nederland",
		"categories": [
			"Train Station"
		]
	},
	{
		"date": "2017-06-01T06:53:33.000Z",
		"name": "WeWork Metropool",
		"id": "56a14a68498e77945ee2ced1",
		"lat": 52.36480793621647,
		"lng": 4.906191453337669,
		"address": "Weesperstraat 61",
		"postalCode": "1018 VN",
		"city": "Amsterdam",
		"country": "Nederland",
		"categories": [
			"Coworking Space",
			"Business Service"
		]
	},
	{
		"date": "2017-06-01T06:59:12.000Z",
		"name": "Docler Holding Amsterdam",
		"id": "58b684db52a051661da12674",
		"lat": 52.36505739184381,
		"lng": 4.906015988886142,
		"address": "Weespertraat 61",
		"postalCode": "1018 VN",
		"city": "Amsterdam",
		"country": "Nederland",
		"categories": [
			"Tech Startup"
		]
	},
	{
		"date": "2017-06-02T05:07:04.000Z",
		"name": "Station Haarlem",
		"id": "4a8c3036f964a5203a0d20e3",
		"lat": 52.38801057573046,
		"lng": 4.638713550666082,
		"address": "Stationsplein 11 L",
		"postalCode": "2011 LR",
		"city": "Haarlem",
		"country": "Nederland",
		"categories": [
			"Train Station"
		]
	},
	{
		"date": "2017-06-02T05:31:27.000Z",
		"name": "Amsterdam Central Railway Station (Station Amsterdam Centraal)",
		"id": "4a688ba1f964a52088ca1fe3",
		"lat": 52.37878224866535,
		"lng": 4.900374412536621,
		"address": "Stationsplein 15",
		"postalCode": "1012 AB",
		"city": "Amsterdam",
		"country": "Nederland",
		"categories": [
			"Train Station"
		]
	},
	{
		"date": "2017-06-02T05:42:46.000Z",
		"name": "SportCity",
		"id": "4a835233f964a520c6fa1fe3",
		"lat": 52.368877125084026,
		"lng": 4.900798968515201,
		"address": "Jodenbreestraat 6",
		"postalCode": "1011NK",
		"city": "Amsterdam",
		"country": "Nederland",
		"categories": [
			"Gym",
			"Gym / Fitness Center"
		]
	},
	{
		"date": "2017-06-02T06:55:12.000Z",
		"name": "WeWork Metropool",
		"id": "56a14a68498e77945ee2ced1",
		"lat": 52.36480793621647,
		"lng": 4.906191453337669,
		"address": "Weesperstraat 61",
		"postalCode": "1018 VN",
		"city": "Amsterdam",
		"country": "Nederland",
		"categories": [
			"Coworking Space",
			"Business Service"
		]
	},
	{
		"date": "2017-06-02T10:19:37.000Z",
		"name": "Lombardo's",
		"id": "4cceb56aba0a548146504a59",
		"lat": 52.363517592906334,
		"lng": 4.888746788870352,
		"address": "Nieuwe Spiegelstraat 50",
		"postalCode": "1017 DG",
		"city": "Amsterdam",
		"country": "Nederland",
		"categories": [
			"Burger Joint"
		]
	},
	{
		"date": "2017-06-02T15:24:53.000Z",
		"name": "Canvas",
		"id": "53b6dafc498e041871f481c2",
		"lat": 52.35395172305471,
		"lng": 4.9118582991221,
		"address": "Wibautstraat 150",
		"postalCode": "1091 GR",
		"city": "Amsterdam",
		"country": "Nederland",
		"categories": [
			"Restaurant",
			"Nightclub",
			"Lounge"
		]
	},
	{
		"date": "2017-06-02T19:47:47.000Z",
		"name": "Drovers Dog",
		"id": "56f68884498eaaed05a0c62e",
		"lat": 52.35201803987231,
		"lng": 4.913375095163036,
		"address": "Wibautstraat 206",
		"city": "Amsterdam",
		"country": "Nederland",
		"categories": [
			"Australian Restaurant"
		]
	},
	{
		"date": "2017-06-02T22:57:57.000Z",
		"name": "Amsterdam Central Railway Station (Station Amsterdam Centraal)",
		"id": "4a688ba1f964a52088ca1fe3",
		"lat": 52.37878224866535,
		"lng": 4.900374412536621,
		"address": "Stationsplein 15",
		"postalCode": "1012 AB",
		"city": "Amsterdam",
		"country": "Nederland",
		"categories": [
			"Train Station"
		]
	},
	{
		"date": "2017-06-03T09:20:16.000Z",
		"name": "Cotton Candy Residence 10",
		"id": "58cd4fe316f000799f4cf4f4",
		"lat": 52.392946926098126,
		"lng": 4.640537129468235,
		"city": "Haarlem",
		"country": "Nederland",
		"categories": [
			"Home (private)"
		]
	},
	{
		"date": "2017-06-03T12:26:46.000Z",
		"name": "IKEA",
		"id": "4b48d278f964a520a75826e3",
		"lat": 52.38470382072317,
		"lng": 4.669883675315246,
		"address": "Laan van Decima 1",
		"postalCode": "2031 CX",
		"city": "Haarlem",
		"country": "Nederland",
		"categories": [
			"Furniture / Home Store"
		]
	},
	{
		"date": "2017-06-03T15:43:21.000Z",
		"name": "Karwei",
		"id": "4b5b027ff964a520a9de28e3",
		"lat": 52.39005961436961,
		"lng": 4.626503810720334,
		"address": "Verspronckweg 63",
		"city": "Haarlem",
		"country": "Nederland",
		"categories": [
			"Hardware Store"
		]
	},
	{
		"date": "2017-06-03T19:03:00.000Z",
		"name": "Amsterdam Sloterdijk Station (Station Amsterdam Sloterdijk)",
		"id": "4a56245ff964a52085b41fe3",
		"lat": 52.38899431620469,
		"lng": 4.837957990409058,
		"address": "Orlyplein 105",
		"postalCode": "1043 DT",
		"city": "Amsterdam",
		"country": "Nederland",
		"categories": [
			"Train Station"
		]
	},
	{
		"date": "2017-06-03T19:25:15.000Z",
		"name": "Radijs",
		"id": "4c4b245e712ac928ac56806c",
		"lat": 52.37104934151684,
		"lng": 4.85675648240167,
		"address": "Jan Evertsenstraat 41",
		"postalCode": "1057 BM",
		"city": "Amsterdam",
		"country": "Nederland",
		"categories": [
			"Bistro",
			"Café",
			"Gastropub"
		]
	},
	{
		"date": "2017-06-03T23:29:07.000Z",
		"name": "Cotton Candy Residence 10",
		"id": "58cd4fe316f000799f4cf4f4",
		"lat": 52.392946926098126,
		"lng": 4.640537129468235,
		"city": "Haarlem",
		"country": "Nederland",
		"categories": [
			"Home (private)"
		]
	},
	{
		"date": "2017-06-04T12:19:29.000Z",
		"name": "IKEA",
		"id": "4b48d278f964a520a75826e3",
		"lat": 52.38470382072317,
		"lng": 4.669883675315246,
		"address": "Laan van Decima 1",
		"postalCode": "2031 CX",
		"city": "Haarlem",
		"country": "Nederland",
		"categories": [
			"Furniture / Home Store"
		]
	},
	{
		"date": "2017-06-04T12:46:37.000Z",
		"name": "Vomar Voordeelmarkt",
		"id": "4b72c969f964a52096882de3",
		"lat": 52.39127711020139,
		"lng": 4.649005288257338,
		"address": "Paul Krugerkade 22",
		"postalCode": "2021 BN",
		"city": "Haarlem",
		"country": "Nederland",
		"categories": [
			"Supermarket",
			"Grocery Store"
		]
	},
	{
		"date": "2017-06-04T13:18:46.000Z",
		"name": "Leen Bakker",
		"id": "4c6fd4279375a0930cf60437",
		"lat": 52.39163477107311,
		"lng": 4.6481859888170876,
		"address": "Paul Krugerkade 10",
		"postalCode": "2021 BN",
		"city": "Haarlem",
		"country": "Nederland",
		"categories": [
			"Furniture / Home Store"
		]
	},
	{
		"date": "2017-06-05T11:56:04.000Z",
		"name": "The Hague (Den Haag)",
		"id": "4cc45ff782388cfa457c6e35",
		"lat": 52.08340415368163,
		"lng": 4.309837400987983,
		"country": "Nederland",
		"categories": [
			"City"
		]
	},
	{
		"date": "2017-06-05T12:05:27.000Z",
		"name": "World Forum",
		"id": "4af83217f964a520520b22e3",
		"lat": 52.09304250173977,
		"lng": 4.283519618187207,
		"address": "Churchillplein 10",
		"postalCode": "2517 JW",
		"city": "Den Haag",
		"country": "Nederland",
		"categories": [
			"Event Space",
			"Concert Hall",
			"Theater"
		]
	},
	{
		"date": "2017-06-05T12:48:32.000Z",
		"name": "Scheveningse Strand",
		"id": "4b8d0baef964a520b4e532e3",
		"lat": 52.10850838536631,
		"lng": 4.273853302001953,
		"address": "Strandweg",
		"postalCode": "2586 JK",
		"city": "Den Haag",
		"country": "Nederland",
		"categories": [
			"Beach",
			"Surf Spot"
		]
	},
	{
		"date": "2017-06-05T13:49:28.000Z",
		"name": "Scheveningse Pier",
		"id": "4bc059cc461576b043077a32",
		"lat": 52.11545577516887,
		"lng": 4.283221335590497,
		"address": "Strandweg 1",
		"postalCode": "2586 JK",
		"city": "Scheveningen",
		"country": "Nederland",
		"categories": [
			"Pier",
			"Scenic Lookout"
		]
	},
	{
		"date": "2017-06-05T14:14:45.000Z",
		"name": "Cocomo Beachclub",
		"id": "4bd30119462cb7131c49dd07",
		"lat": 52.1122528300146,
		"lng": 4.278350889366722,
		"address": "Strandweg 1",
		"postalCode": "2586",
		"city": "Den Haag",
		"country": "Nederland",
		"categories": [
			"Lounge"
		]
	},
	{
		"date": "2017-06-05T16:40:35.000Z",
		"name": "Westbroekpark",
		"id": "4a9a8beaf964a520d43120e3",
		"lat": 52.10308032119532,
		"lng": 4.292601243236749,
		"address": "Kapelweg",
		"postalCode": "2587 BK",
		"city": "Den Haag",
		"country": "Nederland",
		"categories": [
			"Park"
		]
	},
	{
		"date": "2017-06-05T17:06:38.000Z",
		"name": "Tramhalte Kalvermarkt-Stadhuis",
		"id": "4b49e5daf964a520957526e3",
		"lat": 52.07792265313762,
		"lng": 4.316346693894645,
		"address": "Kalvermarkt",
		"city": "Den Haag",
		"country": "Nederland",
		"categories": [
			"Tram Station"
		]
	},
	{
		"date": "2017-06-05T17:18:47.000Z",
		"name": "Woeng Kee",
		"id": "4cbdf17a575d236a6623b68e",
		"lat": 52.07610752588119,
		"lng": 4.314226781849481,
		"address": "Gedemptegracht 319",
		"postalCode": "2512 AM",
		"city": "Den Haag",
		"country": "Nederland",
		"categories": [
			"Dim Sum Restaurant",
			"Chinese Restaurant"
		]
	},
	{
		"date": "2017-06-05T18:20:03.000Z",
		"name": "Binnenhof (Het Binnenhof)",
		"id": "4b268bb0f964a5204b7d24e3",
		"lat": 52.079457031469644,
		"lng": 4.312365524934367,
		"address": "Binnenhof 1",
		"postalCode": "2513 AA",
		"city": "Den Haag",
		"country": "Nederland",
		"categories": [
			"Government Building",
			"Monument / Landmark"
		]
	},
	{
		"date": "2017-06-05T20:43:53.000Z",
		"name": "Cotton Candy Residence 10",
		"id": "58cd4fe316f000799f4cf4f4",
		"lat": 52.392946926098126,
		"lng": 4.640537129468235,
		"city": "Haarlem",
		"country": "Nederland",
		"categories": [
			"Home (private)"
		]
	},
	{
		"date": "2017-06-06T06:44:36.000Z",
		"name": "WeWork Metropool",
		"id": "56a14a68498e77945ee2ced1",
		"lat": 52.36480793621647,
		"lng": 4.906191453337669,
		"address": "Weesperstraat 61",
		"postalCode": "1018 VN",
		"city": "Amsterdam",
		"country": "Nederland",
		"categories": [
			"Coworking Space",
			"Business Service"
		]
	},
	{
		"date": "2017-06-06T10:00:16.000Z",
		"name": "SPAR city Van Kempen",
		"id": "4b4c4089f964a52022b026e3",
		"lat": 52.36421961630775,
		"lng": 4.9056606671851295,
		"address": "Nieuwe Kerkstraat 65",
		"postalCode": "1018 DZ",
		"city": "Amsterdam",
		"country": "Nederland",
		"categories": [
			"Convenience Store",
			"Supermarket",
			"Grocery Store"
		]
	},
	{
		"date": "2017-06-06T14:42:16.000Z",
		"name": "Docler Holding Amsterdam",
		"id": "58b684db52a051661da12674",
		"lat": 52.36505739184381,
		"lng": 4.906015988886142,
		"address": "Weespertraat 61",
		"postalCode": "1018 VN",
		"city": "Amsterdam",
		"country": "Nederland",
		"categories": [
			"Tech Startup"
		]
	},
	{
		"date": "2017-06-06T18:48:56.000Z",
		"name": "Cotton Candy Residence 10",
		"id": "58cd4fe316f000799f4cf4f4",
		"lat": 52.392946926098126,
		"lng": 4.640537129468235,
		"city": "Haarlem",
		"country": "Nederland",
		"categories": [
			"Home (private)"
		]
	},
	{
		"date": "2017-06-07T04:54:40.000Z",
		"name": "Station Haarlem",
		"id": "4a8c3036f964a5203a0d20e3",
		"lat": 52.38801057573046,
		"lng": 4.638713550666082,
		"address": "Stationsplein 11 L",
		"postalCode": "2011 LR",
		"city": "Haarlem",
		"country": "Nederland",
		"categories": [
			"Train Station"
		]
	},
	{
		"date": "2017-06-07T05:41:29.000Z",
		"name": "SportCity",
		"id": "4a835233f964a520c6fa1fe3",
		"lat": 52.368877125084026,
		"lng": 4.900798968515201,
		"address": "Jodenbreestraat 6",
		"postalCode": "1011NK",
		"city": "Amsterdam",
		"country": "Nederland",
		"categories": [
			"Gym",
			"Gym / Fitness Center"
		]
	},
	{
		"date": "2017-06-07T06:49:48.000Z",
		"name": "WeWork Metropool",
		"id": "56a14a68498e77945ee2ced1",
		"lat": 52.36480793621647,
		"lng": 4.906191453337669,
		"address": "Weesperstraat 61",
		"postalCode": "1018 VN",
		"city": "Amsterdam",
		"country": "Nederland",
		"categories": [
			"Coworking Space",
			"Business Service"
		]
	},
	{
		"date": "2017-06-07T07:07:38.000Z",
		"name": "Docler Holding Amsterdam",
		"id": "58b684db52a051661da12674",
		"lat": 52.36505739184381,
		"lng": 4.906015988886142,
		"address": "Weespertraat 61",
		"postalCode": "1018 VN",
		"city": "Amsterdam",
		"country": "Nederland",
		"categories": [
			"Tech Startup"
		]
	},
	{
		"date": "2017-06-08T05:59:54.000Z",
		"name": "Cotton Candy Residence 10",
		"id": "58cd4fe316f000799f4cf4f4",
		"lat": 52.392946926098126,
		"lng": 4.640537129468235,
		"city": "Haarlem",
		"country": "Nederland",
		"categories": [
			"Home (private)"
		]
	},
	{
		"date": "2017-06-08T06:13:28.000Z",
		"name": "Station Haarlem",
		"id": "4a8c3036f964a5203a0d20e3",
		"lat": 52.38801057573046,
		"lng": 4.638713550666082,
		"address": "Stationsplein 11 L",
		"postalCode": "2011 LR",
		"city": "Haarlem",
		"country": "Nederland",
		"categories": [
			"Train Station"
		]
	},
	{
		"date": "2017-06-08T08:34:50.000Z",
		"name": "WeWork Metropool",
		"id": "56a14a68498e77945ee2ced1",
		"lat": 52.36480793621647,
		"lng": 4.906191453337669,
		"address": "Weesperstraat 61",
		"postalCode": "1018 VN",
		"city": "Amsterdam",
		"country": "Nederland",
		"categories": [
			"Coworking Space",
			"Business Service"
		]
	},
	{
		"date": "2017-06-08T09:52:05.000Z",
		"name": "Water & Brood",
		"id": "590c4ecfcad1b67f0cc84943",
		"lat": 52.36423552187337,
		"lng": 4.905926229851091,
		"address": "Nieuwe Kerkstraat 84",
		"postalCode": "1018 EC",
		"city": "Amsterdam",
		"country": "Nederland",
		"categories": [
			"Breakfast Spot"
		]
	},
	{
		"date": "2017-06-08T11:10:54.000Z",
		"name": "Docler Holding Amsterdam",
		"id": "58b684db52a051661da12674",
		"lat": 52.36505739184381,
		"lng": 4.906015988886142,
		"address": "Weespertraat 61",
		"postalCode": "1018 VN",
		"city": "Amsterdam",
		"country": "Nederland",
		"categories": [
			"Tech Startup"
		]
	},
	{
		"date": "2017-06-08T17:16:49.000Z",
		"name": "Station Haarlem",
		"id": "4a8c3036f964a5203a0d20e3",
		"lat": 52.38801057573046,
		"lng": 4.638713550666082,
		"address": "Stationsplein 11 L",
		"postalCode": "2011 LR",
		"city": "Haarlem",
		"country": "Nederland",
		"categories": [
			"Train Station"
		]
	},
	{
		"date": "2017-06-08T17:21:30.000Z",
		"name": "The Döner Company",
		"id": "4d790928a56e37040e5d7567",
		"lat": 52.38817372624091,
		"lng": 4.63927902305991,
		"address": "Station Haarlem",
		"postalCode": "2011 LR",
		"city": "Haarlem",
		"country": "Nederland",
		"categories": [
			"Doner Restaurant",
			"Falafel Restaurant",
			"Kebab Restaurant"
		]
	},
	{
		"date": "2017-06-08T17:58:49.000Z",
		"name": "Cotton Candy Residence 10",
		"id": "58cd4fe316f000799f4cf4f4",
		"lat": 52.392946926098126,
		"lng": 4.640537129468235,
		"city": "Haarlem",
		"country": "Nederland",
		"categories": [
			"Home (private)"
		]
	},
	{
		"date": "2017-06-09T10:00:05.000Z",
		"name": "Salsa Shop",
		"id": "53c3ca66498ea876ac0e1349",
		"lat": 52.36622550874323,
		"lng": 4.899968972243181,
		"address": "Amstelstraat 32A",
		"postalCode": "1017 DA",
		"city": "Amsterdam",
		"country": "Nederland",
		"categories": [
			"Mexican Restaurant"
		]
	},
	{
		"date": "2017-06-09T14:52:56.000Z",
		"name": "Leidseplein",
		"id": "4a47d9d4f964a5202faa1fe3",
		"lat": 52.36420906224259,
		"lng": 4.882840965291386,
		"address": "Leidseplein",
		"postalCode": "1017",
		"city": "Amsterdam",
		"country": "Nederland",
		"categories": [
			"Plaza"
		]
	},
	{
		"date": "2017-06-09T15:15:55.000Z",
		"name": "Midi Amsterdam",
		"id": "4dc15e53d4c07bbdf7732543",
		"lat": 52.36089421144778,
		"lng": 4.868581880302388,
		"address": "Overtoom 431",
		"postalCode": "1054 KE",
		"city": "Amsterdam",
		"country": "Nederland",
		"categories": [
			"Music Store"
		]
	},
	{
		"date": "2017-06-09T17:36:22.000Z",
		"name": "Vomar Voordeelmarkt",
		"id": "4b72c969f964a52096882de3",
		"lat": 52.39127711020139,
		"lng": 4.649005288257338,
		"address": "Paul Krugerkade 22",
		"postalCode": "2021 BN",
		"city": "Haarlem",
		"country": "Nederland",
		"categories": [
			"Supermarket",
			"Grocery Store"
		]
	},
	{
		"date": "2017-06-09T18:10:17.000Z",
		"name": "Cotton Candy Residence 10",
		"id": "58cd4fe316f000799f4cf4f4",
		"lat": 52.392946926098126,
		"lng": 4.640537129468235,
		"city": "Haarlem",
		"country": "Nederland",
		"categories": [
			"Home (private)"
		]
	},
	{
		"date": "2017-06-10T08:46:09.000Z",
		"name": "Karwei",
		"id": "4b5b027ff964a520a9de28e3",
		"lat": 52.39005961436961,
		"lng": 4.626503810720334,
		"address": "Verspronckweg 63",
		"city": "Haarlem",
		"country": "Nederland",
		"categories": [
			"Hardware Store"
		]
	},
	{
		"date": "2017-06-10T17:24:39.000Z",
		"name": "Cotton Candy Residence 10",
		"id": "58cd4fe316f000799f4cf4f4",
		"lat": 52.392946926098126,
		"lng": 4.640537129468235,
		"city": "Haarlem",
		"country": "Nederland",
		"categories": [
			"Home (private)"
		]
	},
	{
		"date": "2017-06-11T19:11:07.000Z",
		"name": "Cotton Candy Residence 10",
		"id": "58cd4fe316f000799f4cf4f4",
		"lat": 52.392946926098126,
		"lng": 4.640537129468235,
		"city": "Haarlem",
		"country": "Nederland",
		"categories": [
			"Home (private)"
		]
	},
	{
		"date": "2017-06-12T05:08:00.000Z",
		"name": "Station Haarlem",
		"id": "4a8c3036f964a5203a0d20e3",
		"lat": 52.38801057573046,
		"lng": 4.638713550666082,
		"address": "Stationsplein 11 L",
		"postalCode": "2011 LR",
		"city": "Haarlem",
		"country": "Nederland",
		"categories": [
			"Train Station"
		]
	},
	{
		"date": "2017-06-12T05:26:37.000Z",
		"name": "Amsterdam Central Railway Station (Station Amsterdam Centraal)",
		"id": "4a688ba1f964a52088ca1fe3",
		"lat": 52.37878224866535,
		"lng": 4.900374412536621,
		"address": "Stationsplein 15",
		"postalCode": "1012 AB",
		"city": "Amsterdam",
		"country": "Nederland",
		"categories": [
			"Train Station"
		]
	},
	{
		"date": "2017-06-12T05:40:24.000Z",
		"name": "SportCity",
		"id": "4a835233f964a520c6fa1fe3",
		"lat": 52.368877125084026,
		"lng": 4.900798968515201,
		"address": "Jodenbreestraat 6",
		"postalCode": "1011NK",
		"city": "Amsterdam",
		"country": "Nederland",
		"categories": [
			"Gym",
			"Gym / Fitness Center"
		]
	},
	{
		"date": "2017-06-12T06:54:06.000Z",
		"name": "WeWork Metropool",
		"id": "56a14a68498e77945ee2ced1",
		"lat": 52.36480793621647,
		"lng": 4.906191453337669,
		"address": "Weesperstraat 61",
		"postalCode": "1018 VN",
		"city": "Amsterdam",
		"country": "Nederland",
		"categories": [
			"Coworking Space",
			"Business Service"
		]
	},
	{
		"date": "2017-06-12T09:54:40.000Z",
		"name": "Morena aan de Amstel",
		"id": "52dabde2498e516303dc5adc",
		"lat": 52.36625555810526,
		"lng": 4.9015951825233985,
		"address": "Amstel 47",
		"postalCode": "1011 PW",
		"city": "Amsterdam",
		"country": "Nederland",
		"categories": [
			"Greek Restaurant"
		]
	},
	{
		"date": "2017-06-12T16:37:32.000Z",
		"name": "Amsterdam Central Railway Station (Station Amsterdam Centraal)",
		"id": "4a688ba1f964a52088ca1fe3",
		"lat": 52.37878224866535,
		"lng": 4.900374412536621,
		"address": "Stationsplein 15",
		"postalCode": "1012 AB",
		"city": "Amsterdam",
		"country": "Nederland",
		"categories": [
			"Train Station"
		]
	},
	{
		"date": "2017-06-12T17:05:15.000Z",
		"name": "Station Haarlem",
		"id": "4a8c3036f964a5203a0d20e3",
		"lat": 52.38801057573046,
		"lng": 4.638713550666082,
		"address": "Stationsplein 11 L",
		"postalCode": "2011 LR",
		"city": "Haarlem",
		"country": "Nederland",
		"categories": [
			"Train Station"
		]
	},
	{
		"date": "2017-06-12T18:13:49.000Z",
		"name": "Cotton Candy Residence 10",
		"id": "58cd4fe316f000799f4cf4f4",
		"lat": 52.392946926098126,
		"lng": 4.640537129468235,
		"city": "Haarlem",
		"country": "Nederland",
		"categories": [
			"Home (private)"
		]
	},
	{
		"date": "2017-06-13T06:13:53.000Z",
		"name": "Station Haarlem",
		"id": "4a8c3036f964a5203a0d20e3",
		"lat": 52.38801057573046,
		"lng": 4.638713550666082,
		"address": "Stationsplein 11 L",
		"postalCode": "2011 LR",
		"city": "Haarlem",
		"country": "Nederland",
		"categories": [
			"Train Station"
		]
	},
	{
		"date": "2017-06-13T16:28:15.000Z",
		"name": "Amsterdam Central Railway Station (Station Amsterdam Centraal)",
		"id": "4a688ba1f964a52088ca1fe3",
		"lat": 52.37878224866535,
		"lng": 4.900374412536621,
		"address": "Stationsplein 15",
		"postalCode": "1012 AB",
		"city": "Amsterdam",
		"country": "Nederland",
		"categories": [
			"Train Station"
		]
	},
	{
		"date": "2017-06-13T16:51:50.000Z",
		"name": "Station Haarlem",
		"id": "4a8c3036f964a5203a0d20e3",
		"lat": 52.38801057573046,
		"lng": 4.638713550666082,
		"address": "Stationsplein 11 L",
		"postalCode": "2011 LR",
		"city": "Haarlem",
		"country": "Nederland",
		"categories": [
			"Train Station"
		]
	},
	{
		"date": "2017-06-13T19:49:23.000Z",
		"name": "Parnassia aan Zee",
		"id": "4c00db479cf52d7f106914e7",
		"lat": 52.41837270860607,
		"lng": 4.554015268505989,
		"address": "Parnassiaweg 1",
		"postalCode": "2051 EA",
		"city": "Overveen",
		"country": "Nederland",
		"categories": [
			"Beach",
			"Café"
		]
	},
	{
		"date": "2017-06-13T20:24:20.000Z",
		"name": "Parnassia Strandtent",
		"id": "4b69836ef964a5205da52be3",
		"lat": 52.41835165990014,
		"lng": 4.554030992397868,
		"address": "Zeeweg",
		"postalCode": "2051 EA",
		"city": "Bloemendaal",
		"country": "Nederland",
		"categories": [
			"Bar",
			"Café"
		]
	},
	{
		"date": "2017-06-14T05:07:57.000Z",
		"name": "Station Haarlem",
		"id": "4a8c3036f964a5203a0d20e3",
		"lat": 52.38801057573046,
		"lng": 4.638713550666082,
		"address": "Stationsplein 11 L",
		"postalCode": "2011 LR",
		"city": "Haarlem",
		"country": "Nederland",
		"categories": [
			"Train Station"
		]
	},
	{
		"date": "2017-06-14T05:37:07.000Z",
		"name": "Amsterdam Central Railway Station (Station Amsterdam Centraal)",
		"id": "4a688ba1f964a52088ca1fe3",
		"lat": 52.37878224866535,
		"lng": 4.900374412536621,
		"address": "Stationsplein 15",
		"postalCode": "1012 AB",
		"city": "Amsterdam",
		"country": "Nederland",
		"categories": [
			"Train Station"
		]
	},
	{
		"date": "2017-06-14T05:48:22.000Z",
		"name": "SportCity",
		"id": "4a835233f964a520c6fa1fe3",
		"lat": 52.368877125084026,
		"lng": 4.900798968515201,
		"address": "Jodenbreestraat 6",
		"postalCode": "1011NK",
		"city": "Amsterdam",
		"country": "Nederland",
		"categories": [
			"Gym",
			"Gym / Fitness Center"
		]
	},
	{
		"date": "2017-06-14T07:40:01.000Z",
		"name": "WeWork Metropool",
		"id": "56a14a68498e77945ee2ced1",
		"lat": 52.36480793621647,
		"lng": 4.906191453337669,
		"address": "Weesperstraat 61",
		"postalCode": "1018 VN",
		"city": "Amsterdam",
		"country": "Nederland",
		"categories": [
			"Coworking Space",
			"Business Service"
		]
	},
	{
		"date": "2017-06-14T09:50:42.000Z",
		"name": "SPAR city Van Kempen",
		"id": "4b4c4089f964a52022b026e3",
		"lat": 52.36421961630775,
		"lng": 4.9056606671851295,
		"address": "Nieuwe Kerkstraat 65",
		"postalCode": "1018 DZ",
		"city": "Amsterdam",
		"country": "Nederland",
		"categories": [
			"Convenience Store",
			"Supermarket",
			"Grocery Store"
		]
	},
	{
		"date": "2017-06-14T16:13:06.000Z",
		"name": "Amsterdam Central Railway Station (Station Amsterdam Centraal)",
		"id": "4a688ba1f964a52088ca1fe3",
		"lat": 52.37878224866535,
		"lng": 4.900374412536621,
		"address": "Stationsplein 15",
		"postalCode": "1012 AB",
		"city": "Amsterdam",
		"country": "Nederland",
		"categories": [
			"Train Station"
		]
	},
	{
		"date": "2017-06-14T17:22:17.000Z",
		"name": "Cotton Candy Residence 10",
		"id": "58cd4fe316f000799f4cf4f4",
		"lat": 52.392946926098126,
		"lng": 4.640537129468235,
		"city": "Haarlem",
		"country": "Nederland",
		"categories": [
			"Home (private)"
		]
	},
	{
		"date": "2017-06-14T18:00:02.000Z",
		"name": "Primark",
		"id": "57fbac86498e161d00c0124a",
		"lat": 52.37458395111685,
		"lng": 4.894425272941589,
		"address": "Damrak 77",
		"postalCode": "1012 LM",
		"city": "Amsterdam",
		"country": "Nederland",
		"categories": [
			"Clothing Store"
		]
	},
	{
		"date": "2017-06-14T20:04:13.000Z",
		"name": "d&a Hummus Bistro",
		"id": "55523531498ee5528513f68e",
		"lat": 52.3783524750886,
		"lng": 4.882680512899208,
		"address": "Westerstraat 136",
		"postalCode": "1015 MP",
		"city": "Amsterdam",
		"country": "Nederland",
		"categories": [
			"Bistro"
		]
	},
	{
		"date": "2017-06-14T23:46:27.000Z",
		"name": "Cotton Candy Residence 10",
		"id": "58cd4fe316f000799f4cf4f4",
		"lat": 52.392946926098126,
		"lng": 4.640537129468235,
		"city": "Haarlem",
		"country": "Nederland",
		"categories": [
			"Home (private)"
		]
	},
	{
		"date": "2017-06-15T09:07:20.000Z",
		"name": "Station Haarlem",
		"id": "4a8c3036f964a5203a0d20e3",
		"lat": 52.38801057573046,
		"lng": 4.638713550666082,
		"address": "Stationsplein 11 L",
		"postalCode": "2011 LR",
		"city": "Haarlem",
		"country": "Nederland",
		"categories": [
			"Train Station"
		]
	},
	{
		"date": "2017-06-15T09:29:59.000Z",
		"name": "Amsterdam Central Railway Station (Station Amsterdam Centraal)",
		"id": "4a688ba1f964a52088ca1fe3",
		"lat": 52.37878224866535,
		"lng": 4.900374412536621,
		"address": "Stationsplein 15",
		"postalCode": "1012 AB",
		"city": "Amsterdam",
		"country": "Nederland",
		"categories": [
			"Train Station"
		]
	},
	{
		"date": "2017-06-15T09:41:38.000Z",
		"name": "WeWork Metropool",
		"id": "56a14a68498e77945ee2ced1",
		"lat": 52.36480793621647,
		"lng": 4.906191453337669,
		"address": "Weesperstraat 61",
		"postalCode": "1018 VN",
		"city": "Amsterdam",
		"country": "Nederland",
		"categories": [
			"Coworking Space",
			"Business Service"
		]
	},
	{
		"date": "2017-06-15T09:53:54.000Z",
		"name": "Docler Holding Amsterdam",
		"id": "58b684db52a051661da12674",
		"lat": 52.36505739184381,
		"lng": 4.906015988886142,
		"address": "Weespertraat 61",
		"postalCode": "1018 VN",
		"city": "Amsterdam",
		"country": "Nederland",
		"categories": [
			"Tech Startup"
		]
	},
	{
		"date": "2017-06-15T10:00:04.000Z",
		"name": "SPAR city Van Kempen",
		"id": "4b4c4089f964a52022b026e3",
		"lat": 52.36421961630775,
		"lng": 4.9056606671851295,
		"address": "Nieuwe Kerkstraat 65",
		"postalCode": "1018 DZ",
		"city": "Amsterdam",
		"country": "Nederland",
		"categories": [
			"Convenience Store",
			"Supermarket",
			"Grocery Store"
		]
	},
	{
		"date": "2017-06-15T21:25:27.000Z",
		"name": "Amsterdam Central Railway Station (Station Amsterdam Centraal)",
		"id": "4a688ba1f964a52088ca1fe3",
		"lat": 52.37878224866535,
		"lng": 4.900374412536621,
		"address": "Stationsplein 15",
		"postalCode": "1012 AB",
		"city": "Amsterdam",
		"country": "Nederland",
		"categories": [
			"Train Station"
		]
	},
	{
		"date": "2017-06-15T21:52:17.000Z",
		"name": "Station Haarlem",
		"id": "4a8c3036f964a5203a0d20e3",
		"lat": 52.38801057573046,
		"lng": 4.638713550666082,
		"address": "Stationsplein 11 L",
		"postalCode": "2011 LR",
		"city": "Haarlem",
		"country": "Nederland",
		"categories": [
			"Train Station"
		]
	},
	{
		"date": "2017-06-16T07:49:34.000Z",
		"name": "WeWork Metropool",
		"id": "56a14a68498e77945ee2ced1",
		"lat": 52.36480793621647,
		"lng": 4.906191453337669,
		"address": "Weesperstraat 61",
		"postalCode": "1018 VN",
		"city": "Amsterdam",
		"country": "Nederland",
		"categories": [
			"Coworking Space",
			"Business Service"
		]
	},
	{
		"date": "2017-06-16T09:57:04.000Z",
		"name": "Water & Brood",
		"id": "590c4ecfcad1b67f0cc84943",
		"lat": 52.36423552187337,
		"lng": 4.905926229851091,
		"address": "Nieuwe Kerkstraat 84",
		"postalCode": "1018 EC",
		"city": "Amsterdam",
		"country": "Nederland",
		"categories": [
			"Breakfast Spot"
		]
	},
	{
		"date": "2017-06-16T12:59:27.000Z",
		"name": "Docler Holding Amsterdam",
		"id": "58b684db52a051661da12674",
		"lat": 52.36505739184381,
		"lng": 4.906015988886142,
		"address": "Weespertraat 61",
		"postalCode": "1018 VN",
		"city": "Amsterdam",
		"country": "Nederland",
		"categories": [
			"Tech Startup"
		]
	},
	{
		"date": "2017-06-16T15:56:43.000Z",
		"name": "Amsterdam Central Railway Station (Station Amsterdam Centraal)",
		"id": "4a688ba1f964a52088ca1fe3",
		"lat": 52.37878224866535,
		"lng": 4.900374412536621,
		"address": "Stationsplein 15",
		"postalCode": "1012 AB",
		"city": "Amsterdam",
		"country": "Nederland",
		"categories": [
			"Train Station"
		]
	},
	{
		"date": "2017-06-16T16:20:58.000Z",
		"name": "Station Haarlem",
		"id": "4a8c3036f964a5203a0d20e3",
		"lat": 52.38801057573046,
		"lng": 4.638713550666082,
		"address": "Stationsplein 11 L",
		"postalCode": "2011 LR",
		"city": "Haarlem",
		"country": "Nederland",
		"categories": [
			"Train Station"
		]
	},
	{
		"date": "2017-06-16T17:02:35.000Z",
		"name": "Cotton Candy Residence 10",
		"id": "58cd4fe316f000799f4cf4f4",
		"lat": 52.392946926098126,
		"lng": 4.640537129468235,
		"city": "Haarlem",
		"country": "Nederland",
		"categories": [
			"Home (private)"
		]
	},
	{
		"date": "2017-06-17T18:03:52.000Z",
		"name": "Cantina 023",
		"id": "551ec7ec498e16e90289f15d",
		"lat": 52.379151208083414,
		"lng": 4.636822362656406,
		"address": "Kleine Houtstraat 13",
		"city": "Haarlem",
		"country": "Nederland",
		"categories": [
			"Mexican Restaurant"
		]
	},
	{
		"date": "2017-06-17T19:23:28.000Z",
		"name": "Albert Heijn",
		"id": "4b9a4b64f964a52066aa35e3",
		"lat": 52.38445463709139,
		"lng": 4.635787640721933,
		"address": "Kruisstraat 10",
		"postalCode": "2011 PX",
		"city": "Haarlem",
		"country": "Nederland",
		"categories": [
			"Supermarket"
		]
	},
	{
		"date": "2017-06-18T00:16:43.000Z",
		"name": "Cotton Candy Residence 10",
		"id": "58cd4fe316f000799f4cf4f4",
		"lat": 52.392946926098126,
		"lng": 4.640537129468235,
		"city": "Haarlem",
		"country": "Nederland",
		"categories": [
			"Home (private)"
		]
	},
	{
		"date": "2017-06-18T09:53:12.000Z",
		"name": "Vomar Voordeelmarkt",
		"id": "4b72c969f964a52096882de3",
		"lat": 52.39127711020139,
		"lng": 4.649005288257338,
		"address": "Paul Krugerkade 22",
		"postalCode": "2021 BN",
		"city": "Haarlem",
		"country": "Nederland",
		"categories": [
			"Supermarket",
			"Grocery Store"
		]
	},
	{
		"date": "2017-06-18T12:49:46.000Z",
		"name": "Cotton Candy Residence 10",
		"id": "58cd4fe316f000799f4cf4f4",
		"lat": 52.392946926098126,
		"lng": 4.640537129468235,
		"city": "Haarlem",
		"country": "Nederland",
		"categories": [
			"Home (private)"
		]
	},
	{
		"date": "2017-06-18T15:10:06.000Z",
		"name": "Parnassia aan Zee",
		"id": "4c00db479cf52d7f106914e7",
		"lat": 52.41837270860607,
		"lng": 4.554015268505989,
		"address": "Parnassiaweg 1",
		"postalCode": "2051 EA",
		"city": "Overveen",
		"country": "Nederland",
		"categories": [
			"Beach",
			"Café"
		]
	},
	{
		"date": "2017-06-18T18:01:08.000Z",
		"name": "McDonald's",
		"id": "521e315611d296bd093170da",
		"lat": 52.355762520717754,
		"lng": 4.772792548277607,
		"address": "Fogostraat 8",
		"postalCode": "1060 LJ",
		"city": "Amsterdam",
		"country": "Nederland",
		"categories": [
			"Fast Food Restaurant",
			"Burger Joint",
			"Restaurant"
		]
	},
	{
		"date": "2017-06-19T05:09:45.000Z",
		"name": "Station Haarlem",
		"id": "4a8c3036f964a5203a0d20e3",
		"lat": 52.38801057573046,
		"lng": 4.638713550666082,
		"address": "Stationsplein 11 L",
		"postalCode": "2011 LR",
		"city": "Haarlem",
		"country": "Nederland",
		"categories": [
			"Train Station"
		]
	},
	{
		"date": "2017-06-19T05:26:26.000Z",
		"name": "Amsterdam Central Railway Station (Station Amsterdam Centraal)",
		"id": "4a688ba1f964a52088ca1fe3",
		"lat": 52.37878224866535,
		"lng": 4.900374412536621,
		"address": "Stationsplein 15",
		"postalCode": "1012 AB",
		"city": "Amsterdam",
		"country": "Nederland",
		"categories": [
			"Train Station"
		]
	},
	{
		"date": "2017-06-19T06:06:51.000Z",
		"name": "SportCity",
		"id": "4a835233f964a520c6fa1fe3",
		"lat": 52.368877125084026,
		"lng": 4.900798968515201,
		"address": "Jodenbreestraat 6",
		"postalCode": "1011NK",
		"city": "Amsterdam",
		"country": "Nederland",
		"categories": [
			"Gym",
			"Gym / Fitness Center"
		]
	},
	{
		"date": "2017-06-19T07:50:13.000Z",
		"name": "WeWork Metropool",
		"id": "56a14a68498e77945ee2ced1",
		"lat": 52.36480793621647,
		"lng": 4.906191453337669,
		"address": "Weesperstraat 61",
		"postalCode": "1018 VN",
		"city": "Amsterdam",
		"country": "Nederland",
		"categories": [
			"Coworking Space",
			"Business Service"
		]
	},
	{
		"date": "2017-06-19T08:19:08.000Z",
		"name": "Docler Holding Amsterdam",
		"id": "58b684db52a051661da12674",
		"lat": 52.36505739184381,
		"lng": 4.906015988886142,
		"address": "Weespertraat 61",
		"postalCode": "1018 VN",
		"city": "Amsterdam",
		"country": "Nederland",
		"categories": [
			"Tech Startup"
		]
	},
	{
		"date": "2017-06-19T10:06:42.000Z",
		"name": "Dignita Hoftuin",
		"id": "533be41d498e27abec15de89",
		"lat": 52.36560821263587,
		"lng": 4.904463683198305,
		"address": "Nieuwe Herengracht 18A",
		"postalCode": "1018 DP",
		"city": "Amsterdam",
		"country": "Nederland",
		"categories": [
			"Tea Room",
			"Breakfast Spot",
			"Bistro"
		]
	},
	{
		"date": "2017-06-19T10:07:22.000Z",
		"name": "Dignita Hoftuin",
		"id": "533be41d498e27abec15de89",
		"lat": 52.36560821263587,
		"lng": 4.904463683198305,
		"address": "Nieuwe Herengracht 18A",
		"postalCode": "1018 DP",
		"city": "Amsterdam",
		"country": "Nederland",
		"categories": [
			"Tea Room",
			"Breakfast Spot",
			"Bistro"
		]
	},
	{
		"date": "2017-06-19T17:25:35.000Z",
		"name": "Amsterdam Central Railway Station (Station Amsterdam Centraal)",
		"id": "4a688ba1f964a52088ca1fe3",
		"lat": 52.37878224866535,
		"lng": 4.900374412536621,
		"address": "Stationsplein 15",
		"postalCode": "1012 AB",
		"city": "Amsterdam",
		"country": "Nederland",
		"categories": [
			"Train Station"
		]
	},
	{
		"date": "2017-06-19T18:05:02.000Z",
		"name": "Station Haarlem",
		"id": "4a8c3036f964a5203a0d20e3",
		"lat": 52.38801057573046,
		"lng": 4.638713550666082,
		"address": "Stationsplein 11 L",
		"postalCode": "2011 LR",
		"city": "Haarlem",
		"country": "Nederland",
		"categories": [
			"Train Station"
		]
	},
	{
		"date": "2017-06-19T19:00:31.000Z",
		"name": "Cotton Candy Residence 10",
		"id": "58cd4fe316f000799f4cf4f4",
		"lat": 52.392946926098126,
		"lng": 4.640537129468235,
		"city": "Haarlem",
		"country": "Nederland",
		"categories": [
			"Home (private)"
		]
	},
	{
		"date": "2017-06-20T06:04:44.000Z",
		"name": "Station Haarlem",
		"id": "4a8c3036f964a5203a0d20e3",
		"lat": 52.38801057573046,
		"lng": 4.638713550666082,
		"address": "Stationsplein 11 L",
		"postalCode": "2011 LR",
		"city": "Haarlem",
		"country": "Nederland",
		"categories": [
			"Train Station"
		]
	},
	{
		"date": "2017-06-20T10:03:54.000Z",
		"name": "WeWork Metropool",
		"id": "56a14a68498e77945ee2ced1",
		"lat": 52.36480793621647,
		"lng": 4.906191453337669,
		"address": "Weesperstraat 61",
		"postalCode": "1018 VN",
		"city": "Amsterdam",
		"country": "Nederland",
		"categories": [
			"Coworking Space",
			"Business Service"
		]
	},
	{
		"date": "2017-06-20T10:32:04.000Z",
		"name": "Docler Holding Amsterdam",
		"id": "58b684db52a051661da12674",
		"lat": 52.36505739184381,
		"lng": 4.906015988886142,
		"address": "Weespertraat 61",
		"postalCode": "1018 VN",
		"city": "Amsterdam",
		"country": "Nederland",
		"categories": [
			"Tech Startup"
		]
	},
	{
		"date": "2017-06-20T16:18:20.000Z",
		"name": "Amsterdam Central Railway Station (Station Amsterdam Centraal)",
		"id": "4a688ba1f964a52088ca1fe3",
		"lat": 52.37878224866535,
		"lng": 4.900374412536621,
		"address": "Stationsplein 15",
		"postalCode": "1012 AB",
		"city": "Amsterdam",
		"country": "Nederland",
		"categories": [
			"Train Station"
		]
	},
	{
		"date": "2017-06-20T16:41:58.000Z",
		"name": "Station Haarlem Spaarnwoude",
		"id": "4accafdef964a52034c920e3",
		"lat": 52.38186059333917,
		"lng": 4.668725747728769,
		"address": "Woudplein 4",
		"city": "Haarlem",
		"country": "Nederland",
		"categories": [
			"Train Station"
		]
	},
	{
		"date": "2017-06-20T16:58:59.000Z",
		"name": "IKEA",
		"id": "4b48d278f964a520a75826e3",
		"lat": 52.38470382072317,
		"lng": 4.669883675315246,
		"address": "Laan van Decima 1",
		"postalCode": "2031 CX",
		"city": "Haarlem",
		"country": "Nederland",
		"categories": [
			"Furniture / Home Store"
		]
	},
	{
		"date": "2017-06-20T17:42:50.000Z",
		"name": "IKEA Restaurant",
		"id": "4d52d39e747f6dcb7372d1d4",
		"lat": 52.384716105241544,
		"lng": 4.669890708050926,
		"address": "Laan van Decima 1",
		"postalCode": "2031 CX",
		"city": "Haarlem",
		"country": "Nederland",
		"categories": [
			"Scandinavian Restaurant"
		]
	},
	{
		"date": "2017-06-20T19:34:41.000Z",
		"name": "Uiltje Bar",
		"id": "54662da6498ebc9787daa7a4",
		"lat": 52.38290278394098,
		"lng": 4.630722274373556,
		"address": "Zijlstraat 18",
		"postalCode": "2011TN",
		"city": "Haarlem",
		"country": "Nederland",
		"categories": [
			"Beer Bar"
		]
	},
	{
		"date": "2017-06-20T22:21:20.000Z",
		"name": "Cotton Candy Residence 10",
		"id": "58cd4fe316f000799f4cf4f4",
		"lat": 52.392946926098126,
		"lng": 4.640537129468235,
		"city": "Haarlem",
		"country": "Nederland",
		"categories": [
			"Home (private)"
		]
	},
	{
		"date": "2017-06-21T05:12:40.000Z",
		"name": "Station Haarlem",
		"id": "4a8c3036f964a5203a0d20e3",
		"lat": 52.38801057573046,
		"lng": 4.638713550666082,
		"address": "Stationsplein 11 L",
		"postalCode": "2011 LR",
		"city": "Haarlem",
		"country": "Nederland",
		"categories": [
			"Train Station"
		]
	},
	{
		"date": "2017-06-21T05:57:51.000Z",
		"name": "SportCity",
		"id": "4a835233f964a520c6fa1fe3",
		"lat": 52.368877125084026,
		"lng": 4.900798968515201,
		"address": "Jodenbreestraat 6",
		"postalCode": "1011NK",
		"city": "Amsterdam",
		"country": "Nederland",
		"categories": [
			"Gym",
			"Gym / Fitness Center"
		]
	},
	{
		"date": "2017-06-21T06:57:09.000Z",
		"name": "WeWork Metropool",
		"id": "56a14a68498e77945ee2ced1",
		"lat": 52.36480793621647,
		"lng": 4.906191453337669,
		"address": "Weesperstraat 61",
		"postalCode": "1018 VN",
		"city": "Amsterdam",
		"country": "Nederland",
		"categories": [
			"Coworking Space",
			"Business Service"
		]
	},
	{
		"date": "2017-06-21T07:54:57.000Z",
		"name": "Docler Holding Amsterdam",
		"id": "58b684db52a051661da12674",
		"lat": 52.36505739184381,
		"lng": 4.906015988886142,
		"address": "Weespertraat 61",
		"postalCode": "1018 VN",
		"city": "Amsterdam",
		"country": "Nederland",
		"categories": [
			"Tech Startup"
		]
	},
	{
		"date": "2017-06-21T17:45:02.000Z",
		"name": "Albert Heijn",
		"id": "4a8189bcf964a520d8f61fe3",
		"lat": 52.35570282780258,
		"lng": 4.91076391539513,
		"address": "Wibautstraat 80",
		"postalCode": "1091 GP",
		"city": "Amsterdam",
		"country": "Nederland",
		"categories": [
			"Supermarket"
		]
	},
	{
		"date": "2017-06-21T18:09:38.000Z",
		"name": "Amsterdam Central Railway Station (Station Amsterdam Centraal)",
		"id": "4a688ba1f964a52088ca1fe3",
		"lat": 52.37878224866535,
		"lng": 4.900374412536621,
		"address": "Stationsplein 15",
		"postalCode": "1012 AB",
		"city": "Amsterdam",
		"country": "Nederland",
		"categories": [
			"Train Station"
		]
	},
	{
		"date": "2017-06-21T21:45:46.000Z",
		"name": "Cotton Candy Residence 10",
		"id": "58cd4fe316f000799f4cf4f4",
		"lat": 52.392946926098126,
		"lng": 4.640537129468235,
		"city": "Haarlem",
		"country": "Nederland",
		"categories": [
			"Home (private)"
		]
	},
	{
		"date": "2017-06-22T06:28:43.000Z",
		"name": "Station Haarlem",
		"id": "4a8c3036f964a5203a0d20e3",
		"lat": 52.38801057573046,
		"lng": 4.638713550666082,
		"address": "Stationsplein 11 L",
		"postalCode": "2011 LR",
		"city": "Haarlem",
		"country": "Nederland",
		"categories": [
			"Train Station"
		]
	},
	{
		"date": "2017-06-22T06:50:25.000Z",
		"name": "Amsterdam Central Railway Station (Station Amsterdam Centraal)",
		"id": "4a688ba1f964a52088ca1fe3",
		"lat": 52.37878224866535,
		"lng": 4.900374412536621,
		"address": "Stationsplein 15",
		"postalCode": "1012 AB",
		"city": "Amsterdam",
		"country": "Nederland",
		"categories": [
			"Train Station"
		]
	},
	{
		"date": "2017-06-22T10:52:57.000Z",
		"name": "Docler Holding Amsterdam",
		"id": "58b684db52a051661da12674",
		"lat": 52.36505739184381,
		"lng": 4.906015988886142,
		"address": "Weespertraat 61",
		"postalCode": "1018 VN",
		"city": "Amsterdam",
		"country": "Nederland",
		"categories": [
			"Tech Startup"
		]
	},
	{
		"date": "2017-06-22T16:10:18.000Z",
		"name": "ING Acanthus",
		"id": "4b56c387f964a520a11a28e3",
		"lat": 52.31436513961718,
		"lng": 4.947106056777712,
		"address": "Bijlmerdreef 24",
		"postalCode": "1102CT",
		"city": "Amsterdam",
		"country": "Nederland",
		"categories": [
			"Office",
			"Building"
		]
	},
	{
		"date": "2017-06-23T06:16:35.000Z",
		"name": "Station Haarlem",
		"id": "4a8c3036f964a5203a0d20e3",
		"lat": 52.38801057573046,
		"lng": 4.638713550666082,
		"address": "Stationsplein 11 L",
		"postalCode": "2011 LR",
		"city": "Haarlem",
		"country": "Nederland",
		"categories": [
			"Train Station"
		]
	},
	{
		"date": "2017-06-23T07:02:27.000Z",
		"name": "WeWork Metropool",
		"id": "56a14a68498e77945ee2ced1",
		"lat": 52.36480793621647,
		"lng": 4.906191453337669,
		"address": "Weesperstraat 61",
		"postalCode": "1018 VN",
		"city": "Amsterdam",
		"country": "Nederland",
		"categories": [
			"Coworking Space",
			"Business Service"
		]
	},
	{
		"date": "2017-06-23T07:22:50.000Z",
		"name": "Docler Holding Amsterdam",
		"id": "58b684db52a051661da12674",
		"lat": 52.36505739184381,
		"lng": 4.906015988886142,
		"address": "Weespertraat 61",
		"postalCode": "1018 VN",
		"city": "Amsterdam",
		"country": "Nederland",
		"categories": [
			"Tech Startup"
		]
	},
	{
		"date": "2017-06-23T10:02:01.000Z",
		"name": "De Pizzabakkers",
		"id": "4d7a218c15958cfaf4251a25",
		"lat": 52.365446741247425,
		"lng": 4.910993391874042,
		"address": "Plantage Kerklaan 2",
		"postalCode": "1018 TA",
		"city": "Amsterdam",
		"country": "Nederland",
		"categories": [
			"Pizza Place"
		]
	},
	{
		"date": "2017-06-23T15:22:57.000Z",
		"name": "Station Haarlem",
		"id": "4a8c3036f964a5203a0d20e3",
		"lat": 52.38801057573046,
		"lng": 4.638713550666082,
		"address": "Stationsplein 11 L",
		"postalCode": "2011 LR",
		"city": "Haarlem",
		"country": "Nederland",
		"categories": [
			"Train Station"
		]
	},
	{
		"date": "2017-06-24T10:38:45.000Z",
		"name": "Cotton Candy Residence 10",
		"id": "58cd4fe316f000799f4cf4f4",
		"lat": 52.392946926098126,
		"lng": 4.640537129468235,
		"city": "Haarlem",
		"country": "Nederland",
		"categories": [
			"Home (private)"
		]
	},
	{
		"date": "2017-06-24T11:45:03.000Z",
		"name": "Episode",
		"id": "5380b522498e54d58e7f8a18",
		"lat": 52.382223768978946,
		"lng": 4.637807607650757,
		"address": "Jansstraat 52-54",
		"country": "Nederland",
		"categories": [
			"Clothing Store",
			"Thrift / Vintage Store"
		]
	},
	{
		"date": "2017-06-24T11:59:12.000Z",
		"name": "De Overkant",
		"id": "4ad84efdf964a520001121e3",
		"lat": 52.380807757512436,
		"lng": 4.6348907727505395,
		"address": "Paarlaarsteeg 10",
		"postalCode": "2011 TA",
		"city": "Haarlem",
		"country": "Nederland",
		"categories": [
			"Café",
			"Breakfast Spot"
		]
	},
	{
		"date": "2017-06-24T14:18:34.000Z",
		"name": "Kamera Express",
		"id": "4bf7d63b5317a593d99ffe7e",
		"lat": 52.34240131500829,
		"lng": 4.868193059295297,
		"address": "Parnassusweg 202-204",
		"city": "Amsterdam",
		"country": "Nederland",
		"categories": [
			"Electronics Store"
		]
	},
	{
		"date": "2017-06-24T15:10:44.000Z",
		"name": "Vomar Voordeelmarkt",
		"id": "4b72c969f964a52096882de3",
		"lat": 52.39127711020139,
		"lng": 4.649005288257338,
		"address": "Paul Krugerkade 22",
		"postalCode": "2021 BN",
		"city": "Haarlem",
		"country": "Nederland",
		"categories": [
			"Supermarket",
			"Grocery Store"
		]
	},
	{
		"date": "2017-06-25T10:33:24.000Z",
		"name": "Karwei",
		"id": "4b5b027ff964a520a9de28e3",
		"lat": 52.39005961436961,
		"lng": 4.626503810720334,
		"address": "Verspronckweg 63",
		"city": "Haarlem",
		"country": "Nederland",
		"categories": [
			"Hardware Store"
		]
	},
	{
		"date": "2017-06-25T11:09:18.000Z",
		"name": "The Döner Company",
		"id": "4d790928a56e37040e5d7567",
		"lat": 52.38817372624091,
		"lng": 4.63927902305991,
		"address": "Station Haarlem",
		"postalCode": "2011 LR",
		"city": "Haarlem",
		"country": "Nederland",
		"categories": [
			"Doner Restaurant",
			"Falafel Restaurant",
			"Kebab Restaurant"
		]
	},
	{
		"date": "2017-06-25T20:18:04.000Z",
		"name": "Cotton Candy Residence 10",
		"id": "58cd4fe316f000799f4cf4f4",
		"lat": 52.392946926098126,
		"lng": 4.640537129468235,
		"city": "Haarlem",
		"country": "Nederland",
		"categories": [
			"Home (private)"
		]
	},
	{
		"date": "2017-06-26T05:36:25.000Z",
		"name": "Station Haarlem",
		"id": "4a8c3036f964a5203a0d20e3",
		"lat": 52.38801057573046,
		"lng": 4.638713550666082,
		"address": "Stationsplein 11 L",
		"postalCode": "2011 LR",
		"city": "Haarlem",
		"country": "Nederland",
		"categories": [
			"Train Station"
		]
	},
	{
		"date": "2017-06-26T05:57:15.000Z",
		"name": "Amsterdam Central Railway Station (Station Amsterdam Centraal)",
		"id": "4a688ba1f964a52088ca1fe3",
		"lat": 52.37878224866535,
		"lng": 4.900374412536621,
		"address": "Stationsplein 15",
		"postalCode": "1012 AB",
		"city": "Amsterdam",
		"country": "Nederland",
		"categories": [
			"Train Station"
		]
	},
	{
		"date": "2017-06-26T06:26:33.000Z",
		"name": "Eerlijk - Coffee.Cuisine.Coaching",
		"id": "5947c49b58002c27e6faeb47",
		"lat": 52.36403343748908,
		"lng": 4.906366837363796,
		"address": "Weesperstraat 101a",
		"postalCode": "1018 DN",
		"city": "Amsterdam",
		"country": "Nederland",
		"categories": [
			"Café"
		]
	},
	{
		"date": "2017-06-26T06:53:20.000Z",
		"name": "WeWork Metropool",
		"id": "56a14a68498e77945ee2ced1",
		"lat": 52.36480793621647,
		"lng": 4.906191453337669,
		"address": "Weesperstraat 61",
		"postalCode": "1018 VN",
		"city": "Amsterdam",
		"country": "Nederland",
		"categories": [
			"Coworking Space",
			"Business Service"
		]
	},
	{
		"date": "2017-06-26T10:03:49.000Z",
		"name": "Waterloo Square (Waterlooplein)",
		"id": "4a61dfebf964a5209bc21fe3",
		"lat": 52.368085954991855,
		"lng": 4.902520179748535,
		"address": "Waterlooplein",
		"city": "Amsterdam",
		"country": "Nederland",
		"categories": [
			"Plaza"
		]
	},
	{
		"date": "2017-06-26T10:07:49.000Z",
		"name": "Langos Revolution",
		"id": "5950dcecd3cce848d7e39c50",
		"lat": 52.3876410717436,
		"lng": 4.87175180597673,
		"postalCode": "1011 PG",
		"city": "Amsterdam",
		"country": "Nederland",
		"categories": [
			"Food Truck",
			"Hungarian Restaurant"
		]
	},
	{
		"date": "2017-06-26T11:40:22.000Z",
		"name": "Docler Holding Amsterdam",
		"id": "58b684db52a051661da12674",
		"lat": 52.36505739184381,
		"lng": 4.906015988886142,
		"address": "Weespertraat 61",
		"postalCode": "1018 VN",
		"city": "Amsterdam",
		"country": "Nederland",
		"categories": [
			"Tech Startup"
		]
	},
	{
		"date": "2017-06-26T17:57:35.000Z",
		"name": "Cotton Candy Residence 10",
		"id": "58cd4fe316f000799f4cf4f4",
		"lat": 52.392946926098126,
		"lng": 4.640537129468235,
		"city": "Haarlem",
		"country": "Nederland",
		"categories": [
			"Home (private)"
		]
	},
	{
		"date": "2017-06-27T05:25:33.000Z",
		"name": "Amsterdam Central Railway Station (Station Amsterdam Centraal)",
		"id": "4a688ba1f964a52088ca1fe3",
		"lat": 52.37878224866535,
		"lng": 4.900374412536621,
		"address": "Stationsplein 15",
		"postalCode": "1012 AB",
		"city": "Amsterdam",
		"country": "Nederland",
		"categories": [
			"Train Station"
		]
	},
	{
		"date": "2017-06-27T05:38:19.000Z",
		"name": "SportCity",
		"id": "4a835233f964a520c6fa1fe3",
		"lat": 52.368877125084026,
		"lng": 4.900798968515201,
		"address": "Jodenbreestraat 6",
		"postalCode": "1011NK",
		"city": "Amsterdam",
		"country": "Nederland",
		"categories": [
			"Gym",
			"Gym / Fitness Center"
		]
	},
	{
		"date": "2017-06-27T06:44:18.000Z",
		"name": "WeWork Metropool",
		"id": "56a14a68498e77945ee2ced1",
		"lat": 52.36480793621647,
		"lng": 4.906191453337669,
		"address": "Weesperstraat 61",
		"postalCode": "1018 VN",
		"city": "Amsterdam",
		"country": "Nederland",
		"categories": [
			"Coworking Space",
			"Business Service"
		]
	},
	{
		"date": "2017-06-28T06:06:46.000Z",
		"name": "Station Haarlem",
		"id": "4a8c3036f964a5203a0d20e3",
		"lat": 52.38801057573046,
		"lng": 4.638713550666082,
		"address": "Stationsplein 11 L",
		"postalCode": "2011 LR",
		"city": "Haarlem",
		"country": "Nederland",
		"categories": [
			"Train Station"
		]
	},
	{
		"date": "2017-06-28T06:31:33.000Z",
		"name": "Amsterdam Central Railway Station (Station Amsterdam Centraal)",
		"id": "4a688ba1f964a52088ca1fe3",
		"lat": 52.37878224866535,
		"lng": 4.900374412536621,
		"address": "Stationsplein 15",
		"postalCode": "1012 AB",
		"city": "Amsterdam",
		"country": "Nederland",
		"categories": [
			"Train Station"
		]
	},
	{
		"date": "2017-06-28T06:47:28.000Z",
		"name": "WeWork Metropool",
		"id": "56a14a68498e77945ee2ced1",
		"lat": 52.36480793621647,
		"lng": 4.906191453337669,
		"address": "Weesperstraat 61",
		"postalCode": "1018 VN",
		"city": "Amsterdam",
		"country": "Nederland",
		"categories": [
			"Coworking Space",
			"Business Service"
		]
	},
	{
		"date": "2017-06-28T13:00:22.000Z",
		"name": "Docler Holding Amsterdam",
		"id": "58b684db52a051661da12674",
		"lat": 52.36505739184381,
		"lng": 4.906015988886142,
		"address": "Weespertraat 61",
		"postalCode": "1018 VN",
		"city": "Amsterdam",
		"country": "Nederland",
		"categories": [
			"Tech Startup"
		]
	},
	{
		"date": "2017-06-28T17:20:06.000Z",
		"name": "Station Haarlem",
		"id": "4a8c3036f964a5203a0d20e3",
		"lat": 52.38801057573046,
		"lng": 4.638713550666082,
		"address": "Stationsplein 11 L",
		"postalCode": "2011 LR",
		"city": "Haarlem",
		"country": "Nederland",
		"categories": [
			"Train Station"
		]
	},
	{
		"date": "2017-06-28T21:21:20.000Z",
		"name": "Cotton Candy Residence 10",
		"id": "58cd4fe316f000799f4cf4f4",
		"lat": 52.392946926098126,
		"lng": 4.640537129468235,
		"city": "Haarlem",
		"country": "Nederland",
		"categories": [
			"Home (private)"
		]
	},
	{
		"date": "2017-06-29T06:14:32.000Z",
		"name": "Station Haarlem",
		"id": "4a8c3036f964a5203a0d20e3",
		"lat": 52.38801057573046,
		"lng": 4.638713550666082,
		"address": "Stationsplein 11 L",
		"postalCode": "2011 LR",
		"city": "Haarlem",
		"country": "Nederland",
		"categories": [
			"Train Station"
		]
	},
	{
		"date": "2017-06-29T06:40:33.000Z",
		"name": "Amsterdam Central Railway Station (Station Amsterdam Centraal)",
		"id": "4a688ba1f964a52088ca1fe3",
		"lat": 52.37878224866535,
		"lng": 4.900374412536621,
		"address": "Stationsplein 15",
		"postalCode": "1012 AB",
		"city": "Amsterdam",
		"country": "Nederland",
		"categories": [
			"Train Station"
		]
	},
	{
		"date": "2017-06-29T06:54:01.000Z",
		"name": "WeWork Metropool",
		"id": "56a14a68498e77945ee2ced1",
		"lat": 52.36480793621647,
		"lng": 4.906191453337669,
		"address": "Weesperstraat 61",
		"postalCode": "1018 VN",
		"city": "Amsterdam",
		"country": "Nederland",
		"categories": [
			"Coworking Space",
			"Business Service"
		]
	},
	{
		"date": "2017-06-29T17:12:51.000Z",
		"name": "Cotton Candy Residence 10",
		"id": "58cd4fe316f000799f4cf4f4",
		"lat": 52.392946926098126,
		"lng": 4.640537129468235,
		"city": "Haarlem",
		"country": "Nederland",
		"categories": [
			"Home (private)"
		]
	},
	{
		"date": "2017-06-30T05:02:57.000Z",
		"name": "Station Haarlem",
		"id": "4a8c3036f964a5203a0d20e3",
		"lat": 52.38801057573046,
		"lng": 4.638713550666082,
		"address": "Stationsplein 11 L",
		"postalCode": "2011 LR",
		"city": "Haarlem",
		"country": "Nederland",
		"categories": [
			"Train Station"
		]
	},
	{
		"date": "2017-06-30T05:26:37.000Z",
		"name": "Amsterdam Central Railway Station (Station Amsterdam Centraal)",
		"id": "4a688ba1f964a52088ca1fe3",
		"lat": 52.37878224866535,
		"lng": 4.900374412536621,
		"address": "Stationsplein 15",
		"postalCode": "1012 AB",
		"city": "Amsterdam",
		"country": "Nederland",
		"categories": [
			"Train Station"
		]
	},
	{
		"date": "2017-06-30T05:59:25.000Z",
		"name": "SportCity",
		"id": "4a835233f964a520c6fa1fe3",
		"lat": 52.368877125084026,
		"lng": 4.900798968515201,
		"address": "Jodenbreestraat 6",
		"postalCode": "1011NK",
		"city": "Amsterdam",
		"country": "Nederland",
		"categories": [
			"Gym",
			"Gym / Fitness Center"
		]
	},
	{
		"date": "2017-06-30T07:12:13.000Z",
		"name": "WeWork Metropool",
		"id": "56a14a68498e77945ee2ced1",
		"lat": 52.36480793621647,
		"lng": 4.906191453337669,
		"address": "Weesperstraat 61",
		"postalCode": "1018 VN",
		"city": "Amsterdam",
		"country": "Nederland",
		"categories": [
			"Coworking Space",
			"Business Service"
		]
	},
	{
		"date": "2017-06-30T10:54:07.000Z",
		"name": "Water & Brood",
		"id": "590c4ecfcad1b67f0cc84943",
		"lat": 52.36423552187337,
		"lng": 4.905926229851091,
		"address": "Nieuwe Kerkstraat 84",
		"postalCode": "1018 EC",
		"city": "Amsterdam",
		"country": "Nederland",
		"categories": [
			"Breakfast Spot"
		]
	},
	{
		"date": "2017-06-30T17:07:01.000Z",
		"name": "Docler Holding Amsterdam",
		"id": "58b684db52a051661da12674",
		"lat": 52.36505739184381,
		"lng": 4.906015988886142,
		"address": "Weespertraat 61",
		"postalCode": "1018 VN",
		"city": "Amsterdam",
		"country": "Nederland",
		"categories": [
			"Tech Startup"
		]
	},
	{
		"date": "2017-06-30T17:27:14.000Z",
		"name": "Amsterdam Central Railway Station (Station Amsterdam Centraal)",
		"id": "4a688ba1f964a52088ca1fe3",
		"lat": 52.37878224866535,
		"lng": 4.900374412536621,
		"address": "Stationsplein 15",
		"postalCode": "1012 AB",
		"city": "Amsterdam",
		"country": "Nederland",
		"categories": [
			"Train Station"
		]
	},
	{
		"date": "2017-06-30T17:44:35.000Z",
		"name": "Station Haarlem",
		"id": "4a8c3036f964a5203a0d20e3",
		"lat": 52.38801057573046,
		"lng": 4.638713550666082,
		"address": "Stationsplein 11 L",
		"postalCode": "2011 LR",
		"city": "Haarlem",
		"country": "Nederland",
		"categories": [
			"Train Station"
		]
	},
	{
		"date": "2017-06-30T17:47:15.000Z",
		"name": "The Döner Company",
		"id": "4d790928a56e37040e5d7567",
		"lat": 52.38817372624091,
		"lng": 4.63927902305991,
		"address": "Station Haarlem",
		"postalCode": "2011 LR",
		"city": "Haarlem",
		"country": "Nederland",
		"categories": [
			"Doner Restaurant",
			"Falafel Restaurant",
			"Kebab Restaurant"
		]
	},
	{
		"date": "2017-06-30T17:58:12.000Z",
		"name": "Cotton Candy Residence 10",
		"id": "58cd4fe316f000799f4cf4f4",
		"lat": 52.392946926098126,
		"lng": 4.640537129468235,
		"city": "Haarlem",
		"country": "Nederland",
		"categories": [
			"Home (private)"
		]
	}
]