[
	{
		"date": "2017-10-02T06:05:04.000Z",
		"name": "Station Haarlem",
		"id": "4a8c3036f964a5203a0d20e3",
		"lat": 52.38801057573046,
		"lng": 4.638713550666082,
		"address": "Stationsplein 11 L",
		"postalCode": "2011 LR",
		"city": "Haarlem",
		"country": "Nederland",
		"categories": [
			"Train Station"
		]
	},
	{
		"date": "2017-10-02T06:42:36.000Z",
		"name": "Amsterdam Central Railway Station (Station Amsterdam Centraal)",
		"id": "4a688ba1f964a52088ca1fe3",
		"lat": 52.37878224866535,
		"lng": 4.900374412536621,
		"address": "Stationsplein 15",
		"postalCode": "1012 AB",
		"city": "Amsterdam",
		"country": "Nederland",
		"categories": [
			"Train Station"
		]
	},
	{
		"date": "2017-10-02T06:54:21.000Z",
		"name": "WeWork Metropool",
		"id": "56a14a68498e77945ee2ced1",
		"lat": 52.36480793621647,
		"lng": 4.906191453337669,
		"address": "Weesperstraat 61",
		"postalCode": "1018 VN",
		"city": "Amsterdam",
		"country": "Nederland",
		"categories": [
			"Coworking Space",
			"Business Service"
		]
	},
	{
		"date": "2017-10-02T16:49:01.000Z",
		"name": "Station Haarlem",
		"id": "4a8c3036f964a5203a0d20e3",
		"lat": 52.38801057573046,
		"lng": 4.638713550666082,
		"address": "Stationsplein 11 L",
		"postalCode": "2011 LR",
		"city": "Haarlem",
		"country": "Nederland",
		"categories": [
			"Train Station"
		]
	},
	{
		"date": "2017-10-03T06:07:51.000Z",
		"name": "Station Haarlem",
		"id": "4a8c3036f964a5203a0d20e3",
		"lat": 52.38801057573046,
		"lng": 4.638713550666082,
		"address": "Stationsplein 11 L",
		"postalCode": "2011 LR",
		"city": "Haarlem",
		"country": "Nederland",
		"categories": [
			"Train Station"
		]
	},
	{
		"date": "2017-10-03T06:43:01.000Z",
		"name": "WeWork Metropool",
		"id": "56a14a68498e77945ee2ced1",
		"lat": 52.36480793621647,
		"lng": 4.906191453337669,
		"address": "Weesperstraat 61",
		"postalCode": "1018 VN",
		"city": "Amsterdam",
		"country": "Nederland",
		"categories": [
			"Coworking Space",
			"Business Service"
		]
	},
	{
		"date": "2017-10-03T16:35:08.000Z",
		"name": "Primark",
		"id": "57fbac86498e161d00c0124a",
		"lat": 52.37458395111685,
		"lng": 4.894425272941589,
		"address": "Damrak 77",
		"postalCode": "1012 LM",
		"city": "Amsterdam",
		"country": "Nederland",
		"categories": [
			"Clothing Store"
		]
	},
	{
		"date": "2017-10-03T17:07:30.000Z",
		"name": "Station Haarlem",
		"id": "4a8c3036f964a5203a0d20e3",
		"lat": 52.38801057573046,
		"lng": 4.638713550666082,
		"address": "Stationsplein 11 L",
		"postalCode": "2011 LR",
		"city": "Haarlem",
		"country": "Nederland",
		"categories": [
			"Train Station"
		]
	},
	{
		"date": "2017-10-03T21:57:32.000Z",
		"name": "Cotton Candy Residence 10",
		"id": "58cd4fe316f000799f4cf4f4",
		"lat": 52.392946926098126,
		"lng": 4.640537129468235,
		"city": "Haarlem",
		"country": "Nederland",
		"categories": [
			"Home (private)"
		]
	},
	{
		"date": "2017-10-04T06:04:43.000Z",
		"name": "Station Haarlem",
		"id": "4a8c3036f964a5203a0d20e3",
		"lat": 52.38801057573046,
		"lng": 4.638713550666082,
		"address": "Stationsplein 11 L",
		"postalCode": "2011 LR",
		"city": "Haarlem",
		"country": "Nederland",
		"categories": [
			"Train Station"
		]
	},
	{
		"date": "2017-10-04T06:29:12.000Z",
		"name": "Amsterdam Central Railway Station (Station Amsterdam Centraal)",
		"id": "4a688ba1f964a52088ca1fe3",
		"lat": 52.37878224866535,
		"lng": 4.900374412536621,
		"address": "Stationsplein 15",
		"postalCode": "1012 AB",
		"city": "Amsterdam",
		"country": "Nederland",
		"categories": [
			"Train Station"
		]
	},
	{
		"date": "2017-10-04T06:39:56.000Z",
		"name": "WeWork Metropool",
		"id": "56a14a68498e77945ee2ced1",
		"lat": 52.36480793621647,
		"lng": 4.906191453337669,
		"address": "Weesperstraat 61",
		"postalCode": "1018 VN",
		"city": "Amsterdam",
		"country": "Nederland",
		"categories": [
			"Coworking Space",
			"Business Service"
		]
	},
	{
		"date": "2017-10-04T09:59:33.000Z",
		"name": "Meat and Greek",
		"id": "58865772072d6b4ef9dc0920",
		"lat": 52.36238767047199,
		"lng": 4.898872691183374,
		"address": "Utrechtsestraat 113",
		"postalCode": "1017VL",
		"city": "Amsterdam",
		"country": "Nederland",
		"categories": [
			"Greek Restaurant",
			"Mediterranean Restaurant",
			"Salad Place"
		]
	},
	{
		"date": "2017-10-04T16:37:57.000Z",
		"name": "MediaMarkt",
		"id": "4f85272ae4b0657ba76d7762",
		"lat": 52.37609799833515,
		"lng": 4.907226586015713,
		"address": "Oosterdokskade 67",
		"postalCode": "1011 DL",
		"city": "Amsterdam",
		"country": "Nederland",
		"categories": [
			"Electronics Store"
		]
	},
	{
		"date": "2017-10-04T16:48:01.000Z",
		"name": "Amsterdam Central Railway Station (Station Amsterdam Centraal)",
		"id": "4a688ba1f964a52088ca1fe3",
		"lat": 52.37878224866535,
		"lng": 4.900374412536621,
		"address": "Stationsplein 15",
		"postalCode": "1012 AB",
		"city": "Amsterdam",
		"country": "Nederland",
		"categories": [
			"Train Station"
		]
	},
	{
		"date": "2017-10-04T17:05:38.000Z",
		"name": "Station Haarlem",
		"id": "4a8c3036f964a5203a0d20e3",
		"lat": 52.38801057573046,
		"lng": 4.638713550666082,
		"address": "Stationsplein 11 L",
		"postalCode": "2011 LR",
		"city": "Haarlem",
		"country": "Nederland",
		"categories": [
			"Train Station"
		]
	},
	{
		"date": "2017-10-04T17:26:48.000Z",
		"name": "Cotton Candy Residence 10",
		"id": "58cd4fe316f000799f4cf4f4",
		"lat": 52.392946926098126,
		"lng": 4.640537129468235,
		"city": "Haarlem",
		"country": "Nederland",
		"categories": [
			"Home (private)"
		]
	},
	{
		"date": "2017-10-05T06:16:13.000Z",
		"name": "Amsterdam Central Railway Station (Station Amsterdam Centraal)",
		"id": "4a688ba1f964a52088ca1fe3",
		"lat": 52.37878224866535,
		"lng": 4.900374412536621,
		"address": "Stationsplein 15",
		"postalCode": "1012 AB",
		"city": "Amsterdam",
		"country": "Nederland",
		"categories": [
			"Train Station"
		]
	},
	{
		"date": "2017-10-05T06:38:28.000Z",
		"name": "WeWork Metropool",
		"id": "56a14a68498e77945ee2ced1",
		"lat": 52.36480793621647,
		"lng": 4.906191453337669,
		"address": "Weesperstraat 61",
		"postalCode": "1018 VN",
		"city": "Amsterdam",
		"country": "Nederland",
		"categories": [
			"Coworking Space",
			"Business Service"
		]
	},
	{
		"date": "2017-10-05T12:09:20.000Z",
		"name": "Docler Holding Amsterdam",
		"id": "58b684db52a051661da12674",
		"lat": 52.36505739184381,
		"lng": 4.906015988886142,
		"address": "Weespertraat 61",
		"postalCode": "1018 VN",
		"city": "Amsterdam",
		"country": "Nederland",
		"categories": [
			"Tech Startup"
		]
	},
	{
		"date": "2017-10-05T16:13:06.000Z",
		"name": "Amsterdam Central Railway Station (Station Amsterdam Centraal)",
		"id": "4a688ba1f964a52088ca1fe3",
		"lat": 52.37878224866535,
		"lng": 4.900374412536621,
		"address": "Stationsplein 15",
		"postalCode": "1012 AB",
		"city": "Amsterdam",
		"country": "Nederland",
		"categories": [
			"Train Station"
		]
	},
	{
		"date": "2017-10-05T16:35:52.000Z",
		"name": "Station Haarlem",
		"id": "4a8c3036f964a5203a0d20e3",
		"lat": 52.38801057573046,
		"lng": 4.638713550666082,
		"address": "Stationsplein 11 L",
		"postalCode": "2011 LR",
		"city": "Haarlem",
		"country": "Nederland",
		"categories": [
			"Train Station"
		]
	},
	{
		"date": "2017-10-05T16:41:43.000Z",
		"name": "Alphenaar Muziekhandel",
		"id": "4c2b6b74b34ad13aa0b6e9ce",
		"lat": 52.38624381240507,
		"lng": 4.636521633397345,
		"address": "Kruisweg 47-49",
		"postalCode": "2011 LA",
		"city": "Haarlem",
		"country": "Nederland",
		"categories": [
			"Music Store"
		]
	},
	{
		"date": "2017-10-05T17:27:58.000Z",
		"name": "Esprit",
		"id": "4e749dcbe4cd325436eafd1a",
		"lat": 52.37819772023286,
		"lng": 4.632483422756195,
		"address": "Grote Houtstraat",
		"postalCode": "2011 SJ",
		"city": "Haarlem",
		"country": "Nederland",
		"categories": [
			"Clothing Store"
		]
	},
	{
		"date": "2017-10-05T19:08:55.000Z",
		"name": "Cotton Candy Residence 10",
		"id": "58cd4fe316f000799f4cf4f4",
		"lat": 52.392946926098126,
		"lng": 4.640537129468235,
		"city": "Haarlem",
		"country": "Nederland",
		"categories": [
			"Home (private)"
		]
	},
	{
		"date": "2017-10-06T05:52:36.000Z",
		"name": "Station Haarlem",
		"id": "4a8c3036f964a5203a0d20e3",
		"lat": 52.38801057573046,
		"lng": 4.638713550666082,
		"address": "Stationsplein 11 L",
		"postalCode": "2011 LR",
		"city": "Haarlem",
		"country": "Nederland",
		"categories": [
			"Train Station"
		]
	},
	{
		"date": "2017-10-06T06:10:55.000Z",
		"name": "Amsterdam Central Railway Station (Station Amsterdam Centraal)",
		"id": "4a688ba1f964a52088ca1fe3",
		"lat": 52.37878224866535,
		"lng": 4.900374412536621,
		"address": "Stationsplein 15",
		"postalCode": "1012 AB",
		"city": "Amsterdam",
		"country": "Nederland",
		"categories": [
			"Train Station"
		]
	},
	{
		"date": "2017-10-06T06:30:04.000Z",
		"name": "WeWork Metropool",
		"id": "56a14a68498e77945ee2ced1",
		"lat": 52.36480793621647,
		"lng": 4.906191453337669,
		"address": "Weesperstraat 61",
		"postalCode": "1018 VN",
		"city": "Amsterdam",
		"country": "Nederland",
		"categories": [
			"Coworking Space",
			"Business Service"
		]
	},
	{
		"date": "2017-10-06T10:44:45.000Z",
		"name": "Water & Brood",
		"id": "590c4ecfcad1b67f0cc84943",
		"lat": 52.36423552187337,
		"lng": 4.905926229851091,
		"address": "Nieuwe Kerkstraat 84",
		"postalCode": "1018 EC",
		"city": "Amsterdam",
		"country": "Nederland",
		"categories": [
			"Breakfast Spot"
		]
	},
	{
		"date": "2017-10-06T14:26:53.000Z",
		"name": "Amsterdam Central Railway Station (Station Amsterdam Centraal)",
		"id": "4a688ba1f964a52088ca1fe3",
		"lat": 52.37878224866535,
		"lng": 4.900374412536621,
		"address": "Stationsplein 15",
		"postalCode": "1012 AB",
		"city": "Amsterdam",
		"country": "Nederland",
		"categories": [
			"Train Station"
		]
	},
	{
		"date": "2017-10-06T14:46:37.000Z",
		"name": "Station Haarlem",
		"id": "4a8c3036f964a5203a0d20e3",
		"lat": 52.38801057573046,
		"lng": 4.638713550666082,
		"address": "Stationsplein 11 L",
		"postalCode": "2011 LR",
		"city": "Haarlem",
		"country": "Nederland",
		"categories": [
			"Train Station"
		]
	},
	{
		"date": "2017-10-06T18:05:51.000Z",
		"name": "Cotton Candy Residence 10",
		"id": "58cd4fe316f000799f4cf4f4",
		"lat": 52.392946926098126,
		"lng": 4.640537129468235,
		"city": "Haarlem",
		"country": "Nederland",
		"categories": [
			"Home (private)"
		]
	},
	{
		"date": "2017-10-07T16:35:40.000Z",
		"name": "Station Haarlem",
		"id": "4a8c3036f964a5203a0d20e3",
		"lat": 52.38801057573046,
		"lng": 4.638713550666082,
		"address": "Stationsplein 11 L",
		"postalCode": "2011 LR",
		"city": "Haarlem",
		"country": "Nederland",
		"categories": [
			"Train Station"
		]
	},
	{
		"date": "2017-10-07T17:45:24.000Z",
		"name": "Uiltje Bar",
		"id": "54662da6498ebc9787daa7a4",
		"lat": 52.38290278394098,
		"lng": 4.630722274373556,
		"address": "Zijlstraat 18",
		"postalCode": "2011TN",
		"city": "Haarlem",
		"country": "Nederland",
		"categories": [
			"Beer Bar"
		]
	},
	{
		"date": "2017-10-07T18:58:32.000Z",
		"name": "The Wolfhound",
		"id": "55253612498e4d37d3d614ba",
		"lat": 52.38125546951028,
		"lng": 4.637986546262745,
		"address": "Riviervischmarkt 9",
		"postalCode": "2011 HJ",
		"city": "Haarlem",
		"country": "Nederland",
		"categories": [
			"Irish Pub",
			"Music Venue"
		]
	},
	{
		"date": "2017-10-07T19:51:57.000Z",
		"name": "Purple Pool Cafe",
		"id": "4b632e31f964a5208c682ae3",
		"lat": 52.37915886314111,
		"lng": 4.634043514852842,
		"address": "Gedempte Oude Gracht 81",
		"postalCode": "2011GN",
		"city": "Haarlem",
		"country": "Nederland",
		"categories": [
			"Pool Hall"
		]
	},
	{
		"date": "2017-10-07T20:56:32.000Z",
		"name": "Café Van Gunsteren",
		"id": "4bc1f7ecabf4952104b0c193",
		"lat": 52.378948551526356,
		"lng": 4.630988939179228,
		"address": "Breestraat 11",
		"postalCode": "2011 ZX",
		"city": "Haarlem",
		"country": "Nederland",
		"categories": [
			"Bar"
		]
	},
	{
		"date": "2017-10-07T22:24:16.000Z",
		"name": "Charlie's",
		"id": "569e9255498eadfa439e84d0",
		"lat": 52.379872,
		"lng": 4.631469,
		"country": "Nederland",
		"categories": [
			"Hookah Bar"
		]
	},
	{
		"date": "2017-10-08T00:07:47.000Z",
		"name": "Burger King",
		"id": "4b3e3645f964a520939925e3",
		"lat": 52.38744848035656,
		"lng": 4.6376815692659425,
		"address": "Stationsplein 11J",
		"postalCode": "2011 LC",
		"city": "Haarlem",
		"country": "Nederland",
		"categories": [
			"Fast Food Restaurant"
		]
	},
	{
		"date": "2017-10-08T12:37:39.000Z",
		"name": "Cotton Candy Residence 10",
		"id": "58cd4fe316f000799f4cf4f4",
		"lat": 52.392946926098126,
		"lng": 4.640537129468235,
		"city": "Haarlem",
		"country": "Nederland",
		"categories": [
			"Home (private)"
		]
	},
	{
		"date": "2017-10-08T14:30:54.000Z",
		"name": "Stadskweektuin",
		"id": "4b9f93c0f964a5208c2c37e3",
		"lat": 52.39598574239708,
		"lng": 4.635449668565472,
		"address": "Kleverlaan 9",
		"city": "Haarlem",
		"country": "Nederland",
		"categories": [
			"Garden"
		]
	},
	{
		"date": "2017-10-08T15:08:38.000Z",
		"name": "Albert Heijn",
		"id": "4b9a4b64f964a52066aa35e3",
		"lat": 52.38445463709139,
		"lng": 4.635787640721933,
		"address": "Kruisstraat 10",
		"postalCode": "2011 PX",
		"city": "Haarlem",
		"country": "Nederland",
		"categories": [
			"Supermarket"
		]
	},
	{
		"date": "2017-10-09T05:59:28.000Z",
		"name": "Station Haarlem",
		"id": "4a8c3036f964a5203a0d20e3",
		"lat": 52.38801057573046,
		"lng": 4.638713550666082,
		"address": "Stationsplein 11 L",
		"postalCode": "2011 LR",
		"city": "Haarlem",
		"country": "Nederland",
		"categories": [
			"Train Station"
		]
	},
	{
		"date": "2017-10-09T06:30:06.000Z",
		"name": "Amsterdam Central Railway Station (Station Amsterdam Centraal)",
		"id": "4a688ba1f964a52088ca1fe3",
		"lat": 52.37878224866535,
		"lng": 4.900374412536621,
		"address": "Stationsplein 15",
		"postalCode": "1012 AB",
		"city": "Amsterdam",
		"country": "Nederland",
		"categories": [
			"Train Station"
		]
	},
	{
		"date": "2017-10-09T07:03:36.000Z",
		"name": "WeWork Metropool",
		"id": "56a14a68498e77945ee2ced1",
		"lat": 52.36480793621647,
		"lng": 4.906191453337669,
		"address": "Weesperstraat 61",
		"postalCode": "1018 VN",
		"city": "Amsterdam",
		"country": "Nederland",
		"categories": [
			"Coworking Space",
			"Business Service"
		]
	},
	{
		"date": "2017-10-09T09:55:24.000Z",
		"name": "Docler Holding Amsterdam",
		"id": "58b684db52a051661da12674",
		"lat": 52.36505739184381,
		"lng": 4.906015988886142,
		"address": "Weespertraat 61",
		"postalCode": "1018 VN",
		"city": "Amsterdam",
		"country": "Nederland",
		"categories": [
			"Tech Startup"
		]
	},
	{
		"date": "2017-10-09T16:21:37.000Z",
		"name": "Station Haarlem",
		"id": "4a8c3036f964a5203a0d20e3",
		"lat": 52.38801057573046,
		"lng": 4.638713550666082,
		"address": "Stationsplein 11 L",
		"postalCode": "2011 LR",
		"city": "Haarlem",
		"country": "Nederland",
		"categories": [
			"Train Station"
		]
	},
	{
		"date": "2017-10-09T21:45:18.000Z",
		"name": "Cotton Candy Residence 10",
		"id": "58cd4fe316f000799f4cf4f4",
		"lat": 52.392946926098126,
		"lng": 4.640537129468235,
		"city": "Haarlem",
		"country": "Nederland",
		"categories": [
			"Home (private)"
		]
	},
	{
		"date": "2017-10-10T06:04:45.000Z",
		"name": "Station Haarlem",
		"id": "4a8c3036f964a5203a0d20e3",
		"lat": 52.38801057573046,
		"lng": 4.638713550666082,
		"address": "Stationsplein 11 L",
		"postalCode": "2011 LR",
		"city": "Haarlem",
		"country": "Nederland",
		"categories": [
			"Train Station"
		]
	},
	{
		"date": "2017-10-10T06:47:54.000Z",
		"name": "Amsterdam Central Railway Station (Station Amsterdam Centraal)",
		"id": "4a688ba1f964a52088ca1fe3",
		"lat": 52.37878224866535,
		"lng": 4.900374412536621,
		"address": "Stationsplein 15",
		"postalCode": "1012 AB",
		"city": "Amsterdam",
		"country": "Nederland",
		"categories": [
			"Train Station"
		]
	},
	{
		"date": "2017-10-10T07:16:53.000Z",
		"name": "WeWork Metropool",
		"id": "56a14a68498e77945ee2ced1",
		"lat": 52.36480793621647,
		"lng": 4.906191453337669,
		"address": "Weesperstraat 61",
		"postalCode": "1018 VN",
		"city": "Amsterdam",
		"country": "Nederland",
		"categories": [
			"Coworking Space",
			"Business Service"
		]
	},
	{
		"date": "2017-10-10T08:26:44.000Z",
		"name": "Docler Holding Amsterdam",
		"id": "58b684db52a051661da12674",
		"lat": 52.36505739184381,
		"lng": 4.906015988886142,
		"address": "Weespertraat 61",
		"postalCode": "1018 VN",
		"city": "Amsterdam",
		"country": "Nederland",
		"categories": [
			"Tech Startup"
		]
	},
	{
		"date": "2017-10-10T09:41:43.000Z",
		"name": "Albert Heijn",
		"id": "4a5837aaf964a5207fb71fe3",
		"lat": 52.368762108392325,
		"lng": 4.903476846994489,
		"address": "Jodenbreestraat 21",
		"postalCode": "1011 NH",
		"city": "Amsterdam",
		"country": "Nederland",
		"categories": [
			"Supermarket",
			"Grocery Store"
		]
	},
	{
		"date": "2017-10-10T16:07:06.000Z",
		"name": "Station Haarlem",
		"id": "4a8c3036f964a5203a0d20e3",
		"lat": 52.38801057573046,
		"lng": 4.638713550666082,
		"address": "Stationsplein 11 L",
		"postalCode": "2011 LR",
		"city": "Haarlem",
		"country": "Nederland",
		"categories": [
			"Train Station"
		]
	},
	{
		"date": "2017-10-10T16:17:51.000Z",
		"name": "Cotton Candy Residence 10",
		"id": "58cd4fe316f000799f4cf4f4",
		"lat": 52.392946926098126,
		"lng": 4.640537129468235,
		"city": "Haarlem",
		"country": "Nederland",
		"categories": [
			"Home (private)"
		]
	},
	{
		"date": "2017-10-11T05:05:30.000Z",
		"name": "Station Haarlem",
		"id": "4a8c3036f964a5203a0d20e3",
		"lat": 52.38801057573046,
		"lng": 4.638713550666082,
		"address": "Stationsplein 11 L",
		"postalCode": "2011 LR",
		"city": "Haarlem",
		"country": "Nederland",
		"categories": [
			"Train Station"
		]
	},
	{
		"date": "2017-10-11T05:44:54.000Z",
		"name": "SportCity",
		"id": "4a835233f964a520c6fa1fe3",
		"lat": 52.368877125084026,
		"lng": 4.900798968515201,
		"address": "Jodenbreestraat 6",
		"postalCode": "1011NK",
		"city": "Amsterdam",
		"country": "Nederland",
		"categories": [
			"Gym",
			"Gym / Fitness Center"
		]
	},
	{
		"date": "2017-10-11T06:56:15.000Z",
		"name": "WeWork Metropool",
		"id": "56a14a68498e77945ee2ced1",
		"lat": 52.36480793621647,
		"lng": 4.906191453337669,
		"address": "Weesperstraat 61",
		"postalCode": "1018 VN",
		"city": "Amsterdam",
		"country": "Nederland",
		"categories": [
			"Coworking Space",
			"Business Service"
		]
	},
	{
		"date": "2017-10-11T10:08:40.000Z",
		"name": "Albert Heijn",
		"id": "4a5837aaf964a5207fb71fe3",
		"lat": 52.368762108392325,
		"lng": 4.903476846994489,
		"address": "Jodenbreestraat 21",
		"postalCode": "1011 NH",
		"city": "Amsterdam",
		"country": "Nederland",
		"categories": [
			"Supermarket",
			"Grocery Store"
		]
	},
	{
		"date": "2017-10-11T13:42:10.000Z",
		"name": "Docler Holding Amsterdam",
		"id": "58b684db52a051661da12674",
		"lat": 52.36505739184381,
		"lng": 4.906015988886142,
		"address": "Weespertraat 61",
		"postalCode": "1018 VN",
		"city": "Amsterdam",
		"country": "Nederland",
		"categories": [
			"Tech Startup"
		]
	},
	{
		"date": "2017-10-11T17:25:30.000Z",
		"name": "Dé VakantieDiscounter",
		"id": "4c75124ec219224b8e64a128",
		"lat": 52.3714741671434,
		"lng": 4.886254745524283,
		"address": "Herengracht 262",
		"postalCode": "1016",
		"city": "Amsterdam",
		"country": "Nederland",
		"categories": [
			"Office"
		]
	},
	{
		"date": "2017-10-11T19:53:24.000Z",
		"name": "Amsterdam Central Railway Station (Station Amsterdam Centraal)",
		"id": "4a688ba1f964a52088ca1fe3",
		"lat": 52.37878224866535,
		"lng": 4.900374412536621,
		"address": "Stationsplein 15",
		"postalCode": "1012 AB",
		"city": "Amsterdam",
		"country": "Nederland",
		"categories": [
			"Train Station"
		]
	},
	{
		"date": "2017-10-11T20:21:18.000Z",
		"name": "Station Haarlem",
		"id": "4a8c3036f964a5203a0d20e3",
		"lat": 52.38801057573046,
		"lng": 4.638713550666082,
		"address": "Stationsplein 11 L",
		"postalCode": "2011 LR",
		"city": "Haarlem",
		"country": "Nederland",
		"categories": [
			"Train Station"
		]
	},
	{
		"date": "2017-10-11T20:33:27.000Z",
		"name": "Cotton Candy Residence 10",
		"id": "58cd4fe316f000799f4cf4f4",
		"lat": 52.392946926098126,
		"lng": 4.640537129468235,
		"city": "Haarlem",
		"country": "Nederland",
		"categories": [
			"Home (private)"
		]
	},
	{
		"date": "2017-10-12T06:02:07.000Z",
		"name": "Station Haarlem",
		"id": "4a8c3036f964a5203a0d20e3",
		"lat": 52.38801057573046,
		"lng": 4.638713550666082,
		"address": "Stationsplein 11 L",
		"postalCode": "2011 LR",
		"city": "Haarlem",
		"country": "Nederland",
		"categories": [
			"Train Station"
		]
	},
	{
		"date": "2017-10-12T06:28:05.000Z",
		"name": "Amsterdam Central Railway Station (Station Amsterdam Centraal)",
		"id": "4a688ba1f964a52088ca1fe3",
		"lat": 52.37878224866535,
		"lng": 4.900374412536621,
		"address": "Stationsplein 15",
		"postalCode": "1012 AB",
		"city": "Amsterdam",
		"country": "Nederland",
		"categories": [
			"Train Station"
		]
	},
	{
		"date": "2017-10-12T07:05:43.000Z",
		"name": "WeWork Metropool",
		"id": "56a14a68498e77945ee2ced1",
		"lat": 52.36480793621647,
		"lng": 4.906191453337669,
		"address": "Weesperstraat 61",
		"postalCode": "1018 VN",
		"city": "Amsterdam",
		"country": "Nederland",
		"categories": [
			"Coworking Space",
			"Business Service"
		]
	},
	{
		"date": "2017-10-12T09:41:31.000Z",
		"name": "Morena aan de Amstel",
		"id": "52dabde2498e516303dc5adc",
		"lat": 52.36625555810526,
		"lng": 4.9015951825233985,
		"address": "Amstel 47",
		"postalCode": "1011 PW",
		"city": "Amsterdam",
		"country": "Nederland",
		"categories": [
			"Greek Restaurant"
		]
	},
	{
		"date": "2017-10-12T10:33:11.000Z",
		"name": "Docler Holding Amsterdam",
		"id": "58b684db52a051661da12674",
		"lat": 52.36505739184381,
		"lng": 4.906015988886142,
		"address": "Weespertraat 61",
		"postalCode": "1018 VN",
		"city": "Amsterdam",
		"country": "Nederland",
		"categories": [
			"Tech Startup"
		]
	},
	{
		"date": "2017-10-12T16:18:00.000Z",
		"name": "Amsterdam Central Railway Station (Station Amsterdam Centraal)",
		"id": "4a688ba1f964a52088ca1fe3",
		"lat": 52.37878224866535,
		"lng": 4.900374412536621,
		"address": "Stationsplein 15",
		"postalCode": "1012 AB",
		"city": "Amsterdam",
		"country": "Nederland",
		"categories": [
			"Train Station"
		]
	},
	{
		"date": "2017-10-12T16:44:18.000Z",
		"name": "Station Haarlem",
		"id": "4a8c3036f964a5203a0d20e3",
		"lat": 52.38801057573046,
		"lng": 4.638713550666082,
		"address": "Stationsplein 11 L",
		"postalCode": "2011 LR",
		"city": "Haarlem",
		"country": "Nederland",
		"categories": [
			"Train Station"
		]
	},
	{
		"date": "2017-10-12T16:54:42.000Z",
		"name": "Cotton Candy Residence 10",
		"id": "58cd4fe316f000799f4cf4f4",
		"lat": 52.392946926098126,
		"lng": 4.640537129468235,
		"city": "Haarlem",
		"country": "Nederland",
		"categories": [
			"Home (private)"
		]
	},
	{
		"date": "2017-10-13T05:10:13.000Z",
		"name": "Station Haarlem",
		"id": "4a8c3036f964a5203a0d20e3",
		"lat": 52.38801057573046,
		"lng": 4.638713550666082,
		"address": "Stationsplein 11 L",
		"postalCode": "2011 LR",
		"city": "Haarlem",
		"country": "Nederland",
		"categories": [
			"Train Station"
		]
	},
	{
		"date": "2017-10-13T05:51:30.000Z",
		"name": "SportCity",
		"id": "4a835233f964a520c6fa1fe3",
		"lat": 52.368877125084026,
		"lng": 4.900798968515201,
		"address": "Jodenbreestraat 6",
		"postalCode": "1011NK",
		"city": "Amsterdam",
		"country": "Nederland",
		"categories": [
			"Gym",
			"Gym / Fitness Center"
		]
	},
	{
		"date": "2017-10-13T10:27:35.000Z",
		"name": "The Burrito Maker",
		"id": "54e2314b498e6c6790ffa4ac",
		"lat": 52.36677,
		"lng": 4.9252243,
		"address": "Haarlemmerplein 29",
		"postalCode": "1013 HP",
		"city": "Amsterdam",
		"country": "Nederland",
		"categories": [
			"Taco Place"
		]
	},
	{
		"date": "2017-10-13T13:17:20.000Z",
		"name": "WeWork Metropool",
		"id": "56a14a68498e77945ee2ced1",
		"lat": 52.36480793621647,
		"lng": 4.906191453337669,
		"address": "Weesperstraat 61",
		"postalCode": "1018 VN",
		"city": "Amsterdam",
		"country": "Nederland",
		"categories": [
			"Coworking Space",
			"Business Service"
		]
	},
	{
		"date": "2017-10-13T15:04:54.000Z",
		"name": "Amsterdam Central Railway Station (Station Amsterdam Centraal)",
		"id": "4a688ba1f964a52088ca1fe3",
		"lat": 52.37878224866535,
		"lng": 4.900374412536621,
		"address": "Stationsplein 15",
		"postalCode": "1012 AB",
		"city": "Amsterdam",
		"country": "Nederland",
		"categories": [
			"Train Station"
		]
	},
	{
		"date": "2017-10-13T23:18:09.000Z",
		"name": "Cotton Candy Residence 10",
		"id": "58cd4fe316f000799f4cf4f4",
		"lat": 52.392946926098126,
		"lng": 4.640537129468235,
		"city": "Haarlem",
		"country": "Nederland",
		"categories": [
			"Home (private)"
		]
	},
	{
		"date": "2017-10-14T15:39:07.000Z",
		"name": "Albert Heijn",
		"id": "4b9a4b64f964a52066aa35e3",
		"lat": 52.38445463709139,
		"lng": 4.635787640721933,
		"address": "Kruisstraat 10",
		"postalCode": "2011 PX",
		"city": "Haarlem",
		"country": "Nederland",
		"categories": [
			"Supermarket"
		]
	},
	{
		"date": "2017-10-16T05:29:59.000Z",
		"name": "Amsterdam Central Railway Station (Station Amsterdam Centraal)",
		"id": "4a688ba1f964a52088ca1fe3",
		"lat": 52.37878224866535,
		"lng": 4.900374412536621,
		"address": "Stationsplein 15",
		"postalCode": "1012 AB",
		"city": "Amsterdam",
		"country": "Nederland",
		"categories": [
			"Train Station"
		]
	},
	{
		"date": "2017-10-16T05:40:18.000Z",
		"name": "SportCity",
		"id": "4a835233f964a520c6fa1fe3",
		"lat": 52.368877125084026,
		"lng": 4.900798968515201,
		"address": "Jodenbreestraat 6",
		"postalCode": "1011NK",
		"city": "Amsterdam",
		"country": "Nederland",
		"categories": [
			"Gym",
			"Gym / Fitness Center"
		]
	},
	{
		"date": "2017-10-16T07:59:13.000Z",
		"name": "WeWork Metropool",
		"id": "56a14a68498e77945ee2ced1",
		"lat": 52.36480793621647,
		"lng": 4.906191453337669,
		"address": "Weesperstraat 61",
		"postalCode": "1018 VN",
		"city": "Amsterdam",
		"country": "Nederland",
		"categories": [
			"Coworking Space",
			"Business Service"
		]
	},
	{
		"date": "2017-10-16T09:03:52.000Z",
		"name": "Docler Holding Amsterdam",
		"id": "58b684db52a051661da12674",
		"lat": 52.36505739184381,
		"lng": 4.906015988886142,
		"address": "Weespertraat 61",
		"postalCode": "1018 VN",
		"city": "Amsterdam",
		"country": "Nederland",
		"categories": [
			"Tech Startup"
		]
	},
	{
		"date": "2017-10-16T09:42:25.000Z",
		"name": "SPAR city Van Kempen",
		"id": "4b4c4089f964a52022b026e3",
		"lat": 52.36421961630775,
		"lng": 4.9056606671851295,
		"address": "Nieuwe Kerkstraat 65",
		"postalCode": "1018 DZ",
		"city": "Amsterdam",
		"country": "Nederland",
		"categories": [
			"Convenience Store",
			"Supermarket",
			"Grocery Store"
		]
	},
	{
		"date": "2017-10-16T16:56:02.000Z",
		"name": "Station Haarlem",
		"id": "4a8c3036f964a5203a0d20e3",
		"lat": 52.38801057573046,
		"lng": 4.638713550666082,
		"address": "Stationsplein 11 L",
		"postalCode": "2011 LR",
		"city": "Haarlem",
		"country": "Nederland",
		"categories": [
			"Train Station"
		]
	},
	{
		"date": "2017-10-16T18:56:10.000Z",
		"name": "Cotton Candy Residence 10",
		"id": "58cd4fe316f000799f4cf4f4",
		"lat": 52.392946926098126,
		"lng": 4.640537129468235,
		"city": "Haarlem",
		"country": "Nederland",
		"categories": [
			"Home (private)"
		]
	},
	{
		"date": "2017-10-17T06:05:09.000Z",
		"name": "Station Haarlem",
		"id": "4a8c3036f964a5203a0d20e3",
		"lat": 52.38801057573046,
		"lng": 4.638713550666082,
		"address": "Stationsplein 11 L",
		"postalCode": "2011 LR",
		"city": "Haarlem",
		"country": "Nederland",
		"categories": [
			"Train Station"
		]
	},
	{
		"date": "2017-10-17T06:40:58.000Z",
		"name": "WeWork Metropool",
		"id": "56a14a68498e77945ee2ced1",
		"lat": 52.36480793621647,
		"lng": 4.906191453337669,
		"address": "Weesperstraat 61",
		"postalCode": "1018 VN",
		"city": "Amsterdam",
		"country": "Nederland",
		"categories": [
			"Coworking Space",
			"Business Service"
		]
	},
	{
		"date": "2017-10-17T18:13:40.000Z",
		"name": "Station Haarlem",
		"id": "4a8c3036f964a5203a0d20e3",
		"lat": 52.38801057573046,
		"lng": 4.638713550666082,
		"address": "Stationsplein 11 L",
		"postalCode": "2011 LR",
		"city": "Haarlem",
		"country": "Nederland",
		"categories": [
			"Train Station"
		]
	},
	{
		"date": "2017-10-18T06:02:12.000Z",
		"name": "Station Haarlem",
		"id": "4a8c3036f964a5203a0d20e3",
		"lat": 52.38801057573046,
		"lng": 4.638713550666082,
		"address": "Stationsplein 11 L",
		"postalCode": "2011 LR",
		"city": "Haarlem",
		"country": "Nederland",
		"categories": [
			"Train Station"
		]
	},
	{
		"date": "2017-10-18T06:25:39.000Z",
		"name": "Amsterdam Central Railway Station (Station Amsterdam Centraal)",
		"id": "4a688ba1f964a52088ca1fe3",
		"lat": 52.37878224866535,
		"lng": 4.900374412536621,
		"address": "Stationsplein 15",
		"postalCode": "1012 AB",
		"city": "Amsterdam",
		"country": "Nederland",
		"categories": [
			"Train Station"
		]
	},
	{
		"date": "2017-10-18T11:38:26.000Z",
		"name": "WeWork Metropool",
		"id": "56a14a68498e77945ee2ced1",
		"lat": 52.36480793621647,
		"lng": 4.906191453337669,
		"address": "Weesperstraat 61",
		"postalCode": "1018 VN",
		"city": "Amsterdam",
		"country": "Nederland",
		"categories": [
			"Coworking Space",
			"Business Service"
		]
	},
	{
		"date": "2017-10-18T11:38:38.000Z",
		"name": "Docler Holding Amsterdam",
		"id": "58b684db52a051661da12674",
		"lat": 52.36505739184381,
		"lng": 4.906015988886142,
		"address": "Weespertraat 61",
		"postalCode": "1018 VN",
		"city": "Amsterdam",
		"country": "Nederland",
		"categories": [
			"Tech Startup"
		]
	},
	{
		"date": "2017-10-18T17:44:24.000Z",
		"name": "KFC",
		"id": "4a27db7ef964a5201e941fe3",
		"lat": 52.37403883,
		"lng": 4.89399195,
		"address": "Damrak 87-88",
		"postalCode": "1012 LP",
		"city": "Amsterdam",
		"country": "Nederland",
		"categories": [
			"Fried Chicken Joint",
			"Fast Food Restaurant"
		]
	},
	{
		"date": "2017-10-18T18:22:46.000Z",
		"name": "Amsterdam Central Railway Station (Station Amsterdam Centraal)",
		"id": "4a688ba1f964a52088ca1fe3",
		"lat": 52.37878224866535,
		"lng": 4.900374412536621,
		"address": "Stationsplein 15",
		"postalCode": "1012 AB",
		"city": "Amsterdam",
		"country": "Nederland",
		"categories": [
			"Train Station"
		]
	},
	{
		"date": "2017-10-18T18:45:38.000Z",
		"name": "Station Haarlem",
		"id": "4a8c3036f964a5203a0d20e3",
		"lat": 52.38801057573046,
		"lng": 4.638713550666082,
		"address": "Stationsplein 11 L",
		"postalCode": "2011 LR",
		"city": "Haarlem",
		"country": "Nederland",
		"categories": [
			"Train Station"
		]
	},
	{
		"date": "2017-10-18T20:23:31.000Z",
		"name": "Cotton Candy Residence 10",
		"id": "58cd4fe316f000799f4cf4f4",
		"lat": 52.392946926098126,
		"lng": 4.640537129468235,
		"city": "Haarlem",
		"country": "Nederland",
		"categories": [
			"Home (private)"
		]
	},
	{
		"date": "2017-10-19T04:52:24.000Z",
		"name": "Station Haarlem",
		"id": "4a8c3036f964a5203a0d20e3",
		"lat": 52.38801057573046,
		"lng": 4.638713550666082,
		"address": "Stationsplein 11 L",
		"postalCode": "2011 LR",
		"city": "Haarlem",
		"country": "Nederland",
		"categories": [
			"Train Station"
		]
	},
	{
		"date": "2017-10-19T05:11:28.000Z",
		"name": "Amsterdam Central Railway Station (Station Amsterdam Centraal)",
		"id": "4a688ba1f964a52088ca1fe3",
		"lat": 52.37878224866535,
		"lng": 4.900374412536621,
		"address": "Stationsplein 15",
		"postalCode": "1012 AB",
		"city": "Amsterdam",
		"country": "Nederland",
		"categories": [
			"Train Station"
		]
	},
	{
		"date": "2017-10-19T05:28:28.000Z",
		"name": "SportCity",
		"id": "4a835233f964a520c6fa1fe3",
		"lat": 52.368877125084026,
		"lng": 4.900798968515201,
		"address": "Jodenbreestraat 6",
		"postalCode": "1011NK",
		"city": "Amsterdam",
		"country": "Nederland",
		"categories": [
			"Gym",
			"Gym / Fitness Center"
		]
	},
	{
		"date": "2017-10-19T07:06:50.000Z",
		"name": "WeWork Metropool",
		"id": "56a14a68498e77945ee2ced1",
		"lat": 52.36480793621647,
		"lng": 4.906191453337669,
		"address": "Weesperstraat 61",
		"postalCode": "1018 VN",
		"city": "Amsterdam",
		"country": "Nederland",
		"categories": [
			"Coworking Space",
			"Business Service"
		]
	},
	{
		"date": "2017-10-19T07:11:20.000Z",
		"name": "LiveJasmin",
		"id": "59e84fcf2632ec468f1f05dc",
		"lat": 52.36499,
		"lng": 4.906102,
		"address": "Weesperstraat 61",
		"postalCode": "1018 VN",
		"city": "Amsterdam",
		"country": "Nederland",
		"categories": [
			"Office"
		]
	},
	{
		"date": "2017-10-19T07:12:08.000Z",
		"name": "Docler Holding Amsterdam",
		"id": "58b684db52a051661da12674",
		"lat": 52.36505739184381,
		"lng": 4.906015988886142,
		"address": "Weespertraat 61",
		"postalCode": "1018 VN",
		"city": "Amsterdam",
		"country": "Nederland",
		"categories": [
			"Tech Startup"
		]
	},
	{
		"date": "2017-10-19T10:00:37.000Z",
		"name": "Vapiano",
		"id": "4fb28f2be4b0e2be9a5f1f6f",
		"lat": 52.36612800819601,
		"lng": 4.897454374802111,
		"address": "Amstelstraat 2-4",
		"postalCode": "1017 DA",
		"city": "Amsterdam",
		"country": "Nederland",
		"categories": [
			"Italian Restaurant",
			"Pizza Place"
		]
	},
	{
		"date": "2017-10-19T16:22:48.000Z",
		"name": "Dam",
		"id": "4b9ff646f964a520f44d37e3",
		"lat": 52.37300539279099,
		"lng": 4.892928600311278,
		"address": "Dam",
		"postalCode": "1012 NP",
		"city": "Amsterdam",
		"country": "Nederland",
		"categories": [
			"Plaza"
		]
	},
	{
		"date": "2017-10-19T17:42:47.000Z",
		"name": "Theatercafé De Richel",
		"id": "52cf1985498ea7775c48fef1",
		"lat": 52.3698547060142,
		"lng": 4.893450364972957,
		"address": "Nes 71",
		"postalCode": "1012 KD",
		"city": "Amsterdam",
		"country": "Nederland",
		"categories": [
			"Café",
			"Bar"
		]
	},
	{
		"date": "2017-10-19T21:14:15.000Z",
		"name": "Cotton Candy Residence 10",
		"id": "58cd4fe316f000799f4cf4f4",
		"lat": 52.392946926098126,
		"lng": 4.640537129468235,
		"city": "Haarlem",
		"country": "Nederland",
		"categories": [
			"Home (private)"
		]
	},
	{
		"date": "2017-10-20T09:50:44.000Z",
		"name": "Water & Brood",
		"id": "590c4ecfcad1b67f0cc84943",
		"lat": 52.36423552187337,
		"lng": 4.905926229851091,
		"address": "Nieuwe Kerkstraat 84",
		"postalCode": "1018 EC",
		"city": "Amsterdam",
		"country": "Nederland",
		"categories": [
			"Breakfast Spot"
		]
	},
	{
		"date": "2017-10-20T14:05:11.000Z",
		"name": "WeWork Metropool",
		"id": "56a14a68498e77945ee2ced1",
		"lat": 52.36480793621647,
		"lng": 4.906191453337669,
		"address": "Weesperstraat 61",
		"postalCode": "1018 VN",
		"city": "Amsterdam",
		"country": "Nederland",
		"categories": [
			"Coworking Space",
			"Business Service"
		]
	},
	{
		"date": "2017-10-20T14:40:49.000Z",
		"name": "Docler Holding Amsterdam",
		"id": "58b684db52a051661da12674",
		"lat": 52.36505739184381,
		"lng": 4.906015988886142,
		"address": "Weespertraat 61",
		"postalCode": "1018 VN",
		"city": "Amsterdam",
		"country": "Nederland",
		"categories": [
			"Tech Startup"
		]
	},
	{
		"date": "2017-10-20T16:47:43.000Z",
		"name": "Drovers Dog",
		"id": "56f68884498eaaed05a0c62e",
		"lat": 52.35201803987231,
		"lng": 4.913375095163036,
		"address": "Wibautstraat 206",
		"city": "Amsterdam",
		"country": "Nederland",
		"categories": [
			"Australian Restaurant"
		]
	},
	{
		"date": "2017-10-20T22:35:53.000Z",
		"name": "Amsterdam Central Railway Station (Station Amsterdam Centraal)",
		"id": "4a688ba1f964a52088ca1fe3",
		"lat": 52.37878224866535,
		"lng": 4.900374412536621,
		"address": "Stationsplein 15",
		"postalCode": "1012 AB",
		"city": "Amsterdam",
		"country": "Nederland",
		"categories": [
			"Train Station"
		]
	},
	{
		"date": "2017-10-20T23:00:03.000Z",
		"name": "Station Haarlem",
		"id": "4a8c3036f964a5203a0d20e3",
		"lat": 52.38801057573046,
		"lng": 4.638713550666082,
		"address": "Stationsplein 11 L",
		"postalCode": "2011 LR",
		"city": "Haarlem",
		"country": "Nederland",
		"categories": [
			"Train Station"
		]
	},
	{
		"date": "2017-10-20T23:30:46.000Z",
		"name": "Cotton Candy Residence 10",
		"id": "58cd4fe316f000799f4cf4f4",
		"lat": 52.392946926098126,
		"lng": 4.640537129468235,
		"city": "Haarlem",
		"country": "Nederland",
		"categories": [
			"Home (private)"
		]
	},
	{
		"date": "2017-10-21T10:55:06.000Z",
		"name": "Station Haarlem",
		"id": "4a8c3036f964a5203a0d20e3",
		"lat": 52.38801057573046,
		"lng": 4.638713550666082,
		"address": "Stationsplein 11 L",
		"postalCode": "2011 LR",
		"city": "Haarlem",
		"country": "Nederland",
		"categories": [
			"Train Station"
		]
	},
	{
		"date": "2017-10-21T11:11:49.000Z",
		"name": "Grote Markt",
		"id": "4b33f1aef964a520842225e3",
		"lat": 52.381433191163424,
		"lng": 4.6357020650218494,
		"address": "Grote Markt",
		"postalCode": "2011",
		"city": "Haarlem",
		"country": "Nederland",
		"categories": [
			"Plaza",
			"Event Space"
		]
	},
	{
		"date": "2017-10-21T17:48:55.000Z",
		"name": "Amsterdam Central Railway Station (Station Amsterdam Centraal)",
		"id": "4a688ba1f964a52088ca1fe3",
		"lat": 52.37878224866535,
		"lng": 4.900374412536621,
		"address": "Stationsplein 15",
		"postalCode": "1012 AB",
		"city": "Amsterdam",
		"country": "Nederland",
		"categories": [
			"Train Station"
		]
	},
	{
		"date": "2017-10-21T18:16:33.000Z",
		"name": "Albert Heijn",
		"id": "4b227818f964a520424724e3",
		"lat": 52.37863241703463,
		"lng": 4.8964994998580496,
		"address": "Prins Hendrikkade 20",
		"postalCode": "1012 TL",
		"city": "Amsterdam",
		"country": "Nederland",
		"categories": [
			"Supermarket"
		]
	},
	{
		"date": "2017-10-21T23:16:34.000Z",
		"name": "Voc Cour",
		"id": "4dea178ed22da22d4ec99572",
		"lat": 52.384758889211035,
		"lng": 4.892298399014959,
		"address": "Westerdok",
		"city": "Amsterdam",
		"country": "Nederland",
		"categories": [
			"Residential Building (Apartment / Condo)"
		]
	},
	{
		"date": "2017-10-21T23:42:02.000Z",
		"name": "Amsterdam Sloterdijk Station (Station Amsterdam Sloterdijk)",
		"id": "4a56245ff964a52085b41fe3",
		"lat": 52.38899431620469,
		"lng": 4.837957990409058,
		"address": "Orlyplein 105",
		"postalCode": "1043 DT",
		"city": "Amsterdam",
		"country": "Nederland",
		"categories": [
			"Train Station"
		]
	},
	{
		"date": "2017-10-22T00:19:23.000Z",
		"name": "Station Haarlem",
		"id": "4a8c3036f964a5203a0d20e3",
		"lat": 52.38801057573046,
		"lng": 4.638713550666082,
		"address": "Stationsplein 11 L",
		"postalCode": "2011 LR",
		"city": "Haarlem",
		"country": "Nederland",
		"categories": [
			"Train Station"
		]
	},
	{
		"date": "2017-10-23T05:07:50.000Z",
		"name": "Station Haarlem",
		"id": "4a8c3036f964a5203a0d20e3",
		"lat": 52.38801057573046,
		"lng": 4.638713550666082,
		"address": "Stationsplein 11 L",
		"postalCode": "2011 LR",
		"city": "Haarlem",
		"country": "Nederland",
		"categories": [
			"Train Station"
		]
	},
	{
		"date": "2017-10-23T05:27:19.000Z",
		"name": "Amsterdam Central Railway Station (Station Amsterdam Centraal)",
		"id": "4a688ba1f964a52088ca1fe3",
		"lat": 52.37878224866535,
		"lng": 4.900374412536621,
		"address": "Stationsplein 15",
		"postalCode": "1012 AB",
		"city": "Amsterdam",
		"country": "Nederland",
		"categories": [
			"Train Station"
		]
	},
	{
		"date": "2017-10-23T05:44:22.000Z",
		"name": "SportCity",
		"id": "4a835233f964a520c6fa1fe3",
		"lat": 52.368877125084026,
		"lng": 4.900798968515201,
		"address": "Jodenbreestraat 6",
		"postalCode": "1011NK",
		"city": "Amsterdam",
		"country": "Nederland",
		"categories": [
			"Gym",
			"Gym / Fitness Center"
		]
	},
	{
		"date": "2017-10-23T07:03:44.000Z",
		"name": "WeWork Metropool",
		"id": "56a14a68498e77945ee2ced1",
		"lat": 52.36480793621647,
		"lng": 4.906191453337669,
		"address": "Weesperstraat 61",
		"postalCode": "1018 VN",
		"city": "Amsterdam",
		"country": "Nederland",
		"categories": [
			"Coworking Space",
			"Business Service"
		]
	},
	{
		"date": "2017-10-23T18:05:28.000Z",
		"name": "Amsterdam Central Railway Station (Station Amsterdam Centraal)",
		"id": "4a688ba1f964a52088ca1fe3",
		"lat": 52.37878224866535,
		"lng": 4.900374412536621,
		"address": "Stationsplein 15",
		"postalCode": "1012 AB",
		"city": "Amsterdam",
		"country": "Nederland",
		"categories": [
			"Train Station"
		]
	},
	{
		"date": "2017-10-23T18:33:14.000Z",
		"name": "Station Haarlem",
		"id": "4a8c3036f964a5203a0d20e3",
		"lat": 52.38801057573046,
		"lng": 4.638713550666082,
		"address": "Stationsplein 11 L",
		"postalCode": "2011 LR",
		"city": "Haarlem",
		"country": "Nederland",
		"categories": [
			"Train Station"
		]
	},
	{
		"date": "2017-10-23T18:33:31.000Z",
		"name": "Albert Heijn to go",
		"id": "4b862ee0f964a520038231e3",
		"lat": 52.38851437453483,
		"lng": 4.639542485412089,
		"address": "Stationsplein 14",
		"postalCode": "2011 LR",
		"city": "Haarlem",
		"country": "Nederland",
		"categories": [
			"Convenience Store"
		]
	},
	{
		"date": "2017-10-23T19:44:45.000Z",
		"name": "Cotton Candy Residence 10",
		"id": "58cd4fe316f000799f4cf4f4",
		"lat": 52.392946926098126,
		"lng": 4.640537129468235,
		"city": "Haarlem",
		"country": "Nederland",
		"categories": [
			"Home (private)"
		]
	},
	{
		"date": "2017-10-24T05:49:25.000Z",
		"name": "Station Haarlem",
		"id": "4a8c3036f964a5203a0d20e3",
		"lat": 52.38801057573046,
		"lng": 4.638713550666082,
		"address": "Stationsplein 11 L",
		"postalCode": "2011 LR",
		"city": "Haarlem",
		"country": "Nederland",
		"categories": [
			"Train Station"
		]
	},
	{
		"date": "2017-10-24T06:31:17.000Z",
		"name": "Primera",
		"id": "4b75441ef964a52082032ee3",
		"lat": 52.368295728326196,
		"lng": 4.9023278028934625,
		"address": "Waterlooplein 169",
		"postalCode": "1011 PG",
		"city": "Amsterdam",
		"country": "Nederland",
		"categories": [
			"Convenience Store"
		]
	},
	{
		"date": "2017-10-24T06:50:19.000Z",
		"name": "WeWork Metropool",
		"id": "56a14a68498e77945ee2ced1",
		"lat": 52.36480793621647,
		"lng": 4.906191453337669,
		"address": "Weesperstraat 61",
		"postalCode": "1018 VN",
		"city": "Amsterdam",
		"country": "Nederland",
		"categories": [
			"Coworking Space",
			"Business Service"
		]
	},
	{
		"date": "2017-10-24T09:41:45.000Z",
		"name": "SPAR city Van Kempen",
		"id": "4b4c4089f964a52022b026e3",
		"lat": 52.36421961630775,
		"lng": 4.9056606671851295,
		"address": "Nieuwe Kerkstraat 65",
		"postalCode": "1018 DZ",
		"city": "Amsterdam",
		"country": "Nederland",
		"categories": [
			"Convenience Store",
			"Supermarket",
			"Grocery Store"
		]
	},
	{
		"date": "2017-10-24T13:51:36.000Z",
		"name": "Amsterdam Airport Schiphol (AMS)",
		"id": "4a84e798f964a520defd1fe3",
		"lat": 52.3085704596075,
		"lng": 4.762122631072998,
		"address": "Aankomstpassage",
		"postalCode": "1118 CP",
		"city": "Schiphol",
		"country": "Nederland",
		"categories": [
			"Airport"
		]
	},
	{
		"date": "2017-10-24T13:51:45.000Z",
		"name": "Departures 1",
		"id": "4ba43205f964a520fa8a38e3",
		"lat": 52.308713925302165,
		"lng": 4.763812952542547,
		"address": "AMS Airport",
		"city": "Schiphol",
		"country": "Nederland",
		"categories": [
			"Airport Terminal"
		]
	},
	{
		"date": "2017-10-24T14:27:18.000Z",
		"name": "Gate B15",
		"id": "4b8f45b6f964a520f24f33e3",
		"lat": 52.30476109504331,
		"lng": 4.762023524421041,
		"address": "Concourse B",
		"city": "Schiphol",
		"country": "Nederland",
		"categories": [
			"Airport Gate"
		]
	},
	{
		"date": "2017-10-24T17:53:09.000Z",
		"name": "Vienna International Airport (VIE) (Flughafen Wien-Schwechat)",
		"id": "4b05889af964a520e5cf22e3",
		"lat": 48.11934401963146,
		"lng": 16.56264517485397,
		"address": "Abflugstraße",
		"postalCode": "1300",
		"city": "Schwechat",
		"country": "Österreich",
		"categories": [
			"Airport"
		]
	},
	{
		"date": "2017-10-24T19:21:17.000Z",
		"name": "Austria Trend Hotel",
		"id": "4dcbef7bb0fbd92b2942baa9",
		"lat": 48.14811645681461,
		"lng": 17.10887066958419,
		"address": "Vysoká 4275/8",
		"postalCode": "811 06",
		"city": "Bratislava",
		"country": "Slovensko",
		"categories": [
			"Hotel"
		]
	},
	{
		"date": "2017-10-24T20:56:56.000Z",
		"name": "Starosloviensky pivovar",
		"id": "50ec0de7e4b0d785b9aed1f9",
		"lat": 48.14909168548558,
		"lng": 17.11047721825181,
		"address": "Vysoká 15",
		"postalCode": "811 08",
		"city": "Bratislava",
		"country": "Slovensko",
		"categories": [
			"Brewery",
			"Gastropub"
		]
	},
	{
		"date": "2017-10-25T08:45:13.000Z",
		"name": "ReactiveConf 2017",
		"id": "59efad73b040567183f072af",
		"lat": 48.14773494463816,
		"lng": 17.062670382374804,
		"postalCode": "811 01",
		"city": "Bratislava",
		"country": "Slovensko",
		"categories": [
			"Other Event",
			"Festival"
		]
	},
	{
		"date": "2017-10-25T14:49:52.000Z",
		"name": "Námestie SNP",
		"id": "4bbf7f25920eb7139d6e172c",
		"lat": 48.14491985788762,
		"lng": 17.111947581614345,
		"address": "Nám. SNP 1",
		"postalCode": "811 01",
		"city": "Bratislava",
		"country": "Slovensko",
		"categories": [
			"Plaza"
		]
	},
	{
		"date": "2017-10-25T17:07:39.000Z",
		"name": "Austria Trend Hotel",
		"id": "4dcbef7bb0fbd92b2942baa9",
		"lat": 48.14811645681461,
		"lng": 17.10887066958419,
		"address": "Vysoká 4275/8",
		"postalCode": "811 06",
		"city": "Bratislava",
		"country": "Slovensko",
		"categories": [
			"Hotel"
		]
	},
	{
		"date": "2017-10-25T17:41:51.000Z",
		"name": "Bratislava Castle (Bratislavský hrad)",
		"id": "4c127bf477cea5932422cd60",
		"lat": 48.14225090093267,
		"lng": 17.100155353546143,
		"address": "Zámocká 2",
		"postalCode": "811 01",
		"city": "Bratislava",
		"country": "Slovensko",
		"categories": [
			"Castle",
			"History Museum",
			"Scenic Lookout"
		]
	},
	{
		"date": "2017-10-25T18:15:16.000Z",
		"name": "Katedrála svätého Martina (Katedrála svätého Martina | St. Martin's Cathedral)",
		"id": "4c2de87611cb9c7414f572b3",
		"lat": 48.14184971470168,
		"lng": 17.105163347874406,
		"address": "Rudnayovo námestie 4549/1",
		"postalCode": "811 01",
		"city": "Bratislava",
		"country": "Slovensko",
		"categories": [
			"Church",
			"History Museum"
		]
	},
	{
		"date": "2017-10-25T18:15:27.000Z",
		"name": "Most SNP",
		"id": "4c22df22aa8e9c745d8ff4d4",
		"lat": 48.13814136980191,
		"lng": 17.104554176330566,
		"address": "Most SNP",
		"city": "Bratislava",
		"country": "Slovensko",
		"categories": [
			"Bridge"
		]
	},
	{
		"date": "2017-10-25T18:21:41.000Z",
		"name": "UFO",
		"id": "4c935f74d2e1a1433220d226",
		"lat": 48.136658820646616,
		"lng": 17.104617887509256,
		"address": "Most SNP 1",
		"postalCode": "851 01",
		"city": "Bratislava",
		"country": "Slovensko",
		"categories": [
			"Restaurant",
			"Lounge",
			"Scenic Lookout"
		]
	},
	{
		"date": "2017-10-25T18:35:00.000Z",
		"name": "UFO Observation Deck",
		"id": "5200f48e498ec644ef45780d",
		"lat": 48.13651443004328,
		"lng": 17.104611271164615,
		"address": "Most SNP",
		"postalCode": "851 01",
		"city": "Bratislava",
		"country": "Slovensko",
		"categories": [
			"Scenic Lookout"
		]
	},
	{
		"date": "2017-10-25T18:52:36.000Z",
		"name": "Botel Gracia Hotel Bratislava",
		"id": "4bd857e72ecdce726ebad0f2",
		"lat": 48.13948437045551,
		"lng": 17.10755465969571,
		"address": "Rázusovo nábrežie",
		"city": "Bratislava",
		"country": "Slovensko",
		"categories": [
			"Hotel",
			"Boat or Ferry"
		]
	},
	{
		"date": "2017-10-25T20:13:14.000Z",
		"name": "Lokál u Františkánov",
		"id": "5318c28c498ea35bc8422fcf",
		"lat": 48.14458034996266,
		"lng": 17.10804024325206,
		"address": "Františkánske nám. 10",
		"postalCode": "811 01",
		"city": "Bratislava",
		"country": "Slovensko",
		"categories": [
			"Restaurant",
			"Café"
		]
	},
	{
		"date": "2017-10-26T06:37:14.000Z",
		"name": "Austria Trend Hotel",
		"id": "4dcbef7bb0fbd92b2942baa9",
		"lat": 48.14811645681461,
		"lng": 17.10887066958419,
		"address": "Vysoká 4275/8",
		"postalCode": "811 06",
		"city": "Bratislava",
		"country": "Slovensko",
		"categories": [
			"Hotel"
		]
	},
	{
		"date": "2017-10-26T08:58:32.000Z",
		"name": "ReactiveConf 2017",
		"id": "59efad73b040567183f072af",
		"lat": 48.14773494463816,
		"lng": 17.062670382374804,
		"postalCode": "811 01",
		"city": "Bratislava",
		"country": "Slovensko",
		"categories": [
			"Other Event",
			"Festival"
		]
	},
	{
		"date": "2017-10-26T11:23:35.000Z",
		"name": "Eurovea",
		"id": "4ba766d1f964a520fb9039e3",
		"lat": 48.14032181201185,
		"lng": 17.122036629877503,
		"address": "Pribinova 8",
		"postalCode": "811 09",
		"city": "Bratislava",
		"country": "Slovensko",
		"categories": [
			"Shopping Mall"
		]
	},
	{
		"date": "2017-10-26T11:29:42.000Z",
		"name": "Starbucks",
		"id": "5799a6f3498e27299438fd56",
		"lat": 48.14027,
		"lng": 17.121489,
		"address": "Pribinova 8",
		"postalCode": "811 09",
		"city": "Bratislava",
		"country": "Slovensko",
		"categories": [
			"Coffee Shop"
		]
	},
	{
		"date": "2017-10-26T17:08:38.000Z",
		"name": "Terranova",
		"id": "4d02567018ff8cfa8b43c457",
		"lat": 48.146453242079865,
		"lng": 17.109629483267007,
		"address": "Poštová 3",
		"postalCode": "811 06",
		"city": "Bratislava",
		"country": "Slovensko",
		"categories": [
			"Clothing Store"
		]
	},
	{
		"date": "2017-10-26T18:40:25.000Z",
		"name": "Rio Grande",
		"id": "4b624310f964a5202b3f2ae3",
		"lat": 48.141151098745475,
		"lng": 17.10650656206231,
		"address": "Hviezdoslavovo nám. 15",
		"postalCode": "811 01",
		"city": "Bratislava",
		"country": "Slovensko",
		"categories": [
			"Restaurant",
			"Cocktail Bar",
			"Nightclub"
		]
	},
	{
		"date": "2017-10-26T20:23:19.000Z",
		"name": "Gorila.sk Urban Space",
		"id": "51b840d68bbdfb27df68145e",
		"lat": 48.145325903252285,
		"lng": 17.11018647102614,
		"address": "Nám. SNP 30",
		"postalCode": "811 01",
		"city": "Bratislava",
		"country": "Slovensko",
		"categories": [
			"Café",
			"Bookstore"
		]
	},
	{
		"date": "2017-10-26T22:03:17.000Z",
		"name": "Austria Trend Hotel",
		"id": "4dcbef7bb0fbd92b2942baa9",
		"lat": 48.14811645681461,
		"lng": 17.10887066958419,
		"address": "Vysoká 4275/8",
		"postalCode": "811 06",
		"city": "Bratislava",
		"country": "Slovensko",
		"categories": [
			"Hotel"
		]
	},
	{
		"date": "2017-10-27T08:03:06.000Z",
		"name": "Substitute Nivy Bus Station (Náhradná autobusová stanica Nivy)",
		"id": "59ccab620fe7a035564b7fb9",
		"lat": 48.144877935076465,
		"lng": 17.12842880438347,
		"address": "Bottova 6654/7",
		"postalCode": "811 09",
		"city": "Bratislava",
		"country": "Slovensko",
		"categories": [
			"Bus Station"
		]
	},
	{
		"date": "2017-10-27T09:18:19.000Z",
		"name": "Favoriten",
		"id": "5314b866e4b0d805d3754d54",
		"lat": 48.17594588548198,
		"lng": 16.37538224343638,
		"city": "Wien",
		"country": "Österreich",
		"categories": [
			"Neighborhood"
		]
	},
	{
		"date": "2017-10-27T09:23:41.000Z",
		"name": "Busterminal Südtirolerplatz",
		"id": "4bdd3bbecd51b7130de63af1",
		"lat": 48.18562345144755,
		"lng": 16.372682594184337,
		"address": "Südtirolerplatz",
		"city": "Wien",
		"country": "Österreich",
		"categories": [
			"Bus Station"
		]
	},
	{
		"date": "2017-10-27T10:01:12.000Z",
		"name": "Ferdinandt",
		"id": "4cfb87f234c1a09308ac460e",
		"lat": 48.20635553007036,
		"lng": 16.37082517022583,
		"city": "Wien",
		"country": "Österreich",
		"categories": [
			"Restaurant"
		]
	},
	{
		"date": "2017-10-27T10:55:40.000Z",
		"name": "Stephansplatz",
		"id": "4d7cb65c86cfa1435ce4cea0",
		"lat": 48.208299497606895,
		"lng": 16.371879843615737,
		"address": "Stephansplatz",
		"postalCode": "1010",
		"city": "Wien",
		"country": "Österreich",
		"categories": [
			"Plaza"
		]
	},
	{
		"date": "2017-10-27T11:08:59.000Z",
		"name": "Vienna Central Station (Wien Hauptbahnhof)",
		"id": "4cff7e9321ea6ea887f33c9f",
		"lat": 48.185044917599285,
		"lng": 16.37735366821289,
		"address": "Am Hauptbahnhof 1",
		"postalCode": "1100",
		"city": "Wien",
		"country": "Österreich",
		"categories": [
			"Train Station"
		]
	},
	{
		"date": "2017-10-27T11:53:40.000Z",
		"name": "Vienna International Airport (VIE) (Flughafen Wien-Schwechat)",
		"id": "4b05889af964a520e5cf22e3",
		"lat": 48.11934401963146,
		"lng": 16.56264517485397,
		"address": "Abflugstraße",
		"postalCode": "1300",
		"city": "Schwechat",
		"country": "Österreich",
		"categories": [
			"Airport"
		]
	},
	{
		"date": "2017-10-27T12:54:08.000Z",
		"name": "Gate F32",
		"id": "4fd4cdabe4b02bbdc6290137",
		"lat": 48.1176227488127,
		"lng": 16.569641603685703,
		"address": "Terminal 3",
		"postalCode": "1300",
		"city": "Schwechat",
		"country": "Österreich",
		"categories": [
			"Airport Gate"
		]
	},
	{
		"date": "2017-10-27T15:19:14.000Z",
		"name": "Amsterdam Airport Schiphol (AMS)",
		"id": "4a84e798f964a520defd1fe3",
		"lat": 52.3085704596075,
		"lng": 4.762122631072998,
		"address": "Aankomstpassage",
		"postalCode": "1118 CP",
		"city": "Schiphol",
		"country": "Nederland",
		"categories": [
			"Airport"
		]
	},
	{
		"date": "2017-10-27T15:29:32.000Z",
		"name": "Arrivals 1",
		"id": "4bee5a363686c9b63371246e",
		"lat": 52.30855482689688,
		"lng": 4.763492744708398,
		"address": "AMS Airport",
		"city": "Schiphol",
		"country": "Nederland",
		"categories": [
			"Airport Terminal"
		]
	},
	{
		"date": "2017-10-28T14:20:07.000Z",
		"name": "Cotton Candy Residence 10",
		"id": "58cd4fe316f000799f4cf4f4",
		"lat": 52.392946926098126,
		"lng": 4.640537129468235,
		"city": "Haarlem",
		"country": "Nederland",
		"categories": [
			"Home (private)"
		]
	},
	{
		"date": "2017-10-28T21:44:29.000Z",
		"name": "Pathé Haarlem",
		"id": "4e148b7ac65bedaeefbe2709",
		"lat": 52.381759575266265,
		"lng": 4.6295865068192885,
		"address": "Zijlvest 41-43",
		"postalCode": "2011 VB",
		"city": "Haarlem",
		"country": "Nederland",
		"categories": [
			"Multiplex"
		]
	},
	{
		"date": "2017-10-29T00:45:12.000Z",
		"name": "Cotton Candy Residence 10",
		"id": "58cd4fe316f000799f4cf4f4",
		"lat": 52.392946926098126,
		"lng": 4.640537129468235,
		"city": "Haarlem",
		"country": "Nederland",
		"categories": [
			"Home (private)"
		]
	},
	{
		"date": "2017-10-30T06:45:21.000Z",
		"name": "SportCity",
		"id": "4a835233f964a520c6fa1fe3",
		"lat": 52.368877125084026,
		"lng": 4.900798968515201,
		"address": "Jodenbreestraat 6",
		"postalCode": "1011NK",
		"city": "Amsterdam",
		"country": "Nederland",
		"categories": [
			"Gym",
			"Gym / Fitness Center"
		]
	},
	{
		"date": "2017-10-30T07:54:15.000Z",
		"name": "WeWork Metropool",
		"id": "56a14a68498e77945ee2ced1",
		"lat": 52.36480793621647,
		"lng": 4.906191453337669,
		"address": "Weesperstraat 61",
		"postalCode": "1018 VN",
		"city": "Amsterdam",
		"country": "Nederland",
		"categories": [
			"Coworking Space",
			"Business Service"
		]
	},
	{
		"date": "2017-10-30T17:49:45.000Z",
		"name": "Amsterdam Central Railway Station (Station Amsterdam Centraal)",
		"id": "4a688ba1f964a52088ca1fe3",
		"lat": 52.37878224866535,
		"lng": 4.900374412536621,
		"address": "Stationsplein 15",
		"postalCode": "1012 AB",
		"city": "Amsterdam",
		"country": "Nederland",
		"categories": [
			"Train Station"
		]
	},
	{
		"date": "2017-10-31T07:15:51.000Z",
		"name": "Station Haarlem",
		"id": "4a8c3036f964a5203a0d20e3",
		"lat": 52.38801057573046,
		"lng": 4.638713550666082,
		"address": "Stationsplein 11 L",
		"postalCode": "2011 LR",
		"city": "Haarlem",
		"country": "Nederland",
		"categories": [
			"Train Station"
		]
	},
	{
		"date": "2017-10-31T07:41:57.000Z",
		"name": "Amsterdam Central Railway Station (Station Amsterdam Centraal)",
		"id": "4a688ba1f964a52088ca1fe3",
		"lat": 52.37878224866535,
		"lng": 4.900374412536621,
		"address": "Stationsplein 15",
		"postalCode": "1012 AB",
		"city": "Amsterdam",
		"country": "Nederland",
		"categories": [
			"Train Station"
		]
	},
	{
		"date": "2017-10-31T10:57:10.000Z",
		"name": "Albert Heijn",
		"id": "4a5837aaf964a5207fb71fe3",
		"lat": 52.368762108392325,
		"lng": 4.903476846994489,
		"address": "Jodenbreestraat 21",
		"postalCode": "1011 NH",
		"city": "Amsterdam",
		"country": "Nederland",
		"categories": [
			"Supermarket",
			"Grocery Store"
		]
	},
	{
		"date": "2017-10-31T11:09:28.000Z",
		"name": "WeWork Metropool",
		"id": "56a14a68498e77945ee2ced1",
		"lat": 52.36480793621647,
		"lng": 4.906191453337669,
		"address": "Weesperstraat 61",
		"postalCode": "1018 VN",
		"city": "Amsterdam",
		"country": "Nederland",
		"categories": [
			"Coworking Space",
			"Business Service"
		]
	},
	{
		"date": "2017-10-31T18:03:23.000Z",
		"name": "Amsterdam Central Railway Station (Station Amsterdam Centraal)",
		"id": "4a688ba1f964a52088ca1fe3",
		"lat": 52.37878224866535,
		"lng": 4.900374412536621,
		"address": "Stationsplein 15",
		"postalCode": "1012 AB",
		"city": "Amsterdam",
		"country": "Nederland",
		"categories": [
			"Train Station"
		]
	},
	{
		"date": "2017-10-31T18:20:27.000Z",
		"name": "Station Haarlem",
		"id": "4a8c3036f964a5203a0d20e3",
		"lat": 52.38801057573046,
		"lng": 4.638713550666082,
		"address": "Stationsplein 11 L",
		"postalCode": "2011 LR",
		"city": "Haarlem",
		"country": "Nederland",
		"categories": [
			"Train Station"
		]
	},
	{
		"date": "2017-10-31T21:02:14.000Z",
		"name": "Cotton Candy Residence 10",
		"id": "58cd4fe316f000799f4cf4f4",
		"lat": 52.392946926098126,
		"lng": 4.640537129468235,
		"city": "Haarlem",
		"country": "Nederland",
		"categories": [
			"Home (private)"
		]
	}
]