[
	{
		"date": "2017-05-01T09:49:07.000Z",
		"name": "SPAR city Van Kempen",
		"id": "4b4c4089f964a52022b026e3",
		"lat": 52.36421961630775,
		"lng": 4.9056606671851295,
		"address": "Nieuwe Kerkstraat 65",
		"postalCode": "1018 DZ",
		"city": "Amsterdam",
		"country": "Nederland",
		"categories": [
			"Convenience Store",
			"Supermarket",
			"Grocery Store"
		]
	},
	{
		"date": "2017-05-01T10:52:11.000Z",
		"name": "WeWork Metropool",
		"id": "56a14a68498e77945ee2ced1",
		"lat": 52.36480793621647,
		"lng": 4.906191453337669,
		"address": "Weesperstraat 61",
		"postalCode": "1018 VN",
		"city": "Amsterdam",
		"country": "Nederland",
		"categories": [
			"Coworking Space",
			"Business Service"
		]
	},
	{
		"date": "2017-05-01T16:12:05.000Z",
		"name": "Amsterdam Central Railway Station (Station Amsterdam Centraal)",
		"id": "4a688ba1f964a52088ca1fe3",
		"lat": 52.37878224866535,
		"lng": 4.900374412536621,
		"address": "Stationsplein 15",
		"postalCode": "1012 AB",
		"city": "Amsterdam",
		"country": "Nederland",
		"categories": [
			"Train Station"
		]
	},
	{
		"date": "2017-05-01T18:30:09.000Z",
		"name": "Cotton Candy Residence 10",
		"id": "58cd4fe316f000799f4cf4f4",
		"lat": 52.392946926098126,
		"lng": 4.640537129468235,
		"city": "Haarlem",
		"country": "Nederland",
		"categories": [
			"Home (private)"
		]
	},
	{
		"date": "2017-05-02T06:14:59.000Z",
		"name": "Station Haarlem",
		"id": "4a8c3036f964a5203a0d20e3",
		"lat": 52.38801057573046,
		"lng": 4.638713550666082,
		"address": "Stationsplein 11 L",
		"postalCode": "2011 LR",
		"city": "Haarlem",
		"country": "Nederland",
		"categories": [
			"Train Station"
		]
	},
	{
		"date": "2017-05-02T06:44:02.000Z",
		"name": "Amsterdam Central Railway Station (Station Amsterdam Centraal)",
		"id": "4a688ba1f964a52088ca1fe3",
		"lat": 52.37878224866535,
		"lng": 4.900374412536621,
		"address": "Stationsplein 15",
		"postalCode": "1012 AB",
		"city": "Amsterdam",
		"country": "Nederland",
		"categories": [
			"Train Station"
		]
	},
	{
		"date": "2017-05-02T09:51:14.000Z",
		"name": "SPAR city Van Kempen",
		"id": "4b4c4089f964a52022b026e3",
		"lat": 52.36421961630775,
		"lng": 4.9056606671851295,
		"address": "Nieuwe Kerkstraat 65",
		"postalCode": "1018 DZ",
		"city": "Amsterdam",
		"country": "Nederland",
		"categories": [
			"Convenience Store",
			"Supermarket",
			"Grocery Store"
		]
	},
	{
		"date": "2017-05-02T16:44:38.000Z",
		"name": "WeWork Metropool",
		"id": "56a14a68498e77945ee2ced1",
		"lat": 52.36480793621647,
		"lng": 4.906191453337669,
		"address": "Weesperstraat 61",
		"postalCode": "1018 VN",
		"city": "Amsterdam",
		"country": "Nederland",
		"categories": [
			"Coworking Space",
			"Business Service"
		]
	},
	{
		"date": "2017-05-02T16:44:47.000Z",
		"name": "Docler Holding Amsterdam",
		"id": "58b684db52a051661da12674",
		"lat": 52.36505739184381,
		"lng": 4.906015988886142,
		"address": "Weespertraat 61",
		"postalCode": "1018 VN",
		"city": "Amsterdam",
		"country": "Nederland",
		"categories": [
			"Tech Startup"
		]
	},
	{
		"date": "2017-05-02T17:54:20.000Z",
		"name": "Cotton Candy Residence 10",
		"id": "58cd4fe316f000799f4cf4f4",
		"lat": 52.392946926098126,
		"lng": 4.640537129468235,
		"city": "Haarlem",
		"country": "Nederland",
		"categories": [
			"Home (private)"
		]
	},
	{
		"date": "2017-05-03T06:04:16.000Z",
		"name": "Station Haarlem",
		"id": "4a8c3036f964a5203a0d20e3",
		"lat": 52.38801057573046,
		"lng": 4.638713550666082,
		"address": "Stationsplein 11 L",
		"postalCode": "2011 LR",
		"city": "Haarlem",
		"country": "Nederland",
		"categories": [
			"Train Station"
		]
	},
	{
		"date": "2017-05-03T07:52:26.000Z",
		"name": "WeWork Metropool",
		"id": "56a14a68498e77945ee2ced1",
		"lat": 52.36480793621647,
		"lng": 4.906191453337669,
		"address": "Weesperstraat 61",
		"postalCode": "1018 VN",
		"city": "Amsterdam",
		"country": "Nederland",
		"categories": [
			"Coworking Space",
			"Business Service"
		]
	},
	{
		"date": "2017-05-03T10:02:27.000Z",
		"name": "Docler Holding Amsterdam",
		"id": "58b684db52a051661da12674",
		"lat": 52.36505739184381,
		"lng": 4.906015988886142,
		"address": "Weespertraat 61",
		"postalCode": "1018 VN",
		"city": "Amsterdam",
		"country": "Nederland",
		"categories": [
			"Tech Startup"
		]
	},
	{
		"date": "2017-05-03T21:29:29.000Z",
		"name": "Cotton Candy Residence 10",
		"id": "58cd4fe316f000799f4cf4f4",
		"lat": 52.392946926098126,
		"lng": 4.640537129468235,
		"city": "Haarlem",
		"country": "Nederland",
		"categories": [
			"Home (private)"
		]
	},
	{
		"date": "2017-05-04T11:18:17.000Z",
		"name": "Docler Holding Amsterdam",
		"id": "58b684db52a051661da12674",
		"lat": 52.36505739184381,
		"lng": 4.906015988886142,
		"address": "Weespertraat 61",
		"postalCode": "1018 VN",
		"city": "Amsterdam",
		"country": "Nederland",
		"categories": [
			"Tech Startup"
		]
	},
	{
		"date": "2017-05-04T11:18:36.000Z",
		"name": "WeWork Metropool",
		"id": "56a14a68498e77945ee2ced1",
		"lat": 52.36480793621647,
		"lng": 4.906191453337669,
		"address": "Weesperstraat 61",
		"postalCode": "1018 VN",
		"city": "Amsterdam",
		"country": "Nederland",
		"categories": [
			"Coworking Space",
			"Business Service"
		]
	},
	{
		"date": "2017-05-04T16:32:17.000Z",
		"name": "Amsterdam Central Railway Station (Station Amsterdam Centraal)",
		"id": "4a688ba1f964a52088ca1fe3",
		"lat": 52.37878224866535,
		"lng": 4.900374412536621,
		"address": "Stationsplein 15",
		"postalCode": "1012 AB",
		"city": "Amsterdam",
		"country": "Nederland",
		"categories": [
			"Train Station"
		]
	},
	{
		"date": "2017-05-04T16:49:05.000Z",
		"name": "Station Haarlem",
		"id": "4a8c3036f964a5203a0d20e3",
		"lat": 52.38801057573046,
		"lng": 4.638713550666082,
		"address": "Stationsplein 11 L",
		"postalCode": "2011 LR",
		"city": "Haarlem",
		"country": "Nederland",
		"categories": [
			"Train Station"
		]
	},
	{
		"date": "2017-05-05T10:19:45.000Z",
		"name": "Water & Brood",
		"id": "590c4ecfcad1b67f0cc84943",
		"lat": 52.36423552187337,
		"lng": 4.905926229851091,
		"address": "Nieuwe Kerkstraat 84",
		"postalCode": "1018 EC",
		"city": "Amsterdam",
		"country": "Nederland",
		"categories": [
			"Breakfast Spot"
		]
	},
	{
		"date": "2017-05-05T10:53:16.000Z",
		"name": "WeWork Metropool",
		"id": "56a14a68498e77945ee2ced1",
		"lat": 52.36480793621647,
		"lng": 4.906191453337669,
		"address": "Weesperstraat 61",
		"postalCode": "1018 VN",
		"city": "Amsterdam",
		"country": "Nederland",
		"categories": [
			"Coworking Space",
			"Business Service"
		]
	},
	{
		"date": "2017-05-05T16:56:37.000Z",
		"name": "Docler Holding Amsterdam",
		"id": "58b684db52a051661da12674",
		"lat": 52.36505739184381,
		"lng": 4.906015988886142,
		"address": "Weespertraat 61",
		"postalCode": "1018 VN",
		"city": "Amsterdam",
		"country": "Nederland",
		"categories": [
			"Tech Startup"
		]
	},
	{
		"date": "2017-05-05T17:11:43.000Z",
		"name": "Amsterdam Central Railway Station (Station Amsterdam Centraal)",
		"id": "4a688ba1f964a52088ca1fe3",
		"lat": 52.37878224866535,
		"lng": 4.900374412536621,
		"address": "Stationsplein 15",
		"postalCode": "1012 AB",
		"city": "Amsterdam",
		"country": "Nederland",
		"categories": [
			"Train Station"
		]
	},
	{
		"date": "2017-05-05T17:34:43.000Z",
		"name": "Station Haarlem",
		"id": "4a8c3036f964a5203a0d20e3",
		"lat": 52.38801057573046,
		"lng": 4.638713550666082,
		"address": "Stationsplein 11 L",
		"postalCode": "2011 LR",
		"city": "Haarlem",
		"country": "Nederland",
		"categories": [
			"Train Station"
		]
	},
	{
		"date": "2017-05-06T11:53:07.000Z",
		"name": "ALDI",
		"id": "4c4eff5092b6a593cfd1d970",
		"lat": 52.39109872545818,
		"lng": 4.648774537545825,
		"address": "Werfstraat 7",
		"postalCode": "2021 BP",
		"city": "Haarlem",
		"country": "Nederland",
		"categories": [
			"Supermarket",
			"Grocery Store"
		]
	},
	{
		"date": "2017-05-06T14:54:57.000Z",
		"name": "H&M",
		"id": "4b1a6b59f964a5201dea23e3",
		"lat": 52.378641438601946,
		"lng": 4.6328334510326385,
		"address": "Grote Houtstraat 95",
		"postalCode": "2011 SH",
		"city": "Haarlem",
		"country": "Nederland",
		"categories": [
			"Clothing Store"
		]
	},
	{
		"date": "2017-05-06T15:27:26.000Z",
		"name": "H&M",
		"id": "4e710284922e8e01babb8713",
		"lat": 52.38239947147027,
		"lng": 4.635337256949284,
		"address": "Barteljorisstraat 13-17",
		"postalCode": "2011 RA",
		"city": "Haarlem",
		"country": "Nederland",
		"categories": [
			"Clothing Store"
		]
	},
	{
		"date": "2017-05-06T15:39:17.000Z",
		"name": "Havana House",
		"id": "4da5a0451e726e49695feea6",
		"lat": 52.38355105411946,
		"lng": 4.635652474578298,
		"address": "Kruisstraat 39",
		"postalCode": "2011 PW",
		"country": "Nederland",
		"categories": [
			"Smoke Shop"
		]
	},
	{
		"date": "2017-05-06T19:35:33.000Z",
		"name": "Woodstone Pizza And Wine",
		"id": "4d7ba00ef260a093c3922aba",
		"lat": 52.38142433800417,
		"lng": 4.629887062490495,
		"address": "Hortusplein 2",
		"postalCode": "2019 XV",
		"city": "Haarlem",
		"country": "Nederland",
		"categories": [
			"Pizza Place",
			"Wine Bar"
		]
	},
	{
		"date": "2017-05-08T06:20:45.000Z",
		"name": "Station Haarlem",
		"id": "4a8c3036f964a5203a0d20e3",
		"lat": 52.38801057573046,
		"lng": 4.638713550666082,
		"address": "Stationsplein 11 L",
		"postalCode": "2011 LR",
		"city": "Haarlem",
		"country": "Nederland",
		"categories": [
			"Train Station"
		]
	},
	{
		"date": "2017-05-08T06:58:59.000Z",
		"name": "WeWork Metropool",
		"id": "56a14a68498e77945ee2ced1",
		"lat": 52.36480793621647,
		"lng": 4.906191453337669,
		"address": "Weesperstraat 61",
		"postalCode": "1018 VN",
		"city": "Amsterdam",
		"country": "Nederland",
		"categories": [
			"Coworking Space",
			"Business Service"
		]
	},
	{
		"date": "2017-05-08T07:16:58.000Z",
		"name": "Docler Holding Amsterdam",
		"id": "58b684db52a051661da12674",
		"lat": 52.36505739184381,
		"lng": 4.906015988886142,
		"address": "Weespertraat 61",
		"postalCode": "1018 VN",
		"city": "Amsterdam",
		"country": "Nederland",
		"categories": [
			"Tech Startup"
		]
	},
	{
		"date": "2017-05-08T10:03:08.000Z",
		"name": "SPAR city Van Kempen",
		"id": "4b4c4089f964a52022b026e3",
		"lat": 52.36421961630775,
		"lng": 4.9056606671851295,
		"address": "Nieuwe Kerkstraat 65",
		"postalCode": "1018 DZ",
		"city": "Amsterdam",
		"country": "Nederland",
		"categories": [
			"Convenience Store",
			"Supermarket",
			"Grocery Store"
		]
	},
	{
		"date": "2017-05-08T16:49:43.000Z",
		"name": "Station Haarlem",
		"id": "4a8c3036f964a5203a0d20e3",
		"lat": 52.38801057573046,
		"lng": 4.638713550666082,
		"address": "Stationsplein 11 L",
		"postalCode": "2011 LR",
		"city": "Haarlem",
		"country": "Nederland",
		"categories": [
			"Train Station"
		]
	},
	{
		"date": "2017-05-08T17:58:59.000Z",
		"name": "Strand Zandvoort aan Zee",
		"id": "4c2f344b3896e21e3978e390",
		"lat": 52.375486156134436,
		"lng": 4.525765926071059,
		"address": "Boulevard de Favauge",
		"city": "Zandvoort",
		"country": "Nederland",
		"categories": [
			"Beach"
		]
	},
	{
		"date": "2017-05-09T06:04:16.000Z",
		"name": "Cotton Candy Residence 10",
		"id": "58cd4fe316f000799f4cf4f4",
		"lat": 52.392946926098126,
		"lng": 4.640537129468235,
		"city": "Haarlem",
		"country": "Nederland",
		"categories": [
			"Home (private)"
		]
	},
	{
		"date": "2017-05-09T06:18:23.000Z",
		"name": "Station Haarlem",
		"id": "4a8c3036f964a5203a0d20e3",
		"lat": 52.38801057573046,
		"lng": 4.638713550666082,
		"address": "Stationsplein 11 L",
		"postalCode": "2011 LR",
		"city": "Haarlem",
		"country": "Nederland",
		"categories": [
			"Train Station"
		]
	},
	{
		"date": "2017-05-09T06:43:04.000Z",
		"name": "Amsterdam Central Railway Station (Station Amsterdam Centraal)",
		"id": "4a688ba1f964a52088ca1fe3",
		"lat": 52.37878224866535,
		"lng": 4.900374412536621,
		"address": "Stationsplein 15",
		"postalCode": "1012 AB",
		"city": "Amsterdam",
		"country": "Nederland",
		"categories": [
			"Train Station"
		]
	},
	{
		"date": "2017-05-09T06:56:31.000Z",
		"name": "WeWork Metropool",
		"id": "56a14a68498e77945ee2ced1",
		"lat": 52.36480793621647,
		"lng": 4.906191453337669,
		"address": "Weesperstraat 61",
		"postalCode": "1018 VN",
		"city": "Amsterdam",
		"country": "Nederland",
		"categories": [
			"Coworking Space",
			"Business Service"
		]
	},
	{
		"date": "2017-05-09T18:37:02.000Z",
		"name": "Amsterdam Central Railway Station (Station Amsterdam Centraal)",
		"id": "4a688ba1f964a52088ca1fe3",
		"lat": 52.37878224866535,
		"lng": 4.900374412536621,
		"address": "Stationsplein 15",
		"postalCode": "1012 AB",
		"city": "Amsterdam",
		"country": "Nederland",
		"categories": [
			"Train Station"
		]
	},
	{
		"date": "2017-05-09T19:01:47.000Z",
		"name": "Station Haarlem",
		"id": "4a8c3036f964a5203a0d20e3",
		"lat": 52.38801057573046,
		"lng": 4.638713550666082,
		"address": "Stationsplein 11 L",
		"postalCode": "2011 LR",
		"city": "Haarlem",
		"country": "Nederland",
		"categories": [
			"Train Station"
		]
	},
	{
		"date": "2017-05-10T06:42:00.000Z",
		"name": "Amsterdam Central Railway Station (Station Amsterdam Centraal)",
		"id": "4a688ba1f964a52088ca1fe3",
		"lat": 52.37878224866535,
		"lng": 4.900374412536621,
		"address": "Stationsplein 15",
		"postalCode": "1012 AB",
		"city": "Amsterdam",
		"country": "Nederland",
		"categories": [
			"Train Station"
		]
	},
	{
		"date": "2017-05-10T06:50:48.000Z",
		"name": "WeWork Metropool",
		"id": "56a14a68498e77945ee2ced1",
		"lat": 52.36480793621647,
		"lng": 4.906191453337669,
		"address": "Weesperstraat 61",
		"postalCode": "1018 VN",
		"city": "Amsterdam",
		"country": "Nederland",
		"categories": [
			"Coworking Space",
			"Business Service"
		]
	},
	{
		"date": "2017-05-10T09:53:02.000Z",
		"name": "Docler Holding Amsterdam",
		"id": "58b684db52a051661da12674",
		"lat": 52.36505739184381,
		"lng": 4.906015988886142,
		"address": "Weespertraat 61",
		"postalCode": "1018 VN",
		"city": "Amsterdam",
		"country": "Nederland",
		"categories": [
			"Tech Startup"
		]
	},
	{
		"date": "2017-05-10T17:43:26.000Z",
		"name": "Cotton Candy Residence 10",
		"id": "58cd4fe316f000799f4cf4f4",
		"lat": 52.392946926098126,
		"lng": 4.640537129468235,
		"city": "Haarlem",
		"country": "Nederland",
		"categories": [
			"Home (private)"
		]
	},
	{
		"date": "2017-05-11T06:54:20.000Z",
		"name": "WeWork Metropool",
		"id": "56a14a68498e77945ee2ced1",
		"lat": 52.36480793621647,
		"lng": 4.906191453337669,
		"address": "Weesperstraat 61",
		"postalCode": "1018 VN",
		"city": "Amsterdam",
		"country": "Nederland",
		"categories": [
			"Coworking Space",
			"Business Service"
		]
	},
	{
		"date": "2017-05-11T09:54:58.000Z",
		"name": "Docler Holding Amsterdam",
		"id": "58b684db52a051661da12674",
		"lat": 52.36505739184381,
		"lng": 4.906015988886142,
		"address": "Weespertraat 61",
		"postalCode": "1018 VN",
		"city": "Amsterdam",
		"country": "Nederland",
		"categories": [
			"Tech Startup"
		]
	},
	{
		"date": "2017-05-11T10:05:02.000Z",
		"name": "Salsa Shop",
		"id": "53c3ca66498ea876ac0e1349",
		"lat": 52.36622550874323,
		"lng": 4.899968972243181,
		"address": "Amstelstraat 32A",
		"postalCode": "1017 DA",
		"city": "Amsterdam",
		"country": "Nederland",
		"categories": [
			"Mexican Restaurant"
		]
	},
	{
		"date": "2017-05-11T15:19:58.000Z",
		"name": "Primera",
		"id": "4b75441ef964a52082032ee3",
		"lat": 52.368295728326196,
		"lng": 4.9023278028934625,
		"address": "Waterlooplein 169",
		"postalCode": "1011 PG",
		"city": "Amsterdam",
		"country": "Nederland",
		"categories": [
			"Convenience Store"
		]
	},
	{
		"date": "2017-05-11T15:58:32.000Z",
		"name": "Cotton Candy Residence 10",
		"id": "58cd4fe316f000799f4cf4f4",
		"lat": 52.392946926098126,
		"lng": 4.640537129468235,
		"city": "Haarlem",
		"country": "Nederland",
		"categories": [
			"Home (private)"
		]
	},
	{
		"date": "2017-05-12T07:05:48.000Z",
		"name": "WeWork Metropool",
		"id": "56a14a68498e77945ee2ced1",
		"lat": 52.36480793621647,
		"lng": 4.906191453337669,
		"address": "Weesperstraat 61",
		"postalCode": "1018 VN",
		"city": "Amsterdam",
		"country": "Nederland",
		"categories": [
			"Coworking Space",
			"Business Service"
		]
	},
	{
		"date": "2017-05-12T07:50:33.000Z",
		"name": "Docler Holding Amsterdam",
		"id": "58b684db52a051661da12674",
		"lat": 52.36505739184381,
		"lng": 4.906015988886142,
		"address": "Weespertraat 61",
		"postalCode": "1018 VN",
		"city": "Amsterdam",
		"country": "Nederland",
		"categories": [
			"Tech Startup"
		]
	},
	{
		"date": "2017-05-12T09:59:24.000Z",
		"name": "Water & Brood",
		"id": "590c4ecfcad1b67f0cc84943",
		"lat": 52.36423552187337,
		"lng": 4.905926229851091,
		"address": "Nieuwe Kerkstraat 84",
		"postalCode": "1018 EC",
		"city": "Amsterdam",
		"country": "Nederland",
		"categories": [
			"Breakfast Spot"
		]
	},
	{
		"date": "2017-05-12T20:48:37.000Z",
		"name": "Cotton Candy Residence 10",
		"id": "58cd4fe316f000799f4cf4f4",
		"lat": 52.392946926098126,
		"lng": 4.640537129468235,
		"city": "Haarlem",
		"country": "Nederland",
		"categories": [
			"Home (private)"
		]
	},
	{
		"date": "2017-05-13T06:17:29.000Z",
		"name": "Ridderkerk",
		"id": "4d95f62a97d06ea8751cf70a",
		"lat": 51.87263590485566,
		"lng": 4.600610733032227,
		"country": "Nederland",
		"categories": [
			"City"
		]
	},
	{
		"date": "2017-05-13T06:58:52.000Z",
		"name": "ING Bank",
		"id": "4d7e331cf635236a97496316",
		"lat": 51.869989534994204,
		"lng": 4.601715666028457,
		"address": "Schoutstraat 4",
		"city": "Ridderkerk",
		"country": "Nederland",
		"categories": [
			"Bank"
		]
	},
	{
		"date": "2017-05-13T08:01:26.000Z",
		"name": "Rotterdam",
		"id": "4bcc14b30687ef3b74b9decc",
		"lat": 51.923493518029154,
		"lng": 4.46319580078125,
		"country": "Nederland",
		"categories": [
			"City"
		]
	},
	{
		"date": "2017-05-13T08:56:59.000Z",
		"name": "SUBWAY®",
		"id": "4b3b59b5f964a520c77225e3",
		"lat": 51.91722223079706,
		"lng": 4.473819367182398,
		"address": "Oude Binnenweg 150a",
		"postalCode": "3012 JH",
		"city": "Rotterdam",
		"country": "Nederland",
		"categories": [
			"Sandwich Place",
			"Fast Food Restaurant"
		]
	},
	{
		"date": "2017-05-13T09:18:22.000Z",
		"name": "Coffee Company",
		"id": "4b090e55f964a520111423e3",
		"lat": 51.91709934188016,
		"lng": 4.473608930801576,
		"address": "Eendrachtsplein 2",
		"postalCode": "3012 LA",
		"city": "Rotterdam",
		"country": "Nederland",
		"categories": [
			"Coffee Shop"
		]
	},
	{
		"date": "2017-05-13T13:25:31.000Z",
		"name": "Metrostation Wilhelminaplein",
		"id": "4b55ecdff964a520cdf627e3",
		"lat": 51.90784208902843,
		"lng": 4.492323252477415,
		"address": "Wilhelminaplein 50",
		"postalCode": "3072 DE",
		"city": "Rotterdam",
		"country": "Nederland",
		"categories": [
			"Metro Station"
		]
	},
	{
		"date": "2017-05-13T14:24:43.000Z",
		"name": "Fenix Food Factory",
		"id": "53775c99498e3b7044822086",
		"lat": 51.901936,
		"lng": 4.486989,
		"address": "Veerlaan 19D",
		"postalCode": "3072 AN",
		"city": "Rotterdam",
		"country": "Nederland",
		"categories": [
			"Food Court",
			"Farmers Market"
		]
	},
	{
		"date": "2017-05-13T14:34:36.000Z",
		"name": "Kaapse Brouwers",
		"id": "537e34e0498e688f37cf26a2",
		"lat": 51.901997,
		"lng": 4.486616,
		"address": "Veerlaan 19-D",
		"postalCode": "3072 AN",
		"city": "Rotterdam",
		"country": "Nederland",
		"categories": [
			"Brewery"
		]
	},
	{
		"date": "2017-05-13T15:20:08.000Z",
		"name": "Watertaxi Rotterdam",
		"id": "4d5e6a1929ef236ae0fb8b59",
		"lat": 51.90430123522203,
		"lng": 4.480447769165039,
		"address": "Nieuwe Maas",
		"postalCode": "3011",
		"city": "Rotterdam",
		"country": "Nederland",
		"categories": [
			"Boat or Ferry",
			"Taxi"
		]
	},
	{
		"date": "2017-05-13T15:40:46.000Z",
		"name": "Het Park",
		"id": "4bc0838d920eb71379ff182c",
		"lat": 51.9070817467333,
		"lng": 4.470487525774406,
		"address": "Baden Powellaan",
		"city": "Rotterdam",
		"country": "Nederland",
		"categories": [
			"Park"
		]
	},
	{
		"date": "2017-05-13T16:04:49.000Z",
		"name": "Lasergame Rotterdam",
		"id": "4cc06311985aa35db68c4c12",
		"lat": 51.905517691616076,
		"lng": 4.465528312462864,
		"address": "Parkhaven 9",
		"postalCode": "3016 GM",
		"city": "Rotterdam",
		"country": "Nederland",
		"categories": [
			"Laser Tag"
		]
	},
	{
		"date": "2017-05-13T16:56:34.000Z",
		"name": "Tramhalte Euromast/Erasmus MC",
		"id": "4de61c1e814db55dc239af44",
		"lat": 51.90837629130671,
		"lng": 4.467166695883794,
		"address": "Westzeedijk",
		"city": "Rotterdam",
		"country": "Nederland",
		"categories": [
			"Tram Station"
		]
	},
	{
		"date": "2017-05-13T19:40:23.000Z",
		"name": "Rotterdam Central Station (Station Rotterdam Centraal)",
		"id": "4ae19cc4f964a520678621e3",
		"lat": 51.92536602394011,
		"lng": 4.469021675569301,
		"address": "Stationssingel 10",
		"postalCode": "3013 HA",
		"city": "Rotterdam",
		"country": "Nederland",
		"categories": [
			"Train Station"
		]
	},
	{
		"date": "2017-05-13T19:55:04.000Z",
		"name": "Engels",
		"id": "4afa7b95f964a520f31722e3",
		"lat": 51.92310950028845,
		"lng": 4.469815775975343,
		"address": "Stationsplein 45",
		"postalCode": "3013 AK",
		"city": "Rotterdam",
		"country": "Nederland",
		"categories": [
			"Brasserie",
			"Bar"
		]
	},
	{
		"date": "2017-05-13T20:21:54.000Z",
		"name": "China Town Chinese Restaurant & Dim Sum",
		"id": "4b96337af964a52059c034e3",
		"lat": 51.920812055008184,
		"lng": 4.4711726903915405,
		"address": "Westersingel 1A",
		"postalCode": "3014 GM",
		"city": "Rotterdam",
		"country": "Nederland",
		"categories": [
			"Chinese Restaurant",
			"Dim Sum Restaurant"
		]
	},
	{
		"date": "2017-05-13T21:16:24.000Z",
		"name": "Belgisch Biercafé Boudewijn",
		"id": "4abbb8a5f964a520928420e3",
		"lat": 51.91645527136546,
		"lng": 4.470207305781213,
		"address": "Nieuwe Binnenweg 53a-53b",
		"postalCode": "3014 GD",
		"city": "Rotterdam",
		"country": "Nederland",
		"categories": [
			"Beer Bar"
		]
	},
	{
		"date": "2017-05-14T10:46:55.000Z",
		"name": "ALDI",
		"id": "4c4eff5092b6a593cfd1d970",
		"lat": 52.39109872545818,
		"lng": 4.648774537545825,
		"address": "Werfstraat 7",
		"postalCode": "2021 BP",
		"city": "Haarlem",
		"country": "Nederland",
		"categories": [
			"Supermarket",
			"Grocery Store"
		]
	},
	{
		"date": "2017-05-14T12:27:32.000Z",
		"name": "Cotton Candy Residence 10",
		"id": "58cd4fe316f000799f4cf4f4",
		"lat": 52.392946926098126,
		"lng": 4.640537129468235,
		"city": "Haarlem",
		"country": "Nederland",
		"categories": [
			"Home (private)"
		]
	},
	{
		"date": "2017-05-15T06:30:39.000Z",
		"name": "Amsterdam Central Railway Station (Station Amsterdam Centraal)",
		"id": "4a688ba1f964a52088ca1fe3",
		"lat": 52.37878224866535,
		"lng": 4.900374412536621,
		"address": "Stationsplein 15",
		"postalCode": "1012 AB",
		"city": "Amsterdam",
		"country": "Nederland",
		"categories": [
			"Train Station"
		]
	},
	{
		"date": "2017-05-15T06:41:46.000Z",
		"name": "WeWork Metropool",
		"id": "56a14a68498e77945ee2ced1",
		"lat": 52.36480793621647,
		"lng": 4.906191453337669,
		"address": "Weesperstraat 61",
		"postalCode": "1018 VN",
		"city": "Amsterdam",
		"country": "Nederland",
		"categories": [
			"Coworking Space",
			"Business Service"
		]
	},
	{
		"date": "2017-05-15T06:48:31.000Z",
		"name": "Docler Holding Amsterdam",
		"id": "58b684db52a051661da12674",
		"lat": 52.36505739184381,
		"lng": 4.906015988886142,
		"address": "Weespertraat 61",
		"postalCode": "1018 VN",
		"city": "Amsterdam",
		"country": "Nederland",
		"categories": [
			"Tech Startup"
		]
	},
	{
		"date": "2017-05-15T10:33:07.000Z",
		"name": "De Pizzabakkers",
		"id": "4d7a218c15958cfaf4251a25",
		"lat": 52.365446741247425,
		"lng": 4.910993391874042,
		"address": "Plantage Kerklaan 2",
		"postalCode": "1018 TA",
		"city": "Amsterdam",
		"country": "Nederland",
		"categories": [
			"Pizza Place"
		]
	},
	{
		"date": "2017-05-15T17:34:49.000Z",
		"name": "Station Haarlem",
		"id": "4a8c3036f964a5203a0d20e3",
		"lat": 52.38801057573046,
		"lng": 4.638713550666082,
		"address": "Stationsplein 11 L",
		"postalCode": "2011 LR",
		"city": "Haarlem",
		"country": "Nederland",
		"categories": [
			"Train Station"
		]
	},
	{
		"date": "2017-05-15T18:28:08.000Z",
		"name": "SportCity",
		"id": "4a8506dff964a52008fe1fe3",
		"lat": 52.382138114087795,
		"lng": 4.631827646673909,
		"address": "Raaks 7",
		"postalCode": "2011 VA",
		"city": "Haarlem",
		"country": "Nederland",
		"categories": [
			"Gym"
		]
	},
	{
		"date": "2017-05-15T20:33:10.000Z",
		"name": "Cotton Candy Residence 10",
		"id": "58cd4fe316f000799f4cf4f4",
		"lat": 52.392946926098126,
		"lng": 4.640537129468235,
		"city": "Haarlem",
		"country": "Nederland",
		"categories": [
			"Home (private)"
		]
	},
	{
		"date": "2017-05-16T06:50:41.000Z",
		"name": "WeWork Metropool",
		"id": "56a14a68498e77945ee2ced1",
		"lat": 52.36480793621647,
		"lng": 4.906191453337669,
		"address": "Weesperstraat 61",
		"postalCode": "1018 VN",
		"city": "Amsterdam",
		"country": "Nederland",
		"categories": [
			"Coworking Space",
			"Business Service"
		]
	},
	{
		"date": "2017-05-16T08:46:21.000Z",
		"name": "Docler Holding Amsterdam",
		"id": "58b684db52a051661da12674",
		"lat": 52.36505739184381,
		"lng": 4.906015988886142,
		"address": "Weespertraat 61",
		"postalCode": "1018 VN",
		"city": "Amsterdam",
		"country": "Nederland",
		"categories": [
			"Tech Startup"
		]
	},
	{
		"date": "2017-05-16T10:05:11.000Z",
		"name": "SPAR city Van Kempen",
		"id": "4b4c4089f964a52022b026e3",
		"lat": 52.36421961630775,
		"lng": 4.9056606671851295,
		"address": "Nieuwe Kerkstraat 65",
		"postalCode": "1018 DZ",
		"city": "Amsterdam",
		"country": "Nederland",
		"categories": [
			"Convenience Store",
			"Supermarket",
			"Grocery Store"
		]
	},
	{
		"date": "2017-05-16T17:51:58.000Z",
		"name": "SportCity",
		"id": "4a8506dff964a52008fe1fe3",
		"lat": 52.382138114087795,
		"lng": 4.631827646673909,
		"address": "Raaks 7",
		"postalCode": "2011 VA",
		"city": "Haarlem",
		"country": "Nederland",
		"categories": [
			"Gym"
		]
	},
	{
		"date": "2017-05-16T19:29:16.000Z",
		"name": "The Döner Company",
		"id": "4d790928a56e37040e5d7567",
		"lat": 52.38817372624091,
		"lng": 4.63927902305991,
		"address": "Station Haarlem",
		"postalCode": "2011 LR",
		"city": "Haarlem",
		"country": "Nederland",
		"categories": [
			"Doner Restaurant",
			"Falafel Restaurant",
			"Kebab Restaurant"
		]
	},
	{
		"date": "2017-05-17T06:15:02.000Z",
		"name": "Cotton Candy Residence 10",
		"id": "58cd4fe316f000799f4cf4f4",
		"lat": 52.392946926098126,
		"lng": 4.640537129468235,
		"city": "Haarlem",
		"country": "Nederland",
		"categories": [
			"Home (private)"
		]
	},
	{
		"date": "2017-05-17T06:36:36.000Z",
		"name": "Amsterdam Central Railway Station (Station Amsterdam Centraal)",
		"id": "4a688ba1f964a52088ca1fe3",
		"lat": 52.37878224866535,
		"lng": 4.900374412536621,
		"address": "Stationsplein 15",
		"postalCode": "1012 AB",
		"city": "Amsterdam",
		"country": "Nederland",
		"categories": [
			"Train Station"
		]
	},
	{
		"date": "2017-05-17T07:19:36.000Z",
		"name": "WeWork Metropool",
		"id": "56a14a68498e77945ee2ced1",
		"lat": 52.36480793621647,
		"lng": 4.906191453337669,
		"address": "Weesperstraat 61",
		"postalCode": "1018 VN",
		"city": "Amsterdam",
		"country": "Nederland",
		"categories": [
			"Coworking Space",
			"Business Service"
		]
	},
	{
		"date": "2017-05-17T13:40:17.000Z",
		"name": "Docler Holding Amsterdam",
		"id": "58b684db52a051661da12674",
		"lat": 52.36505739184381,
		"lng": 4.906015988886142,
		"address": "Weespertraat 61",
		"postalCode": "1018 VN",
		"city": "Amsterdam",
		"country": "Nederland",
		"categories": [
			"Tech Startup"
		]
	},
	{
		"date": "2017-05-17T19:27:52.000Z",
		"name": "Cotton Candy Residence 10",
		"id": "58cd4fe316f000799f4cf4f4",
		"lat": 52.392946926098126,
		"lng": 4.640537129468235,
		"city": "Haarlem",
		"country": "Nederland",
		"categories": [
			"Home (private)"
		]
	},
	{
		"date": "2017-05-18T06:38:34.000Z",
		"name": "WeWork Metropool",
		"id": "56a14a68498e77945ee2ced1",
		"lat": 52.36480793621647,
		"lng": 4.906191453337669,
		"address": "Weesperstraat 61",
		"postalCode": "1018 VN",
		"city": "Amsterdam",
		"country": "Nederland",
		"categories": [
			"Coworking Space",
			"Business Service"
		]
	},
	{
		"date": "2017-05-18T09:15:02.000Z",
		"name": "Docler Holding Amsterdam",
		"id": "58b684db52a051661da12674",
		"lat": 52.36505739184381,
		"lng": 4.906015988886142,
		"address": "Weespertraat 61",
		"postalCode": "1018 VN",
		"city": "Amsterdam",
		"country": "Nederland",
		"categories": [
			"Tech Startup"
		]
	},
	{
		"date": "2017-05-18T18:35:40.000Z",
		"name": "Station Haarlem",
		"id": "4a8c3036f964a5203a0d20e3",
		"lat": 52.38801057573046,
		"lng": 4.638713550666082,
		"address": "Stationsplein 11 L",
		"postalCode": "2011 LR",
		"city": "Haarlem",
		"country": "Nederland",
		"categories": [
			"Train Station"
		]
	},
	{
		"date": "2017-05-18T19:30:22.000Z",
		"name": "Cotton Candy Residence 10",
		"id": "58cd4fe316f000799f4cf4f4",
		"lat": 52.392946926098126,
		"lng": 4.640537129468235,
		"city": "Haarlem",
		"country": "Nederland",
		"categories": [
			"Home (private)"
		]
	},
	{
		"date": "2017-05-19T07:54:21.000Z",
		"name": "WeWork Metropool",
		"id": "56a14a68498e77945ee2ced1",
		"lat": 52.36480793621647,
		"lng": 4.906191453337669,
		"address": "Weesperstraat 61",
		"postalCode": "1018 VN",
		"city": "Amsterdam",
		"country": "Nederland",
		"categories": [
			"Coworking Space",
			"Business Service"
		]
	},
	{
		"date": "2017-05-19T10:21:19.000Z",
		"name": "Vapiano",
		"id": "4fb28f2be4b0e2be9a5f1f6f",
		"lat": 52.36612800819601,
		"lng": 4.897454374802111,
		"address": "Amstelstraat 2-4",
		"postalCode": "1017 DA",
		"city": "Amsterdam",
		"country": "Nederland",
		"categories": [
			"Italian Restaurant",
			"Pizza Place"
		]
	},
	{
		"date": "2017-05-19T15:20:10.000Z",
		"name": "Grote Markt",
		"id": "4b33f1aef964a520842225e3",
		"lat": 52.381433191163424,
		"lng": 4.6357020650218494,
		"address": "Grote Markt",
		"postalCode": "2011",
		"city": "Haarlem",
		"country": "Nederland",
		"categories": [
			"Plaza",
			"Event Space"
		]
	},
	{
		"date": "2017-05-19T18:29:40.000Z",
		"name": "SportCity",
		"id": "4a8506dff964a52008fe1fe3",
		"lat": 52.382138114087795,
		"lng": 4.631827646673909,
		"address": "Raaks 7",
		"postalCode": "2011 VA",
		"city": "Haarlem",
		"country": "Nederland",
		"categories": [
			"Gym"
		]
	},
	{
		"date": "2017-05-19T21:42:46.000Z",
		"name": "Cotton Candy Residence 10",
		"id": "58cd4fe316f000799f4cf4f4",
		"lat": 52.392946926098126,
		"lng": 4.640537129468235,
		"city": "Haarlem",
		"country": "Nederland",
		"categories": [
			"Home (private)"
		]
	},
	{
		"date": "2017-05-20T02:37:42.000Z",
		"name": "Station Haarlem",
		"id": "4a8c3036f964a5203a0d20e3",
		"lat": 52.38801057573046,
		"lng": 4.638713550666082,
		"address": "Stationsplein 11 L",
		"postalCode": "2011 LR",
		"city": "Haarlem",
		"country": "Nederland",
		"categories": [
			"Train Station"
		]
	},
	{
		"date": "2017-05-20T03:29:57.000Z",
		"name": "Amsterdam Airport Schiphol (AMS)",
		"id": "4a84e798f964a520defd1fe3",
		"lat": 52.3085704596075,
		"lng": 4.762122631072998,
		"address": "Aankomstpassage",
		"postalCode": "1118 CP",
		"city": "Schiphol",
		"country": "Nederland",
		"categories": [
			"Airport"
		]
	},
	{
		"date": "2017-05-20T03:30:19.000Z",
		"name": "Departures 1",
		"id": "4ba43205f964a520fa8a38e3",
		"lat": 52.308713925302165,
		"lng": 4.763812952542547,
		"address": "AMS Airport",
		"city": "Schiphol",
		"country": "Nederland",
		"categories": [
			"Airport Terminal"
		]
	},
	{
		"date": "2017-05-20T03:50:24.000Z",
		"name": "KLM Check-in",
		"id": "4b890417f964a520451832e3",
		"lat": 52.309480359029585,
		"lng": 4.76386023950177,
		"address": "Departure 2",
		"postalCode": "1118",
		"city": "Schiphol",
		"country": "Nederland",
		"categories": [
			"General Travel"
		]
	},
	{
		"date": "2017-05-20T06:53:17.000Z",
		"name": "Vienna International Airport (VIE) (Flughafen Wien-Schwechat)",
		"id": "4b05889af964a520e5cf22e3",
		"lat": 48.11934401963146,
		"lng": 16.56264517485397,
		"address": "Abflugstraße",
		"postalCode": "1300",
		"city": "Schwechat",
		"country": "Österreich",
		"categories": [
			"Airport"
		]
	},
	{
		"date": "2017-05-20T06:54:18.000Z",
		"name": "Gates C",
		"id": "4bb38a0e2397b713224238b3",
		"lat": 48.11997387456366,
		"lng": 16.55711531639099,
		"address": "Terminal 1",
		"postalCode": "1300",
		"city": "Schwechat",
		"country": "Österreich",
		"categories": [
			"Airport Terminal"
		]
	},
	{
		"date": "2017-05-20T09:59:53.000Z",
		"name": "Villa Polgar 2",
		"id": "5724b35b498ecd6a0245b8e2",
		"lat": 47.711022441704124,
		"lng": 16.62023729838172,
		"country": "Magyarország",
		"categories": [
			"Home (private)"
		]
	},
	{
		"date": "2017-05-21T17:50:43.000Z",
		"name": "Fehér Rózsa Fogadó",
		"id": "4cd13f73fd42199ce323c56e",
		"lat": 47.681991253284764,
		"lng": 16.596448032866885,
		"address": "Pócsi utca 21.",
		"postalCode": "9400",
		"city": "Sopron",
		"country": "Magyarország",
		"categories": [
			"Bed & Breakfast",
			"Restaurant"
		]
	},
	{
		"date": "2017-05-21T18:10:11.000Z",
		"name": "Villa Polgar 2",
		"id": "5724b35b498ecd6a0245b8e2",
		"lat": 47.711022441704124,
		"lng": 16.62023729838172,
		"country": "Magyarország",
		"categories": [
			"Home (private)"
		]
	},
	{
		"date": "2017-05-22T10:05:07.000Z",
		"name": "Gráben Étterem",
		"id": "4e418d5618500d4c14648fe0",
		"lat": 47.687134848419035,
		"lng": 16.590551253146632,
		"address": "Várkerület 8.",
		"postalCode": "9400",
		"city": "Sopron",
		"country": "Magyarország",
		"categories": [
			"Restaurant"
		]
	},
	{
		"date": "2017-05-22T10:14:25.000Z",
		"name": "El Gusto",
		"id": "5024ea62e4b0a2be7f67fa78",
		"lat": 47.683351529106794,
		"lng": 16.591903851914363,
		"address": "Várkerület 79.",
		"postalCode": "9400",
		"city": "Sopron",
		"country": "Magyarország",
		"categories": [
			"Bistro",
			"Café",
			"Sandwich Place"
		]
	},
	{
		"date": "2017-05-22T11:39:55.000Z",
		"name": "Polgármesteri Hivatal",
		"id": "4e5cb337aeb7a6ca53e36a80",
		"lat": 47.6864065581627,
		"lng": 16.59107373575502,
		"address": "Fő tér 1",
		"postalCode": "9400",
		"city": "Sopron",
		"country": "Magyarország",
		"categories": [
			"City Hall",
			"Building"
		]
	},
	{
		"date": "2017-05-22T12:18:04.000Z",
		"name": "Kultúrpresszó",
		"id": "53b93f0c498e13dbda7e95ba",
		"lat": 47.6854887880061,
		"lng": 16.59280057915637,
		"address": "Várkerület 96",
		"postalCode": "9400",
		"city": "Sopron",
		"country": "Magyarország",
		"categories": [
			"Coffee Shop",
			"Design Studio",
			"Arts & Crafts Store"
		]
	},
	{
		"date": "2017-05-22T14:41:58.000Z",
		"name": "Sopron Plaza",
		"id": "4bb8bab47421a5933707c240",
		"lat": 47.69766061000896,
		"lng": 16.579205989837646,
		"address": "Lackner Kristóf u. 35.",
		"postalCode": "9400",
		"city": "Sopron",
		"country": "Magyarország",
		"categories": [
			"Shopping Mall"
		]
	},
	{
		"date": "2017-05-22T14:43:00.000Z",
		"name": "H&M",
		"id": "50d56068e4b0a7a64bc37e8d",
		"lat": 47.69756762319275,
		"lng": 16.579341258797704,
		"address": "Lackner Kristóf u. 35",
		"postalCode": "9400",
		"city": "Sopron",
		"country": "Magyarország",
		"categories": [
			"Clothing Store"
		]
	},
	{
		"date": "2017-05-22T17:39:15.000Z",
		"name": "Villa Polgar 2",
		"id": "5724b35b498ecd6a0245b8e2",
		"lat": 47.711022441704124,
		"lng": 16.62023729838172,
		"country": "Magyarország",
		"categories": [
			"Home (private)"
		]
	},
	{
		"date": "2017-05-22T17:39:22.000Z",
		"name": "Tómalom",
		"id": "4e29ab8352b1c37d35cea4b7",
		"lat": 47.71554211831894,
		"lng": 16.621489894444487,
		"city": "Sopron",
		"country": "Magyarország",
		"categories": [
			"Neighborhood"
		]
	},
	{
		"date": "2017-05-23T08:32:58.000Z",
		"name": "Kultúrpresszó",
		"id": "53b93f0c498e13dbda7e95ba",
		"lat": 47.6854887880061,
		"lng": 16.59280057915637,
		"address": "Várkerület 96",
		"postalCode": "9400",
		"city": "Sopron",
		"country": "Magyarország",
		"categories": [
			"Coffee Shop",
			"Design Studio",
			"Arts & Crafts Store"
		]
	},
	{
		"date": "2017-05-23T09:53:39.000Z",
		"name": "KOCKA Bistro",
		"id": "57531b37498e858c1e4aa062",
		"lat": 47.680955920559626,
		"lng": 16.585747859532066,
		"address": "Deák tér",
		"postalCode": "9400",
		"city": "Sopron",
		"country": "Magyarország",
		"categories": [
			"Bistro",
			"Fast Food Restaurant",
			"Burger Joint"
		]
	},
	{
		"date": "2017-05-23T14:38:40.000Z",
		"name": "Kultúrpresszó",
		"id": "53b93f0c498e13dbda7e95ba",
		"lat": 47.6854887880061,
		"lng": 16.59280057915637,
		"address": "Várkerület 96",
		"postalCode": "9400",
		"city": "Sopron",
		"country": "Magyarország",
		"categories": [
			"Coffee Shop",
			"Design Studio",
			"Arts & Crafts Store"
		]
	},
	{
		"date": "2017-05-23T20:34:58.000Z",
		"name": "Villa Polgar 2",
		"id": "5724b35b498ecd6a0245b8e2",
		"lat": 47.711022441704124,
		"lng": 16.62023729838172,
		"country": "Magyarország",
		"categories": [
			"Home (private)"
		]
	},
	{
		"date": "2017-05-24T03:56:24.000Z",
		"name": "Sopron vasútállomás",
		"id": "4bd6fe6529eb9c749dee95e1",
		"lat": 47.67771249028291,
		"lng": 16.58738136291504,
		"address": "Állomás u. 2.",
		"postalCode": "9400",
		"city": "Sopron",
		"country": "Magyarország",
		"categories": [
			"Train Station"
		]
	},
	{
		"date": "2017-05-24T06:50:25.000Z",
		"name": "Déli pályaudvar (M2)",
		"id": "4d9348e0b327370498619525",
		"lat": 47.500583169064456,
		"lng": 19.02460813522339,
		"address": "Krisztina krt. 37/A",
		"postalCode": "1013",
		"city": "Budapest",
		"country": "Magyarország",
		"categories": [
			"Metro Station"
		]
	},
	{
		"date": "2017-05-24T07:03:55.000Z",
		"name": "Batthyány tér",
		"id": "4bd143cab221c9b6ac5bd5d0",
		"lat": 47.50636330316184,
		"lng": 19.038716554641724,
		"address": "Batthyány tér",
		"postalCode": "1011",
		"city": "Budapest",
		"country": "Magyarország",
		"categories": [
			"Plaza"
		]
	},
	{
		"date": "2017-05-24T07:25:56.000Z",
		"name": "Külügyminisztérium - Konzuli szolgálat",
		"id": "5005558ae4b066521aeccddf",
		"lat": 47.50896965716827,
		"lng": 19.036841824032482,
		"address": "Nagy Imre tér 4.",
		"postalCode": "1027",
		"city": "Budapest",
		"country": "Magyarország",
		"categories": [
			"Government Building"
		]
	},
	{
		"date": "2017-05-24T08:32:29.000Z",
		"name": "Fodrászkellék#21",
		"id": "4ec3bb96b63468c86d416329",
		"lat": 47.50433418742977,
		"lng": 19.05907115324437,
		"address": "Nagymező utca 21.",
		"postalCode": "1065",
		"city": "Budapest",
		"country": "Magyarország",
		"categories": [
			"Salon / Barbershop"
		]
	},
	{
		"date": "2017-05-24T09:50:55.000Z",
		"name": "Angyalföld",
		"id": "4e7238b51520cc03b4d62c8f",
		"lat": 47.52952456282538,
		"lng": 19.08202886581421,
		"city": "Budapest",
		"country": "Magyarország",
		"categories": [
			"Neighborhood"
		]
	},
	{
		"date": "2017-05-24T11:53:08.000Z",
		"name": "Kicsi Csángó",
		"id": "56bfb1adcd10c4e390e03e08",
		"lat": 47.49715202759908,
		"lng": 19.034109506805002,
		"address": "Alagút utca 1.",
		"city": "Budapest",
		"country": "Magyarország",
		"categories": [
			"Hungarian Restaurant"
		]
	},
	{
		"date": "2017-05-24T14:39:34.000Z",
		"name": "Ikontent",
		"id": "59259a824c954c35f93e78d3",
		"lat": 47.49576,
		"lng": 19.03408,
		"address": "Krisztina körút 83-85",
		"postalCode": "1016",
		"city": "Budapest",
		"country": "Magyarország",
		"categories": [
			"Tech Startup"
		]
	},
	{
		"date": "2017-05-24T17:40:23.000Z",
		"name": "Local Korner",
		"id": "53ef48e8498eeb34247c489b",
		"lat": 47.50924602401733,
		"lng": 19.061852021453983,
		"address": "Szondi u. 19",
		"postalCode": "1067",
		"city": "Budapest",
		"country": "Magyarország",
		"categories": [
			"Pizza Place"
		]
	},
	{
		"date": "2017-05-24T18:23:44.000Z",
		"name": "Figaró Kávézó Terasz",
		"id": "4be455e2cf200f4744cf113c",
		"lat": 47.512806873574014,
		"lng": 19.05453961140434,
		"address": "Borbély u. 9.",
		"postalCode": "1132",
		"city": "Budapest",
		"country": "Magyarország",
		"categories": [
			"Beer Garden"
		]
	},
	{
		"date": "2017-05-24T19:03:41.000Z",
		"name": "Burger King",
		"id": "4b6af9e9f964a52012ea2be3",
		"lat": 47.51019803957169,
		"lng": 19.055908812640755,
		"address": "Nyugati tér 1-2.",
		"postalCode": "1062",
		"city": "Budapest",
		"country": "Magyarország",
		"categories": [
			"Fast Food Restaurant"
		]
	},
	{
		"date": "2017-05-25T08:19:49.000Z",
		"name": "Deák Ferenc tér",
		"id": "4d52c0d74015b1f7b1017ecf",
		"lat": 47.49751050552186,
		"lng": 19.054739042164343,
		"address": "Deák Ferenc tér",
		"postalCode": "1052",
		"city": "Budapest",
		"country": "Magyarország",
		"categories": [
			"Plaza"
		]
	},
	{
		"date": "2017-05-25T10:20:59.000Z",
		"name": "Ikontent",
		"id": "59259a824c954c35f93e78d3",
		"lat": 47.49576,
		"lng": 19.03408,
		"address": "Krisztina körút 83-85",
		"postalCode": "1016",
		"city": "Budapest",
		"country": "Magyarország",
		"categories": [
			"Tech Startup"
		]
	},
	{
		"date": "2017-05-25T10:28:31.000Z",
		"name": "Kicsi Csángó",
		"id": "56bfb1adcd10c4e390e03e08",
		"lat": 47.49715202759908,
		"lng": 19.034109506805002,
		"address": "Alagút utca 1.",
		"city": "Budapest",
		"country": "Magyarország",
		"categories": [
			"Hungarian Restaurant"
		]
	},
	{
		"date": "2017-05-25T11:19:09.000Z",
		"name": "Chain Bridge (Széchenyi lánchíd)",
		"id": "4e627a8a1f6ef7d07abac68d",
		"lat": 47.49899578574834,
		"lng": 19.04381275177002,
		"address": "Lánchíd",
		"postalCode": "1055",
		"city": "Budapest",
		"country": "Magyarország",
		"categories": [
			"Bridge"
		]
	},
	{
		"date": "2017-05-25T11:30:35.000Z",
		"name": "Starbucks",
		"id": "4e7e4e07775bef6fec4e1162",
		"lat": 47.50004679833543,
		"lng": 19.053441882133484,
		"address": "Hercegprímás u. 7.",
		"postalCode": "1051",
		"city": "Budapest",
		"country": "Magyarország",
		"categories": [
			"Coffee Shop"
		]
	},
	{
		"date": "2017-05-25T12:32:14.000Z",
		"name": "AnalogueZone Showroom",
		"id": "52ed7c12498e3e1e276b4dab",
		"lat": 47.50215782039075,
		"lng": 19.055711030960083,
		"address": "Bajcsy Zsilinszky köz 3.",
		"postalCode": "1065",
		"city": "Budapest",
		"country": "Magyarország",
		"categories": [
			"Music Store"
		]
	},
	{
		"date": "2017-05-25T13:15:07.000Z",
		"name": "Batthyány tér",
		"id": "4bd143cab221c9b6ac5bd5d0",
		"lat": 47.50636330316184,
		"lng": 19.038716554641724,
		"address": "Batthyány tér",
		"postalCode": "1011",
		"city": "Budapest",
		"country": "Magyarország",
		"categories": [
			"Plaza"
		]
	},
	{
		"date": "2017-05-25T13:53:32.000Z",
		"name": "WestEnd City Center",
		"id": "4bcc1b343740b71309846365",
		"lat": 47.51328376254626,
		"lng": 19.05914504127989,
		"address": "Váci út 1-3.",
		"postalCode": "1062",
		"city": "Budapest",
		"country": "Magyarország",
		"categories": [
			"Shopping Mall"
		]
	},
	{
		"date": "2017-05-25T14:22:51.000Z",
		"name": "Deák Ferenc tér",
		"id": "4d52c0d74015b1f7b1017ecf",
		"lat": 47.49751050552186,
		"lng": 19.054739042164343,
		"address": "Deák Ferenc tér",
		"postalCode": "1052",
		"city": "Budapest",
		"country": "Magyarország",
		"categories": [
			"Plaza"
		]
	},
	{
		"date": "2017-05-25T14:25:19.000Z",
		"name": "Fröccsterasz",
		"id": "50019ae0e4b0c432cea6ff98",
		"lat": 47.498444776150166,
		"lng": 19.05360730445358,
		"address": "Erzsébet tér 13.",
		"postalCode": "1051",
		"city": "Budapest",
		"country": "Magyarország",
		"categories": [
			"Wine Bar",
			"Lounge",
			"Bar"
		]
	},
	{
		"date": "2017-05-25T16:50:01.000Z",
		"name": "Rudas Gyógyfürdő és Uszoda",
		"id": "4b2a3b92f964a52058a624e3",
		"lat": 47.48918773695423,
		"lng": 19.04776096343994,
		"address": "Döbrentei tér 9.",
		"postalCode": "1013",
		"city": "Budapest",
		"country": "Magyarország",
		"categories": [
			"Spa",
			"Pool",
			"Hot Spring"
		]
	},
	{
		"date": "2017-05-26T12:35:55.000Z",
		"name": "McDonald's and McCafé",
		"id": "4b9e33b5f964a52077d136e3",
		"lat": 47.45297463010812,
		"lng": 18.958168710184033,
		"address": "Garibaldi út 2.",
		"postalCode": "2040",
		"city": "Budaörs",
		"country": "Magyarország",
		"categories": [
			"Fast Food Restaurant"
		]
	},
	{
		"date": "2017-05-26T15:35:13.000Z",
		"name": "Villa Polgar 2",
		"id": "5724b35b498ecd6a0245b8e2",
		"lat": 47.711022441704124,
		"lng": 16.62023729838172,
		"country": "Magyarország",
		"categories": [
			"Home (private)"
		]
	},
	{
		"date": "2017-05-26T17:03:39.000Z",
		"name": "Tómalom",
		"id": "4e29ab8352b1c37d35cea4b7",
		"lat": 47.71554211831894,
		"lng": 16.621489894444487,
		"city": "Sopron",
		"country": "Magyarország",
		"categories": [
			"Neighborhood"
		]
	},
	{
		"date": "2017-05-26T18:47:54.000Z",
		"name": "TasteVino",
		"id": "50f82e7ae4b0b34731fa2be6",
		"lat": 47.68754240863308,
		"lng": 16.590555160474405,
		"address": "Várkerület 5.",
		"postalCode": "9400",
		"city": "Sopron",
		"country": "Magyarország",
		"categories": [
			"Wine Bar"
		]
	},
	{
		"date": "2017-05-26T19:32:32.000Z",
		"name": "KOCKA Bistro",
		"id": "57531b37498e858c1e4aa062",
		"lat": 47.680955920559626,
		"lng": 16.585747859532066,
		"address": "Deák tér",
		"postalCode": "9400",
		"city": "Sopron",
		"country": "Magyarország",
		"categories": [
			"Bistro",
			"Fast Food Restaurant",
			"Burger Joint"
		]
	},
	{
		"date": "2017-05-26T22:21:25.000Z",
		"name": "Villa Polgar 2",
		"id": "5724b35b498ecd6a0245b8e2",
		"lat": 47.711022441704124,
		"lng": 16.62023729838172,
		"country": "Magyarország",
		"categories": [
			"Home (private)"
		]
	},
	{
		"date": "2017-05-27T10:50:45.000Z",
		"name": "Vienna International Airport (VIE) (Flughafen Wien-Schwechat)",
		"id": "4b05889af964a520e5cf22e3",
		"lat": 48.11934401963146,
		"lng": 16.56264517485397,
		"address": "Abflugstraße",
		"postalCode": "1300",
		"city": "Schwechat",
		"country": "Österreich",
		"categories": [
			"Airport"
		]
	},
	{
		"date": "2017-05-27T11:06:12.000Z",
		"name": "Gates C",
		"id": "4bb38a0e2397b713224238b3",
		"lat": 48.11997387456366,
		"lng": 16.55711531639099,
		"address": "Terminal 1",
		"postalCode": "1300",
		"city": "Schwechat",
		"country": "Österreich",
		"categories": [
			"Airport Terminal"
		]
	},
	{
		"date": "2017-05-27T11:14:47.000Z",
		"name": "Daily Roast Vienna",
		"id": "4bbc8d302d9ea59366b5a0ce",
		"lat": 48.1204556911601,
		"lng": 16.55858569925195,
		"address": "Terminal 1",
		"postalCode": "1300",
		"city": "Schwechat",
		"country": "Österreich",
		"categories": [
			"Café"
		]
	},
	{
		"date": "2017-05-27T14:08:37.000Z",
		"name": "Amsterdam Airport Schiphol (AMS)",
		"id": "4a84e798f964a520defd1fe3",
		"lat": 52.3085704596075,
		"lng": 4.762122631072998,
		"address": "Aankomstpassage",
		"postalCode": "1118 CP",
		"city": "Schiphol",
		"country": "Nederland",
		"categories": [
			"Airport"
		]
	},
	{
		"date": "2017-05-27T14:16:03.000Z",
		"name": "Concourse C (Pier C)",
		"id": "4f285964e4b0c67a18fb8f80",
		"lat": 52.30612139312824,
		"lng": 4.765459151165231,
		"address": "AMS Airport",
		"city": "Hoofddorp",
		"country": "Nederland",
		"categories": [
			"Airport Terminal"
		]
	},
	{
		"date": "2017-05-27T15:23:44.000Z",
		"name": "Amsterdam Sloterdijk Station (Station Amsterdam Sloterdijk)",
		"id": "4a56245ff964a52085b41fe3",
		"lat": 52.38899431620469,
		"lng": 4.837957990409058,
		"address": "Orlyplein 105",
		"postalCode": "1043 DT",
		"city": "Amsterdam",
		"country": "Nederland",
		"categories": [
			"Train Station"
		]
	},
	{
		"date": "2017-05-27T15:33:52.000Z",
		"name": "Cotton Candy Residence 10",
		"id": "58cd4fe316f000799f4cf4f4",
		"lat": 52.392946926098126,
		"lng": 4.640537129468235,
		"city": "Haarlem",
		"country": "Nederland",
		"categories": [
			"Home (private)"
		]
	},
	{
		"date": "2017-05-28T12:15:15.000Z",
		"name": "Parnassia aan Zee",
		"id": "4c00db479cf52d7f106914e7",
		"lat": 52.41837270860607,
		"lng": 4.554015268505989,
		"address": "Parnassiaweg 1",
		"postalCode": "2051 EA",
		"city": "Overveen",
		"country": "Nederland",
		"categories": [
			"Beach",
			"Café"
		]
	},
	{
		"date": "2017-05-28T17:30:18.000Z",
		"name": "Cotton Candy Residence 10",
		"id": "58cd4fe316f000799f4cf4f4",
		"lat": 52.392946926098126,
		"lng": 4.640537129468235,
		"city": "Haarlem",
		"country": "Nederland",
		"categories": [
			"Home (private)"
		]
	},
	{
		"date": "2017-05-29T06:05:14.000Z",
		"name": "Station Haarlem",
		"id": "4a8c3036f964a5203a0d20e3",
		"lat": 52.38801057573046,
		"lng": 4.638713550666082,
		"address": "Stationsplein 11 L",
		"postalCode": "2011 LR",
		"city": "Haarlem",
		"country": "Nederland",
		"categories": [
			"Train Station"
		]
	},
	{
		"date": "2017-05-29T06:48:46.000Z",
		"name": "WeWork Metropool",
		"id": "56a14a68498e77945ee2ced1",
		"lat": 52.36480793621647,
		"lng": 4.906191453337669,
		"address": "Weesperstraat 61",
		"postalCode": "1018 VN",
		"city": "Amsterdam",
		"country": "Nederland",
		"categories": [
			"Coworking Space",
			"Business Service"
		]
	},
	{
		"date": "2017-05-29T10:00:20.000Z",
		"name": "SPAR city Van Kempen",
		"id": "4b4c4089f964a52022b026e3",
		"lat": 52.36421961630775,
		"lng": 4.9056606671851295,
		"address": "Nieuwe Kerkstraat 65",
		"postalCode": "1018 DZ",
		"city": "Amsterdam",
		"country": "Nederland",
		"categories": [
			"Convenience Store",
			"Supermarket",
			"Grocery Store"
		]
	},
	{
		"date": "2017-05-29T11:56:44.000Z",
		"name": "Docler Holding Amsterdam",
		"id": "58b684db52a051661da12674",
		"lat": 52.36505739184381,
		"lng": 4.906015988886142,
		"address": "Weespertraat 61",
		"postalCode": "1018 VN",
		"city": "Amsterdam",
		"country": "Nederland",
		"categories": [
			"Tech Startup"
		]
	},
	{
		"date": "2017-05-30T07:47:41.000Z",
		"name": "Publiekshal Gemeente Haarlem",
		"id": "4e8ad5779adf8878b56baf5f",
		"lat": 52.38199587158337,
		"lng": 4.629498653312739,
		"city": "Haarlem",
		"country": "Nederland",
		"categories": [
			"City Hall"
		]
	},
	{
		"date": "2017-05-30T08:01:06.000Z",
		"name": "Station Haarlem",
		"id": "4a8c3036f964a5203a0d20e3",
		"lat": 52.38801057573046,
		"lng": 4.638713550666082,
		"address": "Stationsplein 11 L",
		"postalCode": "2011 LR",
		"city": "Haarlem",
		"country": "Nederland",
		"categories": [
			"Train Station"
		]
	},
	{
		"date": "2017-05-30T08:21:23.000Z",
		"name": "Amsterdam Central Railway Station (Station Amsterdam Centraal)",
		"id": "4a688ba1f964a52088ca1fe3",
		"lat": 52.37878224866535,
		"lng": 4.900374412536621,
		"address": "Stationsplein 15",
		"postalCode": "1012 AB",
		"city": "Amsterdam",
		"country": "Nederland",
		"categories": [
			"Train Station"
		]
	},
	{
		"date": "2017-05-30T08:39:32.000Z",
		"name": "WeWork Metropool",
		"id": "56a14a68498e77945ee2ced1",
		"lat": 52.36480793621647,
		"lng": 4.906191453337669,
		"address": "Weesperstraat 61",
		"postalCode": "1018 VN",
		"city": "Amsterdam",
		"country": "Nederland",
		"categories": [
			"Coworking Space",
			"Business Service"
		]
	},
	{
		"date": "2017-05-30T09:55:21.000Z",
		"name": "SPAR city Van Kempen",
		"id": "4b4c4089f964a52022b026e3",
		"lat": 52.36421961630775,
		"lng": 4.9056606671851295,
		"address": "Nieuwe Kerkstraat 65",
		"postalCode": "1018 DZ",
		"city": "Amsterdam",
		"country": "Nederland",
		"categories": [
			"Convenience Store",
			"Supermarket",
			"Grocery Store"
		]
	},
	{
		"date": "2017-05-30T17:07:40.000Z",
		"name": "Docler Holding Amsterdam",
		"id": "58b684db52a051661da12674",
		"lat": 52.36505739184381,
		"lng": 4.906015988886142,
		"address": "Weespertraat 61",
		"postalCode": "1018 VN",
		"city": "Amsterdam",
		"country": "Nederland",
		"categories": [
			"Tech Startup"
		]
	},
	{
		"date": "2017-05-30T17:23:47.000Z",
		"name": "Amsterdam Central Railway Station (Station Amsterdam Centraal)",
		"id": "4a688ba1f964a52088ca1fe3",
		"lat": 52.37878224866535,
		"lng": 4.900374412536621,
		"address": "Stationsplein 15",
		"postalCode": "1012 AB",
		"city": "Amsterdam",
		"country": "Nederland",
		"categories": [
			"Train Station"
		]
	},
	{
		"date": "2017-05-31T05:11:51.000Z",
		"name": "Amsterdam Central Railway Station (Station Amsterdam Centraal)",
		"id": "4a688ba1f964a52088ca1fe3",
		"lat": 52.37878224866535,
		"lng": 4.900374412536621,
		"address": "Stationsplein 15",
		"postalCode": "1012 AB",
		"city": "Amsterdam",
		"country": "Nederland",
		"categories": [
			"Train Station"
		]
	},
	{
		"date": "2017-05-31T05:27:36.000Z",
		"name": "SportCity",
		"id": "4a835233f964a520c6fa1fe3",
		"lat": 52.368877125084026,
		"lng": 4.900798968515201,
		"address": "Jodenbreestraat 6",
		"postalCode": "1011NK",
		"city": "Amsterdam",
		"country": "Nederland",
		"categories": [
			"Gym",
			"Gym / Fitness Center"
		]
	},
	{
		"date": "2017-05-31T06:30:47.000Z",
		"name": "WeWork Metropool",
		"id": "56a14a68498e77945ee2ced1",
		"lat": 52.36480793621647,
		"lng": 4.906191453337669,
		"address": "Weesperstraat 61",
		"postalCode": "1018 VN",
		"city": "Amsterdam",
		"country": "Nederland",
		"categories": [
			"Coworking Space",
			"Business Service"
		]
	},
	{
		"date": "2017-05-31T07:48:06.000Z",
		"name": "Docler Holding Amsterdam",
		"id": "58b684db52a051661da12674",
		"lat": 52.36505739184381,
		"lng": 4.906015988886142,
		"address": "Weespertraat 61",
		"postalCode": "1018 VN",
		"city": "Amsterdam",
		"country": "Nederland",
		"categories": [
			"Tech Startup"
		]
	},
	{
		"date": "2017-05-31T09:55:01.000Z",
		"name": "SPAR city Van Kempen",
		"id": "4b4c4089f964a52022b026e3",
		"lat": 52.36421961630775,
		"lng": 4.9056606671851295,
		"address": "Nieuwe Kerkstraat 65",
		"postalCode": "1018 DZ",
		"city": "Amsterdam",
		"country": "Nederland",
		"categories": [
			"Convenience Store",
			"Supermarket",
			"Grocery Store"
		]
	},
	{
		"date": "2017-05-31T16:00:34.000Z",
		"name": "Pathé City",
		"id": "4cc841113c40a35da7a3732e",
		"lat": 52.363538463296784,
		"lng": 4.883955055605484,
		"address": "Kleine Gartmanplantsoen 15-19",
		"postalCode": "1017 RP",
		"city": "Amsterdam",
		"country": "Nederland",
		"categories": [
			"Multiplex"
		]
	},
	{
		"date": "2017-05-31T19:45:51.000Z",
		"name": "PvH Europe (Tommy Hilfiger & Calvin Klein)",
		"id": "577d25c9498efe0b44392a62",
		"lat": 52.40196459569873,
		"lng": 4.875307973888095,
		"address": "Danzigerkade 165",
		"postalCode": "1013 AC",
		"city": "Amsterdam",
		"country": "Nederland",
		"categories": [
			"Business Center"
		]
	},
	{
		"date": "2017-05-31T22:42:25.000Z",
		"name": "Cotton Candy Residence 10",
		"id": "58cd4fe316f000799f4cf4f4",
		"lat": 52.392946926098126,
		"lng": 4.640537129468235,
		"city": "Haarlem",
		"country": "Nederland",
		"categories": [
			"Home (private)"
		]
	}
]