[
	{
		"date": "2017-11-01T07:20:17.000Z",
		"name": "Station Haarlem",
		"id": "4a8c3036f964a5203a0d20e3",
		"lat": 52.38801057573046,
		"lng": 4.638713550666082,
		"address": "Stationsplein 11 L",
		"postalCode": "2011 LR",
		"city": "Haarlem",
		"country": "Nederland",
		"categories": [
			"Train Station"
		]
	},
	{
		"date": "2017-11-01T07:53:45.000Z",
		"name": "WeWork Metropool",
		"id": "56a14a68498e77945ee2ced1",
		"lat": 52.36480793621647,
		"lng": 4.906191453337669,
		"address": "Weesperstraat 61",
		"postalCode": "1018 VN",
		"city": "Amsterdam",
		"country": "Nederland",
		"categories": [
			"Coworking Space",
			"Business Service"
		]
	},
	{
		"date": "2017-11-01T14:40:19.000Z",
		"name": "Salsa Shop",
		"id": "53c3ca66498ea876ac0e1349",
		"lat": 52.36622550874323,
		"lng": 4.899968972243181,
		"address": "Amstelstraat 32A",
		"postalCode": "1017 DA",
		"city": "Amsterdam",
		"country": "Nederland",
		"categories": [
			"Mexican Restaurant"
		]
	},
	{
		"date": "2017-11-01T17:04:29.000Z",
		"name": "Amsterdam Central Railway Station (Station Amsterdam Centraal)",
		"id": "4a688ba1f964a52088ca1fe3",
		"lat": 52.37878224866535,
		"lng": 4.900374412536621,
		"address": "Stationsplein 15",
		"postalCode": "1012 AB",
		"city": "Amsterdam",
		"country": "Nederland",
		"categories": [
			"Train Station"
		]
	},
	{
		"date": "2017-11-01T17:23:14.000Z",
		"name": "Station Haarlem",
		"id": "4a8c3036f964a5203a0d20e3",
		"lat": 52.38801057573046,
		"lng": 4.638713550666082,
		"address": "Stationsplein 11 L",
		"postalCode": "2011 LR",
		"city": "Haarlem",
		"country": "Nederland",
		"categories": [
			"Train Station"
		]
	},
	{
		"date": "2017-11-01T20:14:39.000Z",
		"name": "Cotton Candy Residence 10",
		"id": "58cd4fe316f000799f4cf4f4",
		"lat": 52.392946926098126,
		"lng": 4.640537129468235,
		"city": "Haarlem",
		"country": "Nederland",
		"categories": [
			"Home (private)"
		]
	},
	{
		"date": "2017-11-02T07:31:24.000Z",
		"name": "Station Haarlem",
		"id": "4a8c3036f964a5203a0d20e3",
		"lat": 52.38801057573046,
		"lng": 4.638713550666082,
		"address": "Stationsplein 11 L",
		"postalCode": "2011 LR",
		"city": "Haarlem",
		"country": "Nederland",
		"categories": [
			"Train Station"
		]
	},
	{
		"date": "2017-11-02T09:34:35.000Z",
		"name": "WeWork Metropool",
		"id": "56a14a68498e77945ee2ced1",
		"lat": 52.36480793621647,
		"lng": 4.906191453337669,
		"address": "Weesperstraat 61",
		"postalCode": "1018 VN",
		"city": "Amsterdam",
		"country": "Nederland",
		"categories": [
			"Coworking Space",
			"Business Service"
		]
	},
	{
		"date": "2017-11-02T10:54:29.000Z",
		"name": "Albert Heijn",
		"id": "4a5837aaf964a5207fb71fe3",
		"lat": 52.368762108392325,
		"lng": 4.903476846994489,
		"address": "Jodenbreestraat 21",
		"postalCode": "1011 NH",
		"city": "Amsterdam",
		"country": "Nederland",
		"categories": [
			"Supermarket",
			"Grocery Store"
		]
	},
	{
		"date": "2017-11-02T19:11:53.000Z",
		"name": "Amsterdam Central Railway Station (Station Amsterdam Centraal)",
		"id": "4a688ba1f964a52088ca1fe3",
		"lat": 52.37878224866535,
		"lng": 4.900374412536621,
		"address": "Stationsplein 15",
		"postalCode": "1012 AB",
		"city": "Amsterdam",
		"country": "Nederland",
		"categories": [
			"Train Station"
		]
	},
	{
		"date": "2017-11-02T19:39:15.000Z",
		"name": "Station Haarlem",
		"id": "4a8c3036f964a5203a0d20e3",
		"lat": 52.38801057573046,
		"lng": 4.638713550666082,
		"address": "Stationsplein 11 L",
		"postalCode": "2011 LR",
		"city": "Haarlem",
		"country": "Nederland",
		"categories": [
			"Train Station"
		]
	},
	{
		"date": "2017-11-02T20:41:30.000Z",
		"name": "Cotton Candy Residence 10",
		"id": "58cd4fe316f000799f4cf4f4",
		"lat": 52.392946926098126,
		"lng": 4.640537129468235,
		"city": "Haarlem",
		"country": "Nederland",
		"categories": [
			"Home (private)"
		]
	},
	{
		"date": "2017-11-03T09:00:29.000Z",
		"name": "Apple Haarlem",
		"id": "529e315f11d2f188f40a235a",
		"lat": 52.378432951567824,
		"lng": 4.6329654604005555,
		"address": "Grote Houtstraat 99",
		"postalCode": "2011 SH",
		"city": "Haarlem",
		"country": "Nederland",
		"categories": [
			"Electronics Store",
			"Mobile Phone Shop"
		]
	},
	{
		"date": "2017-11-03T10:49:46.000Z",
		"name": "Water & Brood",
		"id": "590c4ecfcad1b67f0cc84943",
		"lat": 52.36423552187337,
		"lng": 4.905926229851091,
		"address": "Nieuwe Kerkstraat 84",
		"postalCode": "1018 EC",
		"city": "Amsterdam",
		"country": "Nederland",
		"categories": [
			"Breakfast Spot"
		]
	},
	{
		"date": "2017-11-03T15:11:58.000Z",
		"name": "WeWork Metropool",
		"id": "56a14a68498e77945ee2ced1",
		"lat": 52.36480793621647,
		"lng": 4.906191453337669,
		"address": "Weesperstraat 61",
		"postalCode": "1018 VN",
		"city": "Amsterdam",
		"country": "Nederland",
		"categories": [
			"Coworking Space",
			"Business Service"
		]
	},
	{
		"date": "2017-11-03T16:01:11.000Z",
		"name": "Docler Holding Amsterdam",
		"id": "58b684db52a051661da12674",
		"lat": 52.36505739184381,
		"lng": 4.906015988886142,
		"address": "Weespertraat 61",
		"postalCode": "1018 VN",
		"city": "Amsterdam",
		"country": "Nederland",
		"categories": [
			"Tech Startup"
		]
	},
	{
		"date": "2017-11-03T16:22:07.000Z",
		"name": "Coco’s Outback",
		"id": "4c047bec30229521c9c2de81",
		"lat": 52.365508531632926,
		"lng": 4.895728029399678,
		"address": "Thorbeckeplein 8-12",
		"postalCode": "1017 CS",
		"city": "Amsterdam",
		"country": "Nederland",
		"categories": [
			"Sports Bar",
			"Bar",
			"Nightclub"
		]
	},
	{
		"date": "2017-11-03T22:44:39.000Z",
		"name": "Amsterdam Central Railway Station (Station Amsterdam Centraal)",
		"id": "4a688ba1f964a52088ca1fe3",
		"lat": 52.37878224866535,
		"lng": 4.900374412536621,
		"address": "Stationsplein 15",
		"postalCode": "1012 AB",
		"city": "Amsterdam",
		"country": "Nederland",
		"categories": [
			"Train Station"
		]
	},
	{
		"date": "2017-11-03T23:14:21.000Z",
		"name": "Station Haarlem",
		"id": "4a8c3036f964a5203a0d20e3",
		"lat": 52.38801057573046,
		"lng": 4.638713550666082,
		"address": "Stationsplein 11 L",
		"postalCode": "2011 LR",
		"city": "Haarlem",
		"country": "Nederland",
		"categories": [
			"Train Station"
		]
	},
	{
		"date": "2017-11-03T23:18:33.000Z",
		"name": "Sultan shoarma",
		"id": "573362de498e4009791e56a8",
		"lat": 52.386933,
		"lng": 4.636699,
		"country": "Nederland",
		"categories": [
			"Snack Place"
		]
	},
	{
		"date": "2017-11-04T01:55:31.000Z",
		"name": "Cotton Candy Residence 10",
		"id": "58cd4fe316f000799f4cf4f4",
		"lat": 52.392946926098126,
		"lng": 4.640537129468235,
		"city": "Haarlem",
		"country": "Nederland",
		"categories": [
			"Home (private)"
		]
	},
	{
		"date": "2017-11-04T19:17:08.000Z",
		"name": "Specktakel",
		"id": "4b02f37cf964a520564b22e3",
		"lat": 52.38065662856034,
		"lng": 4.636025092046177,
		"address": "Spekstraat 4",
		"postalCode": "2011 HM",
		"city": "Haarlem",
		"country": "Nederland",
		"categories": [
			"Australian Restaurant"
		]
	},
	{
		"date": "2017-11-04T20:18:13.000Z",
		"name": "Grote Markt",
		"id": "4b33f1aef964a520842225e3",
		"lat": 52.381433191163424,
		"lng": 4.6357020650218494,
		"address": "Grote Markt",
		"postalCode": "2011",
		"city": "Haarlem",
		"country": "Nederland",
		"categories": [
			"Plaza",
			"Event Space"
		]
	},
	{
		"date": "2017-11-05T12:45:45.000Z",
		"name": "Amsterdam Central Railway Station (Station Amsterdam Centraal)",
		"id": "4a688ba1f964a52088ca1fe3",
		"lat": 52.37878224866535,
		"lng": 4.900374412536621,
		"address": "Stationsplein 15",
		"postalCode": "1012 AB",
		"city": "Amsterdam",
		"country": "Nederland",
		"categories": [
			"Train Station"
		]
	},
	{
		"date": "2017-11-05T13:34:13.000Z",
		"name": "NDSM wharf (NDSM werf)",
		"id": "4c11d1448559ef3b9cd06a53",
		"lat": 52.40019324972672,
		"lng": 4.893293380737305,
		"address": "Tt. Neveritaweg 61",
		"postalCode": "1033 WB",
		"city": "Amsterdam",
		"country": "Nederland",
		"categories": [
			"Harbor / Marina",
			"Historic Site",
			"Event Space"
		]
	},
	{
		"date": "2017-11-05T13:36:24.000Z",
		"name": "IJ-Hallen - Lasloods",
		"id": "4c55207c5b8395214aa4df31",
		"lat": 52.402314141231905,
		"lng": 4.894323348999023,
		"address": "T.T. Neveritaweg 1",
		"postalCode": "1033 WB",
		"city": "Amsterdam",
		"country": "Nederland",
		"categories": [
			"Building"
		]
	},
	{
		"date": "2017-11-05T15:33:59.000Z",
		"name": "Tostibar De Tweede Jeugd",
		"id": "59269c71c21cb112832b5fbf",
		"lat": 52.40127,
		"lng": 4.892059,
		"address": "Ms. van Riemsdijkweg 30",
		"postalCode": "1033 RD",
		"city": "Amsterdam",
		"country": "Nederland",
		"categories": [
			"Sandwich Place"
		]
	},
	{
		"date": "2017-11-05T16:15:43.000Z",
		"name": "Albert Heijn to go",
		"id": "4b6ffa00f964a5200b022de3",
		"lat": 52.38000975921417,
		"lng": 4.899880043680705,
		"address": "Westtunnel",
		"postalCode": "1012 AB",
		"city": "Amsterdam",
		"country": "Nederland",
		"categories": [
			"Convenience Store"
		]
	},
	{
		"date": "2017-11-05T22:54:32.000Z",
		"name": "Cotton Candy Residence 10",
		"id": "58cd4fe316f000799f4cf4f4",
		"lat": 52.392946926098126,
		"lng": 4.640537129468235,
		"city": "Haarlem",
		"country": "Nederland",
		"categories": [
			"Home (private)"
		]
	},
	{
		"date": "2017-11-06T06:04:03.000Z",
		"name": "Station Haarlem",
		"id": "4a8c3036f964a5203a0d20e3",
		"lat": 52.38801057573046,
		"lng": 4.638713550666082,
		"address": "Stationsplein 11 L",
		"postalCode": "2011 LR",
		"city": "Haarlem",
		"country": "Nederland",
		"categories": [
			"Train Station"
		]
	},
	{
		"date": "2017-11-06T06:38:25.000Z",
		"name": "SportCity",
		"id": "4a835233f964a520c6fa1fe3",
		"lat": 52.368877125084026,
		"lng": 4.900798968515201,
		"address": "Jodenbreestraat 6",
		"postalCode": "1011NK",
		"city": "Amsterdam",
		"country": "Nederland",
		"categories": [
			"Gym",
			"Gym / Fitness Center"
		]
	},
	{
		"date": "2017-11-06T08:16:49.000Z",
		"name": "WeWork Metropool",
		"id": "56a14a68498e77945ee2ced1",
		"lat": 52.36480793621647,
		"lng": 4.906191453337669,
		"address": "Weesperstraat 61",
		"postalCode": "1018 VN",
		"city": "Amsterdam",
		"country": "Nederland",
		"categories": [
			"Coworking Space",
			"Business Service"
		]
	},
	{
		"date": "2017-11-06T08:52:47.000Z",
		"name": "Docler Holding Amsterdam",
		"id": "58b684db52a051661da12674",
		"lat": 52.36505739184381,
		"lng": 4.906015988886142,
		"address": "Weespertraat 61",
		"postalCode": "1018 VN",
		"city": "Amsterdam",
		"country": "Nederland",
		"categories": [
			"Tech Startup"
		]
	},
	{
		"date": "2017-11-06T18:57:33.000Z",
		"name": "Amsterdam Central Railway Station (Station Amsterdam Centraal)",
		"id": "4a688ba1f964a52088ca1fe3",
		"lat": 52.37878224866535,
		"lng": 4.900374412536621,
		"address": "Stationsplein 15",
		"postalCode": "1012 AB",
		"city": "Amsterdam",
		"country": "Nederland",
		"categories": [
			"Train Station"
		]
	},
	{
		"date": "2017-11-06T21:30:22.000Z",
		"name": "Cotton Candy Residence 10",
		"id": "58cd4fe316f000799f4cf4f4",
		"lat": 52.392946926098126,
		"lng": 4.640537129468235,
		"city": "Haarlem",
		"country": "Nederland",
		"categories": [
			"Home (private)"
		]
	},
	{
		"date": "2017-11-07T07:07:00.000Z",
		"name": "Station Haarlem",
		"id": "4a8c3036f964a5203a0d20e3",
		"lat": 52.38801057573046,
		"lng": 4.638713550666082,
		"address": "Stationsplein 11 L",
		"postalCode": "2011 LR",
		"city": "Haarlem",
		"country": "Nederland",
		"categories": [
			"Train Station"
		]
	},
	{
		"date": "2017-11-07T07:49:13.000Z",
		"name": "WeWork Metropool",
		"id": "56a14a68498e77945ee2ced1",
		"lat": 52.36480793621647,
		"lng": 4.906191453337669,
		"address": "Weesperstraat 61",
		"postalCode": "1018 VN",
		"city": "Amsterdam",
		"country": "Nederland",
		"categories": [
			"Coworking Space",
			"Business Service"
		]
	},
	{
		"date": "2017-11-07T17:06:52.000Z",
		"name": "Amsterdam Central Railway Station (Station Amsterdam Centraal)",
		"id": "4a688ba1f964a52088ca1fe3",
		"lat": 52.37878224866535,
		"lng": 4.900374412536621,
		"address": "Stationsplein 15",
		"postalCode": "1012 AB",
		"city": "Amsterdam",
		"country": "Nederland",
		"categories": [
			"Train Station"
		]
	},
	{
		"date": "2017-11-07T17:40:24.000Z",
		"name": "Albert Heijn to go",
		"id": "4b862ee0f964a520038231e3",
		"lat": 52.38851437453483,
		"lng": 4.639542485412089,
		"address": "Stationsplein 14",
		"postalCode": "2011 LR",
		"city": "Haarlem",
		"country": "Nederland",
		"categories": [
			"Convenience Store"
		]
	},
	{
		"date": "2017-11-07T17:40:33.000Z",
		"name": "Station Haarlem",
		"id": "4a8c3036f964a5203a0d20e3",
		"lat": 52.38801057573046,
		"lng": 4.638713550666082,
		"address": "Stationsplein 11 L",
		"postalCode": "2011 LR",
		"city": "Haarlem",
		"country": "Nederland",
		"categories": [
			"Train Station"
		]
	},
	{
		"date": "2017-11-07T20:18:07.000Z",
		"name": "Cotton Candy Residence 10",
		"id": "58cd4fe316f000799f4cf4f4",
		"lat": 52.392946926098126,
		"lng": 4.640537129468235,
		"city": "Haarlem",
		"country": "Nederland",
		"categories": [
			"Home (private)"
		]
	},
	{
		"date": "2017-11-08T06:45:08.000Z",
		"name": "SportCity",
		"id": "4a835233f964a520c6fa1fe3",
		"lat": 52.368877125084026,
		"lng": 4.900798968515201,
		"address": "Jodenbreestraat 6",
		"postalCode": "1011NK",
		"city": "Amsterdam",
		"country": "Nederland",
		"categories": [
			"Gym",
			"Gym / Fitness Center"
		]
	},
	{
		"date": "2017-11-08T11:02:10.000Z",
		"name": "wagamama",
		"id": "4ee4a1c84690f88940adf317",
		"lat": 52.36623736758097,
		"lng": 4.898547124211683,
		"address": "Amstelstraat 8",
		"postalCode": "1017 DA",
		"city": "Amsterdam",
		"country": "Nederland",
		"categories": [
			"Asian Restaurant",
			"Japanese Restaurant",
			"Noodle House"
		]
	},
	{
		"date": "2017-11-08T13:19:23.000Z",
		"name": "WeWork Metropool",
		"id": "56a14a68498e77945ee2ced1",
		"lat": 52.36480793621647,
		"lng": 4.906191453337669,
		"address": "Weesperstraat 61",
		"postalCode": "1018 VN",
		"city": "Amsterdam",
		"country": "Nederland",
		"categories": [
			"Coworking Space",
			"Business Service"
		]
	},
	{
		"date": "2017-11-08T18:09:55.000Z",
		"name": "Cannibale Royale",
		"id": "5336fe68498e18d7e65f5803",
		"lat": 52.36794577878491,
		"lng": 4.8902845625146085,
		"address": "Handboogstraat 17-A",
		"postalCode": "1012 XM",
		"city": "Amsterdam",
		"country": "Nederland",
		"categories": [
			"Burger Joint",
			"Steakhouse"
		]
	},
	{
		"date": "2017-11-08T19:37:35.000Z",
		"name": "Bierfabriek",
		"id": "4e8f2260b8f7c1a0343c698d",
		"lat": 52.369866,
		"lng": 4.89346,
		"address": "Nes 67",
		"postalCode": "1012KL",
		"city": "Amsterdam",
		"country": "Nederland",
		"categories": [
			"Brewery",
			"Beer Garden",
			"Bar"
		]
	},
	{
		"date": "2017-11-08T20:51:10.000Z",
		"name": "Amsterdam Central Railway Station (Station Amsterdam Centraal)",
		"id": "4a688ba1f964a52088ca1fe3",
		"lat": 52.37878224866535,
		"lng": 4.900374412536621,
		"address": "Stationsplein 15",
		"postalCode": "1012 AB",
		"city": "Amsterdam",
		"country": "Nederland",
		"categories": [
			"Train Station"
		]
	},
	{
		"date": "2017-11-08T21:14:54.000Z",
		"name": "Station Haarlem",
		"id": "4a8c3036f964a5203a0d20e3",
		"lat": 52.38801057573046,
		"lng": 4.638713550666082,
		"address": "Stationsplein 11 L",
		"postalCode": "2011 LR",
		"city": "Haarlem",
		"country": "Nederland",
		"categories": [
			"Train Station"
		]
	},
	{
		"date": "2017-11-08T21:37:53.000Z",
		"name": "Cotton Candy Residence 10",
		"id": "58cd4fe316f000799f4cf4f4",
		"lat": 52.392946926098126,
		"lng": 4.640537129468235,
		"city": "Haarlem",
		"country": "Nederland",
		"categories": [
			"Home (private)"
		]
	},
	{
		"date": "2017-11-09T07:03:30.000Z",
		"name": "Station Haarlem",
		"id": "4a8c3036f964a5203a0d20e3",
		"lat": 52.38801057573046,
		"lng": 4.638713550666082,
		"address": "Stationsplein 11 L",
		"postalCode": "2011 LR",
		"city": "Haarlem",
		"country": "Nederland",
		"categories": [
			"Train Station"
		]
	},
	{
		"date": "2017-11-09T07:33:41.000Z",
		"name": "Amsterdam Central Railway Station (Station Amsterdam Centraal)",
		"id": "4a688ba1f964a52088ca1fe3",
		"lat": 52.37878224866535,
		"lng": 4.900374412536621,
		"address": "Stationsplein 15",
		"postalCode": "1012 AB",
		"city": "Amsterdam",
		"country": "Nederland",
		"categories": [
			"Train Station"
		]
	},
	{
		"date": "2017-11-09T11:08:54.000Z",
		"name": "Morena aan de Amstel",
		"id": "52dabde2498e516303dc5adc",
		"lat": 52.36625555810526,
		"lng": 4.9015951825233985,
		"address": "Amstel 47",
		"postalCode": "1011 PW",
		"city": "Amsterdam",
		"country": "Nederland",
		"categories": [
			"Greek Restaurant"
		]
	},
	{
		"date": "2017-11-09T16:44:23.000Z",
		"name": "Amsterdam Central Railway Station (Station Amsterdam Centraal)",
		"id": "4a688ba1f964a52088ca1fe3",
		"lat": 52.37878224866535,
		"lng": 4.900374412536621,
		"address": "Stationsplein 15",
		"postalCode": "1012 AB",
		"city": "Amsterdam",
		"country": "Nederland",
		"categories": [
			"Train Station"
		]
	},
	{
		"date": "2017-11-10T07:07:21.000Z",
		"name": "Station Haarlem",
		"id": "4a8c3036f964a5203a0d20e3",
		"lat": 52.38801057573046,
		"lng": 4.638713550666082,
		"address": "Stationsplein 11 L",
		"postalCode": "2011 LR",
		"city": "Haarlem",
		"country": "Nederland",
		"categories": [
			"Train Station"
		]
	},
	{
		"date": "2017-11-10T10:52:44.000Z",
		"name": "Design Time Galery",
		"id": "527ce0bb498e71080b9bf30b",
		"lat": 52.36694559540718,
		"lng": 4.899605272084794,
		"country": "Nederland",
		"categories": [
			"Jewelry Store"
		]
	},
	{
		"date": "2017-11-10T11:13:29.000Z",
		"name": "Tasty Asia",
		"id": "4b92ba91f964a520e81534e3",
		"lat": 52.36625960848124,
		"lng": 4.8990849205257225,
		"address": "wagenstraat",
		"postalCode": "1011",
		"city": "Amsterdam",
		"country": "Nederland",
		"categories": [
			"Asian Restaurant"
		]
	},
	{
		"date": "2017-11-10T18:03:06.000Z",
		"name": "Station Haarlem",
		"id": "4a8c3036f964a5203a0d20e3",
		"lat": 52.38801057573046,
		"lng": 4.638713550666082,
		"address": "Stationsplein 11 L",
		"postalCode": "2011 LR",
		"city": "Haarlem",
		"country": "Nederland",
		"categories": [
			"Train Station"
		]
	},
	{
		"date": "2017-11-10T18:06:00.000Z",
		"name": "Albert Heijn to go",
		"id": "4b862ee0f964a520038231e3",
		"lat": 52.38851437453483,
		"lng": 4.639542485412089,
		"address": "Stationsplein 14",
		"postalCode": "2011 LR",
		"city": "Haarlem",
		"country": "Nederland",
		"categories": [
			"Convenience Store"
		]
	},
	{
		"date": "2017-11-11T17:14:32.000Z",
		"name": "Station Haarlem",
		"id": "4a8c3036f964a5203a0d20e3",
		"lat": 52.38801057573046,
		"lng": 4.638713550666082,
		"address": "Stationsplein 11 L",
		"postalCode": "2011 LR",
		"city": "Haarlem",
		"country": "Nederland",
		"categories": [
			"Train Station"
		]
	},
	{
		"date": "2017-11-11T17:29:28.000Z",
		"name": "Amsterdam Sloterdijk Station (Station Amsterdam Sloterdijk)",
		"id": "4a56245ff964a52085b41fe3",
		"lat": 52.38899431620469,
		"lng": 4.837957990409058,
		"address": "Orlyplein 105",
		"postalCode": "1043 DT",
		"city": "Amsterdam",
		"country": "Nederland",
		"categories": [
			"Train Station"
		]
	},
	{
		"date": "2017-11-11T18:13:14.000Z",
		"name": "Eten Bij Mama",
		"id": "595f9fa69ec399064abf2455",
		"lat": 52.363451,
		"lng": 4.839733,
		"address": "August Allebéplein",
		"postalCode": "1062 AC",
		"city": "Amsterdam",
		"country": "Nederland",
		"categories": [
			"Restaurant"
		]
	},
	{
		"date": "2017-11-11T23:48:27.000Z",
		"name": "Station Amsterdam Lelylaan",
		"id": "4a5623d8f964a52082b41fe3",
		"lat": 52.3576430497755,
		"lng": 4.834193002208261,
		"address": "Cornelis Lelylaan 35",
		"postalCode": "1062 AD",
		"city": "Amsterdam",
		"country": "Nederland",
		"categories": [
			"Train Station"
		]
	},
	{
		"date": "2017-11-12T00:21:11.000Z",
		"name": "Station Haarlem",
		"id": "4a8c3036f964a5203a0d20e3",
		"lat": 52.38801057573046,
		"lng": 4.638713550666082,
		"address": "Stationsplein 11 L",
		"postalCode": "2011 LR",
		"city": "Haarlem",
		"country": "Nederland",
		"categories": [
			"Train Station"
		]
	},
	{
		"date": "2017-11-12T00:26:31.000Z",
		"name": "Cotton Candy Residence 10",
		"id": "58cd4fe316f000799f4cf4f4",
		"lat": 52.392946926098126,
		"lng": 4.640537129468235,
		"city": "Haarlem",
		"country": "Nederland",
		"categories": [
			"Home (private)"
		]
	},
	{
		"date": "2017-11-13T06:08:20.000Z",
		"name": "Station Haarlem",
		"id": "4a8c3036f964a5203a0d20e3",
		"lat": 52.38801057573046,
		"lng": 4.638713550666082,
		"address": "Stationsplein 11 L",
		"postalCode": "2011 LR",
		"city": "Haarlem",
		"country": "Nederland",
		"categories": [
			"Train Station"
		]
	},
	{
		"date": "2017-11-13T06:28:45.000Z",
		"name": "Amsterdam Central Railway Station (Station Amsterdam Centraal)",
		"id": "4a688ba1f964a52088ca1fe3",
		"lat": 52.37878224866535,
		"lng": 4.900374412536621,
		"address": "Stationsplein 15",
		"postalCode": "1012 AB",
		"city": "Amsterdam",
		"country": "Nederland",
		"categories": [
			"Train Station"
		]
	},
	{
		"date": "2017-11-13T06:47:49.000Z",
		"name": "SportCity",
		"id": "4a835233f964a520c6fa1fe3",
		"lat": 52.368877125084026,
		"lng": 4.900798968515201,
		"address": "Jodenbreestraat 6",
		"postalCode": "1011NK",
		"city": "Amsterdam",
		"country": "Nederland",
		"categories": [
			"Gym",
			"Gym / Fitness Center"
		]
	},
	{
		"date": "2017-11-13T07:54:58.000Z",
		"name": "WeWork Metropool",
		"id": "56a14a68498e77945ee2ced1",
		"lat": 52.36480793621647,
		"lng": 4.906191453337669,
		"address": "Weesperstraat 61",
		"postalCode": "1018 VN",
		"city": "Amsterdam",
		"country": "Nederland",
		"categories": [
			"Coworking Space",
			"Business Service"
		]
	},
	{
		"date": "2017-11-13T10:52:53.000Z",
		"name": "Salsa Shop",
		"id": "53c3ca66498ea876ac0e1349",
		"lat": 52.36622550874323,
		"lng": 4.899968972243181,
		"address": "Amstelstraat 32A",
		"postalCode": "1017 DA",
		"city": "Amsterdam",
		"country": "Nederland",
		"categories": [
			"Mexican Restaurant"
		]
	},
	{
		"date": "2017-11-13T17:49:44.000Z",
		"name": "Amsterdam Central Railway Station (Station Amsterdam Centraal)",
		"id": "4a688ba1f964a52088ca1fe3",
		"lat": 52.37878224866535,
		"lng": 4.900374412536621,
		"address": "Stationsplein 15",
		"postalCode": "1012 AB",
		"city": "Amsterdam",
		"country": "Nederland",
		"categories": [
			"Train Station"
		]
	},
	{
		"date": "2017-11-14T06:59:44.000Z",
		"name": "Station Haarlem",
		"id": "4a8c3036f964a5203a0d20e3",
		"lat": 52.38801057573046,
		"lng": 4.638713550666082,
		"address": "Stationsplein 11 L",
		"postalCode": "2011 LR",
		"city": "Haarlem",
		"country": "Nederland",
		"categories": [
			"Train Station"
		]
	},
	{
		"date": "2017-11-14T11:22:29.000Z",
		"name": "Tasty Burger",
		"id": "58ba0f14117420736151e102",
		"lat": 52.36620858404363,
		"lng": 4.8995569027015335,
		"country": "Nederland",
		"categories": [
			"Burger Joint"
		]
	},
	{
		"date": "2017-11-14T17:01:45.000Z",
		"name": "Docler Holding Amsterdam",
		"id": "58b684db52a051661da12674",
		"lat": 52.36505739184381,
		"lng": 4.906015988886142,
		"address": "Weespertraat 61",
		"postalCode": "1018 VN",
		"city": "Amsterdam",
		"country": "Nederland",
		"categories": [
			"Tech Startup"
		]
	},
	{
		"date": "2017-11-14T17:02:02.000Z",
		"name": "WeWork Metropool",
		"id": "56a14a68498e77945ee2ced1",
		"lat": 52.36480793621647,
		"lng": 4.906191453337669,
		"address": "Weesperstraat 61",
		"postalCode": "1018 VN",
		"city": "Amsterdam",
		"country": "Nederland",
		"categories": [
			"Coworking Space",
			"Business Service"
		]
	},
	{
		"date": "2017-11-14T17:30:25.000Z",
		"name": "Gall & Gall",
		"id": "4bacc61cf964a5202d0b3be3",
		"lat": 52.368655148135616,
		"lng": 4.903518720636865,
		"address": "Jodenbreestraat 23",
		"postalCode": "1011 NH",
		"city": "Amsterdam",
		"country": "Nederland",
		"categories": [
			"Liquor Store"
		]
	},
	{
		"date": "2017-11-14T17:54:54.000Z",
		"name": "Amsterdam Central Railway Station (Station Amsterdam Centraal)",
		"id": "4a688ba1f964a52088ca1fe3",
		"lat": 52.37878224866535,
		"lng": 4.900374412536621,
		"address": "Stationsplein 15",
		"postalCode": "1012 AB",
		"city": "Amsterdam",
		"country": "Nederland",
		"categories": [
			"Train Station"
		]
	},
	{
		"date": "2017-11-15T06:47:20.000Z",
		"name": "Station Haarlem",
		"id": "4a8c3036f964a5203a0d20e3",
		"lat": 52.38801057573046,
		"lng": 4.638713550666082,
		"address": "Stationsplein 11 L",
		"postalCode": "2011 LR",
		"city": "Haarlem",
		"country": "Nederland",
		"categories": [
			"Train Station"
		]
	},
	{
		"date": "2017-11-15T07:10:44.000Z",
		"name": "Amsterdam Central Railway Station (Station Amsterdam Centraal)",
		"id": "4a688ba1f964a52088ca1fe3",
		"lat": 52.37878224866535,
		"lng": 4.900374412536621,
		"address": "Stationsplein 15",
		"postalCode": "1012 AB",
		"city": "Amsterdam",
		"country": "Nederland",
		"categories": [
			"Train Station"
		]
	},
	{
		"date": "2017-11-15T07:39:28.000Z",
		"name": "WeWork Metropool",
		"id": "56a14a68498e77945ee2ced1",
		"lat": 52.36480793621647,
		"lng": 4.906191453337669,
		"address": "Weesperstraat 61",
		"postalCode": "1018 VN",
		"city": "Amsterdam",
		"country": "Nederland",
		"categories": [
			"Coworking Space",
			"Business Service"
		]
	},
	{
		"date": "2017-11-15T14:31:13.000Z",
		"name": "Water & Brood",
		"id": "590c4ecfcad1b67f0cc84943",
		"lat": 52.36423552187337,
		"lng": 4.905926229851091,
		"address": "Nieuwe Kerkstraat 84",
		"postalCode": "1018 EC",
		"city": "Amsterdam",
		"country": "Nederland",
		"categories": [
			"Breakfast Spot"
		]
	},
	{
		"date": "2017-11-15T15:53:19.000Z",
		"name": "Docler Holding Amsterdam",
		"id": "58b684db52a051661da12674",
		"lat": 52.36505739184381,
		"lng": 4.906015988886142,
		"address": "Weespertraat 61",
		"postalCode": "1018 VN",
		"city": "Amsterdam",
		"country": "Nederland",
		"categories": [
			"Tech Startup"
		]
	},
	{
		"date": "2017-11-15T18:10:18.000Z",
		"name": "Station Haarlem",
		"id": "4a8c3036f964a5203a0d20e3",
		"lat": 52.38801057573046,
		"lng": 4.638713550666082,
		"address": "Stationsplein 11 L",
		"postalCode": "2011 LR",
		"city": "Haarlem",
		"country": "Nederland",
		"categories": [
			"Train Station"
		]
	},
	{
		"date": "2017-11-15T19:24:30.000Z",
		"name": "Black Beauty",
		"id": "4bc213da2a89ef3b3e2cf388",
		"lat": 52.37962112345447,
		"lng": 4.633166429578809,
		"country": "Nederland",
		"categories": [
			"Italian Restaurant"
		]
	},
	{
		"date": "2017-11-15T21:28:44.000Z",
		"name": "Cotton Candy Residence 10",
		"id": "58cd4fe316f000799f4cf4f4",
		"lat": 52.392946926098126,
		"lng": 4.640537129468235,
		"city": "Haarlem",
		"country": "Nederland",
		"categories": [
			"Home (private)"
		]
	},
	{
		"date": "2017-11-16T07:10:45.000Z",
		"name": "Station Haarlem",
		"id": "4a8c3036f964a5203a0d20e3",
		"lat": 52.38801057573046,
		"lng": 4.638713550666082,
		"address": "Stationsplein 11 L",
		"postalCode": "2011 LR",
		"city": "Haarlem",
		"country": "Nederland",
		"categories": [
			"Train Station"
		]
	},
	{
		"date": "2017-11-16T11:12:47.000Z",
		"name": "Ô Mai",
		"id": "53f28e62498eae96dafa0488",
		"lat": 52.36553778217864,
		"lng": 4.897731780985747,
		"address": "Utrechtsestraat 12",
		"city": "Amsterdam",
		"country": "Nederland",
		"categories": [
			"Vietnamese Restaurant"
		]
	},
	{
		"date": "2017-11-16T15:21:44.000Z",
		"name": "SPAR city Van Kempen",
		"id": "4b4c4089f964a52022b026e3",
		"lat": 52.36421961630775,
		"lng": 4.9056606671851295,
		"address": "Nieuwe Kerkstraat 65",
		"postalCode": "1018 DZ",
		"city": "Amsterdam",
		"country": "Nederland",
		"categories": [
			"Convenience Store",
			"Supermarket",
			"Grocery Store"
		]
	},
	{
		"date": "2017-11-16T17:51:38.000Z",
		"name": "Station Haarlem",
		"id": "4a8c3036f964a5203a0d20e3",
		"lat": 52.38801057573046,
		"lng": 4.638713550666082,
		"address": "Stationsplein 11 L",
		"postalCode": "2011 LR",
		"city": "Haarlem",
		"country": "Nederland",
		"categories": [
			"Train Station"
		]
	},
	{
		"date": "2017-11-16T17:55:18.000Z",
		"name": "Basic X Hair",
		"id": "52e15bd4498eff401e7266b1",
		"lat": 52.38709780312595,
		"lng": 4.636948636589309,
		"address": "Kruisweg 35",
		"postalCode": "2011LA",
		"city": "Haarlem",
		"country": "Nederland",
		"categories": [
			"Salon / Barbershop"
		]
	},
	{
		"date": "2017-11-17T07:20:25.000Z",
		"name": "Station Haarlem",
		"id": "4a8c3036f964a5203a0d20e3",
		"lat": 52.38801057573046,
		"lng": 4.638713550666082,
		"address": "Stationsplein 11 L",
		"postalCode": "2011 LR",
		"city": "Haarlem",
		"country": "Nederland",
		"categories": [
			"Train Station"
		]
	},
	{
		"date": "2017-11-17T08:42:02.000Z",
		"name": "WeWork Metropool",
		"id": "56a14a68498e77945ee2ced1",
		"lat": 52.36480793621647,
		"lng": 4.906191453337669,
		"address": "Weesperstraat 61",
		"postalCode": "1018 VN",
		"city": "Amsterdam",
		"country": "Nederland",
		"categories": [
			"Coworking Space",
			"Business Service"
		]
	},
	{
		"date": "2017-11-17T15:36:30.000Z",
		"name": "The Burrito Maker",
		"id": "54e2314b498e6c6790ffa4ac",
		"lat": 52.36677,
		"lng": 4.9252243,
		"address": "Haarlemmerplein 29",
		"postalCode": "1013 HP",
		"city": "Amsterdam",
		"country": "Nederland",
		"categories": [
			"Taco Place"
		]
	},
	{
		"date": "2017-11-17T20:30:43.000Z",
		"name": "Amsterdam Central Railway Station (Station Amsterdam Centraal)",
		"id": "4a688ba1f964a52088ca1fe3",
		"lat": 52.37878224866535,
		"lng": 4.900374412536621,
		"address": "Stationsplein 15",
		"postalCode": "1012 AB",
		"city": "Amsterdam",
		"country": "Nederland",
		"categories": [
			"Train Station"
		]
	},
	{
		"date": "2017-11-17T20:50:55.000Z",
		"name": "Station Haarlem",
		"id": "4a8c3036f964a5203a0d20e3",
		"lat": 52.38801057573046,
		"lng": 4.638713550666082,
		"address": "Stationsplein 11 L",
		"postalCode": "2011 LR",
		"city": "Haarlem",
		"country": "Nederland",
		"categories": [
			"Train Station"
		]
	},
	{
		"date": "2017-11-19T15:58:23.000Z",
		"name": "Cotton Candy Residence 10",
		"id": "58cd4fe316f000799f4cf4f4",
		"lat": 52.392946926098126,
		"lng": 4.640537129468235,
		"city": "Haarlem",
		"country": "Nederland",
		"categories": [
			"Home (private)"
		]
	},
	{
		"date": "2017-11-20T06:58:57.000Z",
		"name": "Station Haarlem",
		"id": "4a8c3036f964a5203a0d20e3",
		"lat": 52.38801057573046,
		"lng": 4.638713550666082,
		"address": "Stationsplein 11 L",
		"postalCode": "2011 LR",
		"city": "Haarlem",
		"country": "Nederland",
		"categories": [
			"Train Station"
		]
	},
	{
		"date": "2017-11-20T07:26:48.000Z",
		"name": "Amsterdam Central Railway Station (Station Amsterdam Centraal)",
		"id": "4a688ba1f964a52088ca1fe3",
		"lat": 52.37878224866535,
		"lng": 4.900374412536621,
		"address": "Stationsplein 15",
		"postalCode": "1012 AB",
		"city": "Amsterdam",
		"country": "Nederland",
		"categories": [
			"Train Station"
		]
	},
	{
		"date": "2017-11-20T07:41:35.000Z",
		"name": "WeWork Metropool",
		"id": "56a14a68498e77945ee2ced1",
		"lat": 52.36480793621647,
		"lng": 4.906191453337669,
		"address": "Weesperstraat 61",
		"postalCode": "1018 VN",
		"city": "Amsterdam",
		"country": "Nederland",
		"categories": [
			"Coworking Space",
			"Business Service"
		]
	},
	{
		"date": "2017-11-20T16:39:25.000Z",
		"name": "Amsterdam Central Railway Station (Station Amsterdam Centraal)",
		"id": "4a688ba1f964a52088ca1fe3",
		"lat": 52.37878224866535,
		"lng": 4.900374412536621,
		"address": "Stationsplein 15",
		"postalCode": "1012 AB",
		"city": "Amsterdam",
		"country": "Nederland",
		"categories": [
			"Train Station"
		]
	},
	{
		"date": "2017-11-20T16:53:26.000Z",
		"name": "Amsterdam Sloterdijk Station (Station Amsterdam Sloterdijk)",
		"id": "4a56245ff964a52085b41fe3",
		"lat": 52.38899431620469,
		"lng": 4.837957990409058,
		"address": "Orlyplein 105",
		"postalCode": "1043 DT",
		"city": "Amsterdam",
		"country": "Nederland",
		"categories": [
			"Train Station"
		]
	},
	{
		"date": "2017-11-20T17:06:40.000Z",
		"name": "Station Haarlem",
		"id": "4a8c3036f964a5203a0d20e3",
		"lat": 52.38801057573046,
		"lng": 4.638713550666082,
		"address": "Stationsplein 11 L",
		"postalCode": "2011 LR",
		"city": "Haarlem",
		"country": "Nederland",
		"categories": [
			"Train Station"
		]
	},
	{
		"date": "2017-11-21T07:32:10.000Z",
		"name": "Station Haarlem",
		"id": "4a8c3036f964a5203a0d20e3",
		"lat": 52.38801057573046,
		"lng": 4.638713550666082,
		"address": "Stationsplein 11 L",
		"postalCode": "2011 LR",
		"city": "Haarlem",
		"country": "Nederland",
		"categories": [
			"Train Station"
		]
	},
	{
		"date": "2017-11-21T08:00:07.000Z",
		"name": "Amsterdam Central Railway Station (Station Amsterdam Centraal)",
		"id": "4a688ba1f964a52088ca1fe3",
		"lat": 52.37878224866535,
		"lng": 4.900374412536621,
		"address": "Stationsplein 15",
		"postalCode": "1012 AB",
		"city": "Amsterdam",
		"country": "Nederland",
		"categories": [
			"Train Station"
		]
	},
	{
		"date": "2017-11-21T08:14:24.000Z",
		"name": "WeWork Metropool",
		"id": "56a14a68498e77945ee2ced1",
		"lat": 52.36480793621647,
		"lng": 4.906191453337669,
		"address": "Weesperstraat 61",
		"postalCode": "1018 VN",
		"city": "Amsterdam",
		"country": "Nederland",
		"categories": [
			"Coworking Space",
			"Business Service"
		]
	},
	{
		"date": "2017-11-21T10:55:27.000Z",
		"name": "Vapiano",
		"id": "4fb28f2be4b0e2be9a5f1f6f",
		"lat": 52.36612800819601,
		"lng": 4.897454374802111,
		"address": "Amstelstraat 2-4",
		"postalCode": "1017 DA",
		"city": "Amsterdam",
		"country": "Nederland",
		"categories": [
			"Italian Restaurant",
			"Pizza Place"
		]
	},
	{
		"date": "2017-11-21T19:51:25.000Z",
		"name": "Pathé Arena",
		"id": "4a6efe26f964a52029d51fe3",
		"lat": 52.3125786065181,
		"lng": 4.945552811626069,
		"address": "Arena Boulevard 600",
		"postalCode": "1101 DS",
		"city": "Amsterdam",
		"country": "Nederland",
		"categories": [
			"Multiplex"
		]
	},
	{
		"date": "2017-11-21T19:52:01.000Z",
		"name": "Zaal 14",
		"id": "4fe226e6e4b01a0708e9a024",
		"lat": 52.312615064584946,
		"lng": 4.94549830413734,
		"address": "Arena Boulevard 600",
		"postalCode": "1101 DS",
		"city": "Amsterdam",
		"country": "Nederland",
		"categories": [
			"Multiplex",
			"Movie Theater"
		]
	},
	{
		"date": "2017-11-21T20:08:35.000Z",
		"name": "Station Amsterdam Bijlmer ArenA",
		"id": "4a73fd66f964a520a8dd1fe3",
		"lat": 52.31197135888793,
		"lng": 4.94719643397193,
		"address": "Hoogoordplein 1",
		"postalCode": "1102 BH",
		"city": "Amsterdam",
		"country": "Nederland",
		"categories": [
			"Train Station"
		]
	},
	{
		"date": "2017-11-21T20:52:41.000Z",
		"name": "Station Haarlem",
		"id": "4a8c3036f964a5203a0d20e3",
		"lat": 52.38801057573046,
		"lng": 4.638713550666082,
		"address": "Stationsplein 11 L",
		"postalCode": "2011 LR",
		"city": "Haarlem",
		"country": "Nederland",
		"categories": [
			"Train Station"
		]
	},
	{
		"date": "2017-11-21T23:28:28.000Z",
		"name": "Cotton Candy Residence 10",
		"id": "58cd4fe316f000799f4cf4f4",
		"lat": 52.392946926098126,
		"lng": 4.640537129468235,
		"city": "Haarlem",
		"country": "Nederland",
		"categories": [
			"Home (private)"
		]
	},
	{
		"date": "2017-11-22T07:18:03.000Z",
		"name": "Station Haarlem",
		"id": "4a8c3036f964a5203a0d20e3",
		"lat": 52.38801057573046,
		"lng": 4.638713550666082,
		"address": "Stationsplein 11 L",
		"postalCode": "2011 LR",
		"city": "Haarlem",
		"country": "Nederland",
		"categories": [
			"Train Station"
		]
	},
	{
		"date": "2017-11-22T07:59:43.000Z",
		"name": "Amsterdam Central Railway Station (Station Amsterdam Centraal)",
		"id": "4a688ba1f964a52088ca1fe3",
		"lat": 52.37878224866535,
		"lng": 4.900374412536621,
		"address": "Stationsplein 15",
		"postalCode": "1012 AB",
		"city": "Amsterdam",
		"country": "Nederland",
		"categories": [
			"Train Station"
		]
	},
	{
		"date": "2017-11-22T11:15:58.000Z",
		"name": "Ô Mai",
		"id": "53f28e62498eae96dafa0488",
		"lat": 52.36553778217864,
		"lng": 4.897731780985747,
		"address": "Utrechtsestraat 12",
		"city": "Amsterdam",
		"country": "Nederland",
		"categories": [
			"Vietnamese Restaurant"
		]
	},
	{
		"date": "2017-11-22T18:33:55.000Z",
		"name": "Tramhalte Weesperplein",
		"id": "4bdfcbdd6198c9b62b6a18ff",
		"lat": 52.36102670388819,
		"lng": 4.90708888243141,
		"address": "Weesperplein",
		"city": "Amsterdam",
		"country": "Nederland",
		"categories": [
			"Tram Station"
		]
	},
	{
		"date": "2017-11-22T18:45:45.000Z",
		"name": "Melkweg",
		"id": "4a2703c8f964a52066851fe3",
		"lat": 52.364747,
		"lng": 4.881251,
		"address": "Lijnbaansgracht 234A",
		"postalCode": "1017 PH",
		"city": "Amsterdam",
		"country": "Nederland",
		"categories": [
			"Music Venue"
		]
	},
	{
		"date": "2017-11-22T20:38:57.000Z",
		"name": "Wok to Walk",
		"id": "4a2707e2f964a5201a8f1fe3",
		"lat": 52.36467652071543,
		"lng": 4.883655931845822,
		"address": "Leidsestraat 96",
		"postalCode": "1017 PE",
		"city": "Amsterdam",
		"country": "Nederland",
		"categories": [
			"Noodle House",
			"Asian Restaurant"
		]
	},
	{
		"date": "2017-11-23T07:27:07.000Z",
		"name": "Amsterdam Central Railway Station (Station Amsterdam Centraal)",
		"id": "4a688ba1f964a52088ca1fe3",
		"lat": 52.37878224866535,
		"lng": 4.900374412536621,
		"address": "Stationsplein 15",
		"postalCode": "1012 AB",
		"city": "Amsterdam",
		"country": "Nederland",
		"categories": [
			"Train Station"
		]
	},
	{
		"date": "2017-11-23T07:40:50.000Z",
		"name": "Docler Holding Amsterdam",
		"id": "58b684db52a051661da12674",
		"lat": 52.36505739184381,
		"lng": 4.906015988886142,
		"address": "Weespertraat 61",
		"postalCode": "1018 VN",
		"city": "Amsterdam",
		"country": "Nederland",
		"categories": [
			"Tech Startup"
		]
	},
	{
		"date": "2017-11-23T07:54:01.000Z",
		"name": "WeWork Metropool",
		"id": "56a14a68498e77945ee2ced1",
		"lat": 52.36480793621647,
		"lng": 4.906191453337669,
		"address": "Weesperstraat 61",
		"postalCode": "1018 VN",
		"city": "Amsterdam",
		"country": "Nederland",
		"categories": [
			"Coworking Space",
			"Business Service"
		]
	},
	{
		"date": "2017-11-23T10:43:54.000Z",
		"name": "Water & Brood",
		"id": "590c4ecfcad1b67f0cc84943",
		"lat": 52.36423552187337,
		"lng": 4.905926229851091,
		"address": "Nieuwe Kerkstraat 84",
		"postalCode": "1018 EC",
		"city": "Amsterdam",
		"country": "Nederland",
		"categories": [
			"Breakfast Spot"
		]
	},
	{
		"date": "2017-11-23T17:48:18.000Z",
		"name": "Amsterdam Central Railway Station (Station Amsterdam Centraal)",
		"id": "4a688ba1f964a52088ca1fe3",
		"lat": 52.37878224866535,
		"lng": 4.900374412536621,
		"address": "Stationsplein 15",
		"postalCode": "1012 AB",
		"city": "Amsterdam",
		"country": "Nederland",
		"categories": [
			"Train Station"
		]
	},
	{
		"date": "2017-11-24T07:25:39.000Z",
		"name": "Amsterdam Central Railway Station (Station Amsterdam Centraal)",
		"id": "4a688ba1f964a52088ca1fe3",
		"lat": 52.37878224866535,
		"lng": 4.900374412536621,
		"address": "Stationsplein 15",
		"postalCode": "1012 AB",
		"city": "Amsterdam",
		"country": "Nederland",
		"categories": [
			"Train Station"
		]
	},
	{
		"date": "2017-11-24T11:17:31.000Z",
		"name": "The Burrito Maker",
		"id": "54e2314b498e6c6790ffa4ac",
		"lat": 52.36677,
		"lng": 4.9252243,
		"address": "Haarlemmerplein 29",
		"postalCode": "1013 HP",
		"city": "Amsterdam",
		"country": "Nederland",
		"categories": [
			"Taco Place"
		]
	},
	{
		"date": "2017-11-24T15:24:00.000Z",
		"name": "Coffeeshop Reefer",
		"id": "4dd7bca252b1a5c6445339d7",
		"lat": 52.369655098246255,
		"lng": 4.9013163498442145,
		"city": "Amsterdam",
		"country": "Nederland",
		"categories": [
			"Marijuana Dispensary"
		]
	},
	{
		"date": "2017-11-24T16:53:05.000Z",
		"name": "Eetcafé Van Beeren",
		"id": "4b2d1a84f964a5205dce24e3",
		"lat": 52.372044,
		"lng": 4.9022946,
		"address": "Koningsstraat 54",
		"city": "Amsterdam",
		"country": "Nederland",
		"categories": [
			"Gastropub",
			"Café"
		]
	},
	{
		"date": "2017-11-24T21:18:57.000Z",
		"name": "Café Verhoeff",
		"id": "4a26ff78f964a520d77f1fe3",
		"lat": 52.375828941803846,
		"lng": 4.9003636884854656,
		"address": "Zeedijk 12",
		"postalCode": "1012 AX",
		"city": "Amsterdam",
		"country": "Nederland",
		"categories": [
			"Bar"
		]
	},
	{
		"date": "2017-11-24T21:47:21.000Z",
		"name": "Amsterdam Central Railway Station (Station Amsterdam Centraal)",
		"id": "4a688ba1f964a52088ca1fe3",
		"lat": 52.37878224866535,
		"lng": 4.900374412536621,
		"address": "Stationsplein 15",
		"postalCode": "1012 AB",
		"city": "Amsterdam",
		"country": "Nederland",
		"categories": [
			"Train Station"
		]
	},
	{
		"date": "2017-11-24T22:22:11.000Z",
		"name": "Station Haarlem",
		"id": "4a8c3036f964a5203a0d20e3",
		"lat": 52.38801057573046,
		"lng": 4.638713550666082,
		"address": "Stationsplein 11 L",
		"postalCode": "2011 LR",
		"city": "Haarlem",
		"country": "Nederland",
		"categories": [
			"Train Station"
		]
	},
	{
		"date": "2017-11-25T17:38:03.000Z",
		"name": "Eten Bij Mama",
		"id": "595f9fa69ec399064abf2455",
		"lat": 52.363451,
		"lng": 4.839733,
		"address": "August Allebéplein",
		"postalCode": "1062 AC",
		"city": "Amsterdam",
		"country": "Nederland",
		"categories": [
			"Restaurant"
		]
	},
	{
		"date": "2017-11-26T00:16:08.000Z",
		"name": "Station Amsterdam Lelylaan",
		"id": "4a5623d8f964a52082b41fe3",
		"lat": 52.3576430497755,
		"lng": 4.834193002208261,
		"address": "Cornelis Lelylaan 35",
		"postalCode": "1062 AD",
		"city": "Amsterdam",
		"country": "Nederland",
		"categories": [
			"Train Station"
		]
	},
	{
		"date": "2017-11-26T00:33:39.000Z",
		"name": "Amsterdam Sloterdijk Station (Station Amsterdam Sloterdijk)",
		"id": "4a56245ff964a52085b41fe3",
		"lat": 52.38899431620469,
		"lng": 4.837957990409058,
		"address": "Orlyplein 105",
		"postalCode": "1043 DT",
		"city": "Amsterdam",
		"country": "Nederland",
		"categories": [
			"Train Station"
		]
	},
	{
		"date": "2017-11-26T15:40:50.000Z",
		"name": "Albert Heijn to go",
		"id": "4b862ee0f964a520038231e3",
		"lat": 52.38851437453483,
		"lng": 4.639542485412089,
		"address": "Stationsplein 14",
		"postalCode": "2011 LR",
		"city": "Haarlem",
		"country": "Nederland",
		"categories": [
			"Convenience Store"
		]
	},
	{
		"date": "2017-11-26T17:19:32.000Z",
		"name": "Cotton Candy Residence 10",
		"id": "58cd4fe316f000799f4cf4f4",
		"lat": 52.392946926098126,
		"lng": 4.640537129468235,
		"city": "Haarlem",
		"country": "Nederland",
		"categories": [
			"Home (private)"
		]
	},
	{
		"date": "2017-11-27T06:58:10.000Z",
		"name": "Station Haarlem",
		"id": "4a8c3036f964a5203a0d20e3",
		"lat": 52.38801057573046,
		"lng": 4.638713550666082,
		"address": "Stationsplein 11 L",
		"postalCode": "2011 LR",
		"city": "Haarlem",
		"country": "Nederland",
		"categories": [
			"Train Station"
		]
	},
	{
		"date": "2017-11-27T07:32:54.000Z",
		"name": "Amsterdam Central Railway Station (Station Amsterdam Centraal)",
		"id": "4a688ba1f964a52088ca1fe3",
		"lat": 52.37878224866535,
		"lng": 4.900374412536621,
		"address": "Stationsplein 15",
		"postalCode": "1012 AB",
		"city": "Amsterdam",
		"country": "Nederland",
		"categories": [
			"Train Station"
		]
	},
	{
		"date": "2017-11-27T07:45:23.000Z",
		"name": "WeWork Metropool",
		"id": "56a14a68498e77945ee2ced1",
		"lat": 52.36480793621647,
		"lng": 4.906191453337669,
		"address": "Weesperstraat 61",
		"postalCode": "1018 VN",
		"city": "Amsterdam",
		"country": "Nederland",
		"categories": [
			"Coworking Space",
			"Business Service"
		]
	},
	{
		"date": "2017-11-27T17:27:04.000Z",
		"name": "Cannibale Royale",
		"id": "5336fe68498e18d7e65f5803",
		"lat": 52.36794577878491,
		"lng": 4.8902845625146085,
		"address": "Handboogstraat 17-A",
		"postalCode": "1012 XM",
		"city": "Amsterdam",
		"country": "Nederland",
		"categories": [
			"Burger Joint",
			"Steakhouse"
		]
	},
	{
		"date": "2017-11-27T19:08:43.000Z",
		"name": "Amsterdam Central Railway Station (Station Amsterdam Centraal)",
		"id": "4a688ba1f964a52088ca1fe3",
		"lat": 52.37878224866535,
		"lng": 4.900374412536621,
		"address": "Stationsplein 15",
		"postalCode": "1012 AB",
		"city": "Amsterdam",
		"country": "Nederland",
		"categories": [
			"Train Station"
		]
	},
	{
		"date": "2017-11-28T07:12:12.000Z",
		"name": "Station Haarlem",
		"id": "4a8c3036f964a5203a0d20e3",
		"lat": 52.38801057573046,
		"lng": 4.638713550666082,
		"address": "Stationsplein 11 L",
		"postalCode": "2011 LR",
		"city": "Haarlem",
		"country": "Nederland",
		"categories": [
			"Train Station"
		]
	},
	{
		"date": "2017-11-28T07:35:52.000Z",
		"name": "Amsterdam Central Railway Station (Station Amsterdam Centraal)",
		"id": "4a688ba1f964a52088ca1fe3",
		"lat": 52.37878224866535,
		"lng": 4.900374412536621,
		"address": "Stationsplein 15",
		"postalCode": "1012 AB",
		"city": "Amsterdam",
		"country": "Nederland",
		"categories": [
			"Train Station"
		]
	},
	{
		"date": "2017-11-28T07:58:43.000Z",
		"name": "WeWork Metropool",
		"id": "56a14a68498e77945ee2ced1",
		"lat": 52.36480793621647,
		"lng": 4.906191453337669,
		"address": "Weesperstraat 61",
		"postalCode": "1018 VN",
		"city": "Amsterdam",
		"country": "Nederland",
		"categories": [
			"Coworking Space",
			"Business Service"
		]
	},
	{
		"date": "2017-11-28T18:21:43.000Z",
		"name": "Coffeeshop Empire",
		"id": "4f456530e4b0ab39f4753142",
		"lat": 52.38313859457307,
		"lng": 4.635085685753684,
		"address": "Krocht 8",
		"postalCode": "2011 PT",
		"city": "Haarlem",
		"country": "Nederland",
		"categories": [
			"Marijuana Dispensary"
		]
	},
	{
		"date": "2017-11-29T07:03:11.000Z",
		"name": "Cotton Candy Residence 10",
		"id": "58cd4fe316f000799f4cf4f4",
		"lat": 52.392946926098126,
		"lng": 4.640537129468235,
		"city": "Haarlem",
		"country": "Nederland",
		"categories": [
			"Home (private)"
		]
	},
	{
		"date": "2017-11-29T07:09:54.000Z",
		"name": "Station Haarlem",
		"id": "4a8c3036f964a5203a0d20e3",
		"lat": 52.38801057573046,
		"lng": 4.638713550666082,
		"address": "Stationsplein 11 L",
		"postalCode": "2011 LR",
		"city": "Haarlem",
		"country": "Nederland",
		"categories": [
			"Train Station"
		]
	},
	{
		"date": "2017-11-29T07:27:59.000Z",
		"name": "Amsterdam Central Railway Station (Station Amsterdam Centraal)",
		"id": "4a688ba1f964a52088ca1fe3",
		"lat": 52.37878224866535,
		"lng": 4.900374412536621,
		"address": "Stationsplein 15",
		"postalCode": "1012 AB",
		"city": "Amsterdam",
		"country": "Nederland",
		"categories": [
			"Train Station"
		]
	},
	{
		"date": "2017-11-29T09:21:49.000Z",
		"name": "WeWork Metropool",
		"id": "56a14a68498e77945ee2ced1",
		"lat": 52.36480793621647,
		"lng": 4.906191453337669,
		"address": "Weesperstraat 61",
		"postalCode": "1018 VN",
		"city": "Amsterdam",
		"country": "Nederland",
		"categories": [
			"Coworking Space",
			"Business Service"
		]
	},
	{
		"date": "2017-11-29T15:55:21.000Z",
		"name": "Spaces Vijzelstraat",
		"id": "53dbb5ac498e6037bf8d3f29",
		"lat": 52.3634,
		"lng": 4.89199,
		"address": "Vijzelstraat 68-78",
		"postalCode": "1017 HL",
		"city": "Amsterdam",
		"country": "Nederland",
		"categories": [
			"Coworking Space"
		]
	},
	{
		"date": "2017-11-29T15:55:30.000Z",
		"name": "BESTSELLER e-commerce",
		"id": "55f67ead498e28b2ea193bf0",
		"lat": 52.36266109174091,
		"lng": 4.891787006502593,
		"address": "Sint Jorissteeg 2",
		"city": "Amsterdam",
		"country": "Nederland",
		"categories": [
			"Office"
		]
	},
	{
		"date": "2017-11-29T18:27:15.000Z",
		"name": "Amsterdam Central Railway Station (Station Amsterdam Centraal)",
		"id": "4a688ba1f964a52088ca1fe3",
		"lat": 52.37878224866535,
		"lng": 4.900374412536621,
		"address": "Stationsplein 15",
		"postalCode": "1012 AB",
		"city": "Amsterdam",
		"country": "Nederland",
		"categories": [
			"Train Station"
		]
	},
	{
		"date": "2017-11-29T18:50:03.000Z",
		"name": "Station Haarlem",
		"id": "4a8c3036f964a5203a0d20e3",
		"lat": 52.38801057573046,
		"lng": 4.638713550666082,
		"address": "Stationsplein 11 L",
		"postalCode": "2011 LR",
		"city": "Haarlem",
		"country": "Nederland",
		"categories": [
			"Train Station"
		]
	},
	{
		"date": "2017-11-30T07:23:47.000Z",
		"name": "Station Haarlem",
		"id": "4a8c3036f964a5203a0d20e3",
		"lat": 52.38801057573046,
		"lng": 4.638713550666082,
		"address": "Stationsplein 11 L",
		"postalCode": "2011 LR",
		"city": "Haarlem",
		"country": "Nederland",
		"categories": [
			"Train Station"
		]
	},
	{
		"date": "2017-11-30T07:41:43.000Z",
		"name": "Amsterdam Central Railway Station (Station Amsterdam Centraal)",
		"id": "4a688ba1f964a52088ca1fe3",
		"lat": 52.37878224866535,
		"lng": 4.900374412536621,
		"address": "Stationsplein 15",
		"postalCode": "1012 AB",
		"city": "Amsterdam",
		"country": "Nederland",
		"categories": [
			"Train Station"
		]
	},
	{
		"date": "2017-11-30T11:03:43.000Z",
		"name": "Water & Brood",
		"id": "590c4ecfcad1b67f0cc84943",
		"lat": 52.36423552187337,
		"lng": 4.905926229851091,
		"address": "Nieuwe Kerkstraat 84",
		"postalCode": "1018 EC",
		"city": "Amsterdam",
		"country": "Nederland",
		"categories": [
			"Breakfast Spot"
		]
	},
	{
		"date": "2017-11-30T17:05:04.000Z",
		"name": "Booking.com",
		"id": "4f26d4757716589cee7b3b1d",
		"lat": 52.36568881476445,
		"lng": 4.898011665611447,
		"address": "Herengracht 597",
		"postalCode": "1017 CE",
		"city": "Amsterdam",
		"country": "Nederland",
		"categories": [
			"Office"
		]
	},
	{
		"date": "2017-11-30T20:45:46.000Z",
		"name": "Station Haarlem",
		"id": "4a8c3036f964a5203a0d20e3",
		"lat": 52.38801057573046,
		"lng": 4.638713550666082,
		"address": "Stationsplein 11 L",
		"postalCode": "2011 LR",
		"city": "Haarlem",
		"country": "Nederland",
		"categories": [
			"Train Station"
		]
	}
]