[
	{
		"date": "2017-08-01T06:12:40.000Z",
		"name": "Station Haarlem",
		"id": "4a8c3036f964a5203a0d20e3",
		"lat": 52.38801057573046,
		"lng": 4.638713550666082,
		"address": "Stationsplein 11 L",
		"postalCode": "2011 LR",
		"city": "Haarlem",
		"country": "Nederland",
		"categories": [
			"Train Station"
		]
	},
	{
		"date": "2017-08-01T06:35:10.000Z",
		"name": "Amsterdam Central Railway Station (Station Amsterdam Centraal)",
		"id": "4a688ba1f964a52088ca1fe3",
		"lat": 52.37878224866535,
		"lng": 4.900374412536621,
		"address": "Stationsplein 15",
		"postalCode": "1012 AB",
		"city": "Amsterdam",
		"country": "Nederland",
		"categories": [
			"Train Station"
		]
	},
	{
		"date": "2017-08-01T06:49:01.000Z",
		"name": "WeWork Metropool",
		"id": "56a14a68498e77945ee2ced1",
		"lat": 52.36480793621647,
		"lng": 4.906191453337669,
		"address": "Weesperstraat 61",
		"postalCode": "1018 VN",
		"city": "Amsterdam",
		"country": "Nederland",
		"categories": [
			"Coworking Space",
			"Business Service"
		]
	},
	{
		"date": "2017-08-01T10:54:03.000Z",
		"name": "Loetje Oost",
		"id": "5062d84be4b0857a7eef4f25",
		"lat": 52.35715675681808,
		"lng": 4.90808401799727,
		"address": "Ruyschstraat 15",
		"postalCode": "1091 BR",
		"city": "Amsterdam",
		"country": "Nederland",
		"categories": [
			"Steakhouse"
		]
	},
	{
		"date": "2017-08-01T16:50:57.000Z",
		"name": "Amsterdam Central Railway Station (Station Amsterdam Centraal)",
		"id": "4a688ba1f964a52088ca1fe3",
		"lat": 52.37878224866535,
		"lng": 4.900374412536621,
		"address": "Stationsplein 15",
		"postalCode": "1012 AB",
		"city": "Amsterdam",
		"country": "Nederland",
		"categories": [
			"Train Station"
		]
	},
	{
		"date": "2017-08-01T17:13:46.000Z",
		"name": "Station Haarlem",
		"id": "4a8c3036f964a5203a0d20e3",
		"lat": 52.38801057573046,
		"lng": 4.638713550666082,
		"address": "Stationsplein 11 L",
		"postalCode": "2011 LR",
		"city": "Haarlem",
		"country": "Nederland",
		"categories": [
			"Train Station"
		]
	},
	{
		"date": "2017-08-01T19:07:42.000Z",
		"name": "Cotton Candy Residence 10",
		"id": "58cd4fe316f000799f4cf4f4",
		"lat": 52.392946926098126,
		"lng": 4.640537129468235,
		"city": "Haarlem",
		"country": "Nederland",
		"categories": [
			"Home (private)"
		]
	},
	{
		"date": "2017-08-02T05:19:34.000Z",
		"name": "Station Haarlem",
		"id": "4a8c3036f964a5203a0d20e3",
		"lat": 52.38801057573046,
		"lng": 4.638713550666082,
		"address": "Stationsplein 11 L",
		"postalCode": "2011 LR",
		"city": "Haarlem",
		"country": "Nederland",
		"categories": [
			"Train Station"
		]
	},
	{
		"date": "2017-08-02T05:39:35.000Z",
		"name": "Amsterdam Central Railway Station (Station Amsterdam Centraal)",
		"id": "4a688ba1f964a52088ca1fe3",
		"lat": 52.37878224866535,
		"lng": 4.900374412536621,
		"address": "Stationsplein 15",
		"postalCode": "1012 AB",
		"city": "Amsterdam",
		"country": "Nederland",
		"categories": [
			"Train Station"
		]
	},
	{
		"date": "2017-08-02T05:57:10.000Z",
		"name": "SportCity",
		"id": "4a835233f964a520c6fa1fe3",
		"lat": 52.368877125084026,
		"lng": 4.900798968515201,
		"address": "Jodenbreestraat 6",
		"postalCode": "1011NK",
		"city": "Amsterdam",
		"country": "Nederland",
		"categories": [
			"Gym",
			"Gym / Fitness Center"
		]
	},
	{
		"date": "2017-08-02T06:54:50.000Z",
		"name": "WeWork Metropool",
		"id": "56a14a68498e77945ee2ced1",
		"lat": 52.36480793621647,
		"lng": 4.906191453337669,
		"address": "Weesperstraat 61",
		"postalCode": "1018 VN",
		"city": "Amsterdam",
		"country": "Nederland",
		"categories": [
			"Coworking Space",
			"Business Service"
		]
	},
	{
		"date": "2017-08-02T09:44:57.000Z",
		"name": "SPAR city Van Kempen",
		"id": "4b4c4089f964a52022b026e3",
		"lat": 52.36421961630775,
		"lng": 4.9056606671851295,
		"address": "Nieuwe Kerkstraat 65",
		"postalCode": "1018 DZ",
		"city": "Amsterdam",
		"country": "Nederland",
		"categories": [
			"Convenience Store",
			"Supermarket",
			"Grocery Store"
		]
	},
	{
		"date": "2017-08-02T16:48:08.000Z",
		"name": "Amsterdam Central Railway Station (Station Amsterdam Centraal)",
		"id": "4a688ba1f964a52088ca1fe3",
		"lat": 52.37878224866535,
		"lng": 4.900374412536621,
		"address": "Stationsplein 15",
		"postalCode": "1012 AB",
		"city": "Amsterdam",
		"country": "Nederland",
		"categories": [
			"Train Station"
		]
	},
	{
		"date": "2017-08-02T17:14:19.000Z",
		"name": "Station Haarlem",
		"id": "4a8c3036f964a5203a0d20e3",
		"lat": 52.38801057573046,
		"lng": 4.638713550666082,
		"address": "Stationsplein 11 L",
		"postalCode": "2011 LR",
		"city": "Haarlem",
		"country": "Nederland",
		"categories": [
			"Train Station"
		]
	},
	{
		"date": "2017-08-03T06:03:46.000Z",
		"name": "Station Haarlem",
		"id": "4a8c3036f964a5203a0d20e3",
		"lat": 52.38801057573046,
		"lng": 4.638713550666082,
		"address": "Stationsplein 11 L",
		"postalCode": "2011 LR",
		"city": "Haarlem",
		"country": "Nederland",
		"categories": [
			"Train Station"
		]
	},
	{
		"date": "2017-08-03T06:26:50.000Z",
		"name": "Amsterdam Central Railway Station (Station Amsterdam Centraal)",
		"id": "4a688ba1f964a52088ca1fe3",
		"lat": 52.37878224866535,
		"lng": 4.900374412536621,
		"address": "Stationsplein 15",
		"postalCode": "1012 AB",
		"city": "Amsterdam",
		"country": "Nederland",
		"categories": [
			"Train Station"
		]
	},
	{
		"date": "2017-08-03T09:52:02.000Z",
		"name": "WeWork Metropool",
		"id": "56a14a68498e77945ee2ced1",
		"lat": 52.36480793621647,
		"lng": 4.906191453337669,
		"address": "Weesperstraat 61",
		"postalCode": "1018 VN",
		"city": "Amsterdam",
		"country": "Nederland",
		"categories": [
			"Coworking Space",
			"Business Service"
		]
	},
	{
		"date": "2017-08-03T11:11:54.000Z",
		"name": "Salsa Shop",
		"id": "53c3ca66498ea876ac0e1349",
		"lat": 52.36622550874323,
		"lng": 4.899968972243181,
		"address": "Amstelstraat 32A",
		"postalCode": "1017 DA",
		"city": "Amsterdam",
		"country": "Nederland",
		"categories": [
			"Mexican Restaurant"
		]
	},
	{
		"date": "2017-08-03T15:36:15.000Z",
		"name": "Docler Holding Amsterdam",
		"id": "58b684db52a051661da12674",
		"lat": 52.36505739184381,
		"lng": 4.906015988886142,
		"address": "Weespertraat 61",
		"postalCode": "1018 VN",
		"city": "Amsterdam",
		"country": "Nederland",
		"categories": [
			"Tech Startup"
		]
	},
	{
		"date": "2017-08-03T16:53:44.000Z",
		"name": "Amsterdam Central Railway Station (Station Amsterdam Centraal)",
		"id": "4a688ba1f964a52088ca1fe3",
		"lat": 52.37878224866535,
		"lng": 4.900374412536621,
		"address": "Stationsplein 15",
		"postalCode": "1012 AB",
		"city": "Amsterdam",
		"country": "Nederland",
		"categories": [
			"Train Station"
		]
	},
	{
		"date": "2017-08-03T17:19:51.000Z",
		"name": "Station Haarlem",
		"id": "4a8c3036f964a5203a0d20e3",
		"lat": 52.38801057573046,
		"lng": 4.638713550666082,
		"address": "Stationsplein 11 L",
		"postalCode": "2011 LR",
		"city": "Haarlem",
		"country": "Nederland",
		"categories": [
			"Train Station"
		]
	},
	{
		"date": "2017-08-03T19:25:11.000Z",
		"name": "Cotton Candy Residence 10",
		"id": "58cd4fe316f000799f4cf4f4",
		"lat": 52.392946926098126,
		"lng": 4.640537129468235,
		"city": "Haarlem",
		"country": "Nederland",
		"categories": [
			"Home (private)"
		]
	},
	{
		"date": "2017-08-04T05:58:53.000Z",
		"name": "Station Haarlem",
		"id": "4a8c3036f964a5203a0d20e3",
		"lat": 52.38801057573046,
		"lng": 4.638713550666082,
		"address": "Stationsplein 11 L",
		"postalCode": "2011 LR",
		"city": "Haarlem",
		"country": "Nederland",
		"categories": [
			"Train Station"
		]
	},
	{
		"date": "2017-08-04T06:25:52.000Z",
		"name": "Amsterdam Central Railway Station (Station Amsterdam Centraal)",
		"id": "4a688ba1f964a52088ca1fe3",
		"lat": 52.37878224866535,
		"lng": 4.900374412536621,
		"address": "Stationsplein 15",
		"postalCode": "1012 AB",
		"city": "Amsterdam",
		"country": "Nederland",
		"categories": [
			"Train Station"
		]
	},
	{
		"date": "2017-08-04T06:48:20.000Z",
		"name": "WeWork Metropool",
		"id": "56a14a68498e77945ee2ced1",
		"lat": 52.36480793621647,
		"lng": 4.906191453337669,
		"address": "Weesperstraat 61",
		"postalCode": "1018 VN",
		"city": "Amsterdam",
		"country": "Nederland",
		"categories": [
			"Coworking Space",
			"Business Service"
		]
	},
	{
		"date": "2017-08-04T16:00:19.000Z",
		"name": "adidas Originals Store Amsterdam",
		"id": "4b55e4e0f964a52000f527e3",
		"lat": 52.36642118094936,
		"lng": 4.887737184762955,
		"address": "Leidsestraat 7",
		"postalCode": "1017 NS",
		"city": "Amsterdam",
		"country": "Nederland",
		"categories": [
			"Sporting Goods Shop"
		]
	},
	{
		"date": "2017-08-04T16:32:28.000Z",
		"name": "Albert Heijn",
		"id": "4b153455f964a5204fa923e3",
		"lat": 52.36374560760827,
		"lng": 4.837707522097771,
		"address": "August Allebéplein 12",
		"postalCode": "1062 AC",
		"city": "Amsterdam",
		"country": "Nederland",
		"categories": [
			"Supermarket"
		]
	},
	{
		"date": "2017-08-04T22:39:52.000Z",
		"name": "Metrostation Postjesweg",
		"id": "4b176901f964a52053c523e3",
		"lat": 52.36451392747967,
		"lng": 4.833916204451173,
		"address": "Postjesweg",
		"city": "Amsterdam",
		"country": "Nederland",
		"categories": [
			"Metro Station"
		]
	},
	{
		"date": "2017-08-04T22:56:32.000Z",
		"name": "Amsterdam Sloterdijk Station (Station Amsterdam Sloterdijk)",
		"id": "4a56245ff964a52085b41fe3",
		"lat": 52.38899431620469,
		"lng": 4.837957990409058,
		"address": "Orlyplein 105",
		"postalCode": "1043 DT",
		"city": "Amsterdam",
		"country": "Nederland",
		"categories": [
			"Train Station"
		]
	},
	{
		"date": "2017-08-04T23:21:14.000Z",
		"name": "Station Haarlem",
		"id": "4a8c3036f964a5203a0d20e3",
		"lat": 52.38801057573046,
		"lng": 4.638713550666082,
		"address": "Stationsplein 11 L",
		"postalCode": "2011 LR",
		"city": "Haarlem",
		"country": "Nederland",
		"categories": [
			"Train Station"
		]
	},
	{
		"date": "2017-08-05T11:57:05.000Z",
		"name": "Station Haarlem",
		"id": "4a8c3036f964a5203a0d20e3",
		"lat": 52.38801057573046,
		"lng": 4.638713550666082,
		"address": "Stationsplein 11 L",
		"postalCode": "2011 LR",
		"city": "Haarlem",
		"country": "Nederland",
		"categories": [
			"Train Station"
		]
	},
	{
		"date": "2017-08-05T12:00:14.000Z",
		"name": "Station Haarlem",
		"id": "4a8c3036f964a5203a0d20e3",
		"lat": 52.38801057573046,
		"lng": 4.638713550666082,
		"address": "Stationsplein 11 L",
		"postalCode": "2011 LR",
		"city": "Haarlem",
		"country": "Nederland",
		"categories": [
			"Train Station"
		]
	},
	{
		"date": "2017-08-05T12:21:35.000Z",
		"name": "Amsterdam Central Railway Station (Station Amsterdam Centraal)",
		"id": "4a688ba1f964a52088ca1fe3",
		"lat": 52.37878224866535,
		"lng": 4.900374412536621,
		"address": "Stationsplein 15",
		"postalCode": "1012 AB",
		"city": "Amsterdam",
		"country": "Nederland",
		"categories": [
			"Train Station"
		]
	},
	{
		"date": "2017-08-05T13:28:52.000Z",
		"name": "Amsterdam Central Railway Station (Station Amsterdam Centraal)",
		"id": "4a688ba1f964a52088ca1fe3",
		"lat": 52.37878224866535,
		"lng": 4.900374412536621,
		"address": "Stationsplein 15",
		"postalCode": "1012 AB",
		"city": "Amsterdam",
		"country": "Nederland",
		"categories": [
			"Train Station"
		]
	},
	{
		"date": "2017-08-05T13:29:04.000Z",
		"name": "Apple Amsterdam",
		"id": "4f3a6a34a17c224158ecd541",
		"lat": 52.3636211,
		"lng": 4.8825689,
		"address": "Leidseplein 25",
		"postalCode": "1017 PS",
		"city": "Amsterdam",
		"country": "Nederland",
		"categories": [
			"Electronics Store",
			"Other Repair Shop",
			"Mobile Phone Shop"
		]
	},
	{
		"date": "2017-08-05T13:37:22.000Z",
		"name": "Leidseplein",
		"id": "4a47d9d4f964a5202faa1fe3",
		"lat": 52.36420906224259,
		"lng": 4.882840965291386,
		"address": "Leidseplein",
		"postalCode": "1017",
		"city": "Amsterdam",
		"country": "Nederland",
		"categories": [
			"Plaza"
		]
	},
	{
		"date": "2017-08-05T13:55:00.000Z",
		"name": "Episode",
		"id": "4b6d9cd3f964a5203e802ce3",
		"lat": 52.37030337260743,
		"lng": 4.884230196475983,
		"address": "Berenstraat 1",
		"postalCode": "1016 GG",
		"city": "Amsterdam",
		"country": "Nederland",
		"categories": [
			"Thrift / Vintage Store",
			"Clothing Store"
		]
	},
	{
		"date": "2017-08-05T14:41:10.000Z",
		"name": "Amsterdam Central Railway Station (Station Amsterdam Centraal)",
		"id": "4a688ba1f964a52088ca1fe3",
		"lat": 52.37878224866535,
		"lng": 4.900374412536621,
		"address": "Stationsplein 15",
		"postalCode": "1012 AB",
		"city": "Amsterdam",
		"country": "Nederland",
		"categories": [
			"Train Station"
		]
	},
	{
		"date": "2017-08-05T15:05:21.000Z",
		"name": "Station Haarlem",
		"id": "4a8c3036f964a5203a0d20e3",
		"lat": 52.38801057573046,
		"lng": 4.638713550666082,
		"address": "Stationsplein 11 L",
		"postalCode": "2011 LR",
		"city": "Haarlem",
		"country": "Nederland",
		"categories": [
			"Train Station"
		]
	},
	{
		"date": "2017-08-05T15:46:22.000Z",
		"name": "Smaczek Supermarkt",
		"id": "51a8ce66498e2a3950a1f59a",
		"lat": 52.38538961759218,
		"lng": 4.623798493293825,
		"address": "Zijlweg 97",
		"city": "Haarlem",
		"country": "Nederland",
		"categories": [
			"Grocery Store"
		]
	},
	{
		"date": "2017-08-06T07:49:52.000Z",
		"name": "Cotton Candy Residence 10",
		"id": "58cd4fe316f000799f4cf4f4",
		"lat": 52.392946926098126,
		"lng": 4.640537129468235,
		"city": "Haarlem",
		"country": "Nederland",
		"categories": [
			"Home (private)"
		]
	},
	{
		"date": "2017-08-07T05:36:09.000Z",
		"name": "Amsterdam Central Railway Station (Station Amsterdam Centraal)",
		"id": "4a688ba1f964a52088ca1fe3",
		"lat": 52.37878224866535,
		"lng": 4.900374412536621,
		"address": "Stationsplein 15",
		"postalCode": "1012 AB",
		"city": "Amsterdam",
		"country": "Nederland",
		"categories": [
			"Train Station"
		]
	},
	{
		"date": "2017-08-07T05:54:20.000Z",
		"name": "SportCity",
		"id": "4a835233f964a520c6fa1fe3",
		"lat": 52.368877125084026,
		"lng": 4.900798968515201,
		"address": "Jodenbreestraat 6",
		"postalCode": "1011NK",
		"city": "Amsterdam",
		"country": "Nederland",
		"categories": [
			"Gym",
			"Gym / Fitness Center"
		]
	},
	{
		"date": "2017-08-07T07:15:43.000Z",
		"name": "WeWork Metropool",
		"id": "56a14a68498e77945ee2ced1",
		"lat": 52.36480793621647,
		"lng": 4.906191453337669,
		"address": "Weesperstraat 61",
		"postalCode": "1018 VN",
		"city": "Amsterdam",
		"country": "Nederland",
		"categories": [
			"Coworking Space",
			"Business Service"
		]
	},
	{
		"date": "2017-08-07T17:21:16.000Z",
		"name": "Amsterdam Central Railway Station (Station Amsterdam Centraal)",
		"id": "4a688ba1f964a52088ca1fe3",
		"lat": 52.37878224866535,
		"lng": 4.900374412536621,
		"address": "Stationsplein 15",
		"postalCode": "1012 AB",
		"city": "Amsterdam",
		"country": "Nederland",
		"categories": [
			"Train Station"
		]
	},
	{
		"date": "2017-08-07T17:44:10.000Z",
		"name": "Station Haarlem",
		"id": "4a8c3036f964a5203a0d20e3",
		"lat": 52.38801057573046,
		"lng": 4.638713550666082,
		"address": "Stationsplein 11 L",
		"postalCode": "2011 LR",
		"city": "Haarlem",
		"country": "Nederland",
		"categories": [
			"Train Station"
		]
	},
	{
		"date": "2017-08-07T18:25:05.000Z",
		"name": "Cotton Candy Residence 10",
		"id": "58cd4fe316f000799f4cf4f4",
		"lat": 52.392946926098126,
		"lng": 4.640537129468235,
		"city": "Haarlem",
		"country": "Nederland",
		"categories": [
			"Home (private)"
		]
	},
	{
		"date": "2017-08-08T06:25:56.000Z",
		"name": "Amsterdam Central Railway Station (Station Amsterdam Centraal)",
		"id": "4a688ba1f964a52088ca1fe3",
		"lat": 52.37878224866535,
		"lng": 4.900374412536621,
		"address": "Stationsplein 15",
		"postalCode": "1012 AB",
		"city": "Amsterdam",
		"country": "Nederland",
		"categories": [
			"Train Station"
		]
	},
	{
		"date": "2017-08-08T06:52:30.000Z",
		"name": "WeWork Metropool",
		"id": "56a14a68498e77945ee2ced1",
		"lat": 52.36480793621647,
		"lng": 4.906191453337669,
		"address": "Weesperstraat 61",
		"postalCode": "1018 VN",
		"city": "Amsterdam",
		"country": "Nederland",
		"categories": [
			"Coworking Space",
			"Business Service"
		]
	},
	{
		"date": "2017-08-08T09:54:29.000Z",
		"name": "Water & Brood",
		"id": "590c4ecfcad1b67f0cc84943",
		"lat": 52.36423552187337,
		"lng": 4.905926229851091,
		"address": "Nieuwe Kerkstraat 84",
		"postalCode": "1018 EC",
		"city": "Amsterdam",
		"country": "Nederland",
		"categories": [
			"Breakfast Spot"
		]
	},
	{
		"date": "2017-08-08T16:35:10.000Z",
		"name": "Station Haarlem",
		"id": "4a8c3036f964a5203a0d20e3",
		"lat": 52.38801057573046,
		"lng": 4.638713550666082,
		"address": "Stationsplein 11 L",
		"postalCode": "2011 LR",
		"city": "Haarlem",
		"country": "Nederland",
		"categories": [
			"Train Station"
		]
	},
	{
		"date": "2017-08-09T05:02:19.000Z",
		"name": "Station Haarlem",
		"id": "4a8c3036f964a5203a0d20e3",
		"lat": 52.38801057573046,
		"lng": 4.638713550666082,
		"address": "Stationsplein 11 L",
		"postalCode": "2011 LR",
		"city": "Haarlem",
		"country": "Nederland",
		"categories": [
			"Train Station"
		]
	},
	{
		"date": "2017-08-09T05:25:19.000Z",
		"name": "Amsterdam Central Railway Station (Station Amsterdam Centraal)",
		"id": "4a688ba1f964a52088ca1fe3",
		"lat": 52.37878224866535,
		"lng": 4.900374412536621,
		"address": "Stationsplein 15",
		"postalCode": "1012 AB",
		"city": "Amsterdam",
		"country": "Nederland",
		"categories": [
			"Train Station"
		]
	},
	{
		"date": "2017-08-09T05:39:04.000Z",
		"name": "SportCity",
		"id": "4a835233f964a520c6fa1fe3",
		"lat": 52.368877125084026,
		"lng": 4.900798968515201,
		"address": "Jodenbreestraat 6",
		"postalCode": "1011NK",
		"city": "Amsterdam",
		"country": "Nederland",
		"categories": [
			"Gym",
			"Gym / Fitness Center"
		]
	},
	{
		"date": "2017-08-09T07:44:27.000Z",
		"name": "WeWork Metropool",
		"id": "56a14a68498e77945ee2ced1",
		"lat": 52.36480793621647,
		"lng": 4.906191453337669,
		"address": "Weesperstraat 61",
		"postalCode": "1018 VN",
		"city": "Amsterdam",
		"country": "Nederland",
		"categories": [
			"Coworking Space",
			"Business Service"
		]
	},
	{
		"date": "2017-08-09T16:04:25.000Z",
		"name": "Amsterdam Central Railway Station (Station Amsterdam Centraal)",
		"id": "4a688ba1f964a52088ca1fe3",
		"lat": 52.37878224866535,
		"lng": 4.900374412536621,
		"address": "Stationsplein 15",
		"postalCode": "1012 AB",
		"city": "Amsterdam",
		"country": "Nederland",
		"categories": [
			"Train Station"
		]
	},
	{
		"date": "2017-08-09T17:09:41.000Z",
		"name": "Station Haarlem",
		"id": "4a8c3036f964a5203a0d20e3",
		"lat": 52.38801057573046,
		"lng": 4.638713550666082,
		"address": "Stationsplein 11 L",
		"postalCode": "2011 LR",
		"city": "Haarlem",
		"country": "Nederland",
		"categories": [
			"Train Station"
		]
	},
	{
		"date": "2017-08-09T19:13:51.000Z",
		"name": "Woodstone Pizza And Wine",
		"id": "4d7ba00ef260a093c3922aba",
		"lat": 52.38142433800417,
		"lng": 4.629887062490495,
		"address": "Hortusplein 2",
		"postalCode": "2019 XV",
		"city": "Haarlem",
		"country": "Nederland",
		"categories": [
			"Pizza Place",
			"Wine Bar"
		]
	},
	{
		"date": "2017-08-10T06:09:05.000Z",
		"name": "Station Haarlem",
		"id": "4a8c3036f964a5203a0d20e3",
		"lat": 52.38801057573046,
		"lng": 4.638713550666082,
		"address": "Stationsplein 11 L",
		"postalCode": "2011 LR",
		"city": "Haarlem",
		"country": "Nederland",
		"categories": [
			"Train Station"
		]
	},
	{
		"date": "2017-08-10T06:24:18.000Z",
		"name": "Amsterdam Central Railway Station (Station Amsterdam Centraal)",
		"id": "4a688ba1f964a52088ca1fe3",
		"lat": 52.37878224866535,
		"lng": 4.900374412536621,
		"address": "Stationsplein 15",
		"postalCode": "1012 AB",
		"city": "Amsterdam",
		"country": "Nederland",
		"categories": [
			"Train Station"
		]
	},
	{
		"date": "2017-08-10T06:39:26.000Z",
		"name": "WeWork Metropool",
		"id": "56a14a68498e77945ee2ced1",
		"lat": 52.36480793621647,
		"lng": 4.906191453337669,
		"address": "Weesperstraat 61",
		"postalCode": "1018 VN",
		"city": "Amsterdam",
		"country": "Nederland",
		"categories": [
			"Coworking Space",
			"Business Service"
		]
	},
	{
		"date": "2017-08-10T16:45:49.000Z",
		"name": "Amsterdam Central Railway Station (Station Amsterdam Centraal)",
		"id": "4a688ba1f964a52088ca1fe3",
		"lat": 52.37878224866535,
		"lng": 4.900374412536621,
		"address": "Stationsplein 15",
		"postalCode": "1012 AB",
		"city": "Amsterdam",
		"country": "Nederland",
		"categories": [
			"Train Station"
		]
	},
	{
		"date": "2017-08-10T17:11:26.000Z",
		"name": "PvH Europe (Tommy Hilfiger & Calvin Klein)",
		"id": "577d25c9498efe0b44392a62",
		"lat": 52.40196459569873,
		"lng": 4.875307973888095,
		"address": "Danzigerkade 165",
		"postalCode": "1013 AC",
		"city": "Amsterdam",
		"country": "Nederland",
		"categories": [
			"Business Center"
		]
	},
	{
		"date": "2017-08-10T19:39:34.000Z",
		"name": "Amsterdam Central Railway Station (Station Amsterdam Centraal)",
		"id": "4a688ba1f964a52088ca1fe3",
		"lat": 52.37878224866535,
		"lng": 4.900374412536621,
		"address": "Stationsplein 15",
		"postalCode": "1012 AB",
		"city": "Amsterdam",
		"country": "Nederland",
		"categories": [
			"Train Station"
		]
	},
	{
		"date": "2017-08-10T20:05:57.000Z",
		"name": "Station Haarlem",
		"id": "4a8c3036f964a5203a0d20e3",
		"lat": 52.38801057573046,
		"lng": 4.638713550666082,
		"address": "Stationsplein 11 L",
		"postalCode": "2011 LR",
		"city": "Haarlem",
		"country": "Nederland",
		"categories": [
			"Train Station"
		]
	},
	{
		"date": "2017-08-10T20:08:22.000Z",
		"name": "The Döner Company",
		"id": "4d790928a56e37040e5d7567",
		"lat": 52.38817372624091,
		"lng": 4.63927902305991,
		"address": "Station Haarlem",
		"postalCode": "2011 LR",
		"city": "Haarlem",
		"country": "Nederland",
		"categories": [
			"Doner Restaurant",
			"Falafel Restaurant",
			"Kebab Restaurant"
		]
	},
	{
		"date": "2017-08-11T06:11:50.000Z",
		"name": "Station Haarlem",
		"id": "4a8c3036f964a5203a0d20e3",
		"lat": 52.38801057573046,
		"lng": 4.638713550666082,
		"address": "Stationsplein 11 L",
		"postalCode": "2011 LR",
		"city": "Haarlem",
		"country": "Nederland",
		"categories": [
			"Train Station"
		]
	},
	{
		"date": "2017-08-11T06:27:01.000Z",
		"name": "Amsterdam Central Railway Station (Station Amsterdam Centraal)",
		"id": "4a688ba1f964a52088ca1fe3",
		"lat": 52.37878224866535,
		"lng": 4.900374412536621,
		"address": "Stationsplein 15",
		"postalCode": "1012 AB",
		"city": "Amsterdam",
		"country": "Nederland",
		"categories": [
			"Train Station"
		]
	},
	{
		"date": "2017-08-11T08:43:07.000Z",
		"name": "WeWork Metropool",
		"id": "56a14a68498e77945ee2ced1",
		"lat": 52.36480793621647,
		"lng": 4.906191453337669,
		"address": "Weesperstraat 61",
		"postalCode": "1018 VN",
		"city": "Amsterdam",
		"country": "Nederland",
		"categories": [
			"Coworking Space",
			"Business Service"
		]
	},
	{
		"date": "2017-08-11T15:28:31.000Z",
		"name": "Amsterdam Central Railway Station (Station Amsterdam Centraal)",
		"id": "4a688ba1f964a52088ca1fe3",
		"lat": 52.37878224866535,
		"lng": 4.900374412536621,
		"address": "Stationsplein 15",
		"postalCode": "1012 AB",
		"city": "Amsterdam",
		"country": "Nederland",
		"categories": [
			"Train Station"
		]
	},
	{
		"date": "2017-08-11T15:49:30.000Z",
		"name": "Station Haarlem",
		"id": "4a8c3036f964a5203a0d20e3",
		"lat": 52.38801057573046,
		"lng": 4.638713550666082,
		"address": "Stationsplein 11 L",
		"postalCode": "2011 LR",
		"city": "Haarlem",
		"country": "Nederland",
		"categories": [
			"Train Station"
		]
	},
	{
		"date": "2017-08-11T20:19:07.000Z",
		"name": "Rotterdam Central Station (Station Rotterdam Centraal)",
		"id": "4ae19cc4f964a520678621e3",
		"lat": 51.92536602394011,
		"lng": 4.469021675569301,
		"address": "Stationssingel 10",
		"postalCode": "3013 HA",
		"city": "Rotterdam",
		"country": "Nederland",
		"categories": [
			"Train Station"
		]
	},
	{
		"date": "2017-08-12T08:01:44.000Z",
		"name": "Rotterdam Central Station (Station Rotterdam Centraal)",
		"id": "4ae19cc4f964a520678621e3",
		"lat": 51.92536602394011,
		"lng": 4.469021675569301,
		"address": "Stationssingel 10",
		"postalCode": "3013 HA",
		"city": "Rotterdam",
		"country": "Nederland",
		"categories": [
			"Train Station"
		]
	},
	{
		"date": "2017-08-12T08:25:58.000Z",
		"name": "Station Den Haag HS",
		"id": "4b4cb4cef964a52010bb26e3",
		"lat": 52.069526465311064,
		"lng": 4.321969398518046,
		"address": "Stationsplein 41",
		"postalCode": "2515 BV",
		"city": "Den Haag",
		"country": "Nederland",
		"categories": [
			"Train Station"
		]
	},
	{
		"date": "2017-08-12T08:41:18.000Z",
		"name": "Den Haag Centraal Railway Station (Station Den Haag Centraal)",
		"id": "4aeff0e3f964a52060da21e3",
		"lat": 52.08121937964098,
		"lng": 4.32461878275475,
		"address": "Koningin Julianaplein 10",
		"postalCode": "2595 AA",
		"city": "Den Haag",
		"country": "Nederland",
		"categories": [
			"Train Station"
		]
	},
	{
		"date": "2017-08-12T17:26:36.000Z",
		"name": "Station Haarlem",
		"id": "4a8c3036f964a5203a0d20e3",
		"lat": 52.38801057573046,
		"lng": 4.638713550666082,
		"address": "Stationsplein 11 L",
		"postalCode": "2011 LR",
		"city": "Haarlem",
		"country": "Nederland",
		"categories": [
			"Train Station"
		]
	},
	{
		"date": "2017-08-12T17:44:43.000Z",
		"name": "Station Haarlem",
		"id": "4a8c3036f964a5203a0d20e3",
		"lat": 52.38801057573046,
		"lng": 4.638713550666082,
		"address": "Stationsplein 11 L",
		"postalCode": "2011 LR",
		"city": "Haarlem",
		"country": "Nederland",
		"categories": [
			"Train Station"
		]
	},
	{
		"date": "2017-08-12T17:54:57.000Z",
		"name": "Metrostation Postjesweg",
		"id": "4b176901f964a52053c523e3",
		"lat": 52.36451392747967,
		"lng": 4.833916204451173,
		"address": "Postjesweg",
		"city": "Amsterdam",
		"country": "Nederland",
		"categories": [
			"Metro Station"
		]
	},
	{
		"date": "2017-08-12T22:40:08.000Z",
		"name": "Metrostation Postjesweg",
		"id": "4b176901f964a52053c523e3",
		"lat": 52.36451392747967,
		"lng": 4.833916204451173,
		"address": "Postjesweg",
		"city": "Amsterdam",
		"country": "Nederland",
		"categories": [
			"Metro Station"
		]
	},
	{
		"date": "2017-08-12T22:49:52.000Z",
		"name": "Amsterdam Sloterdijk Station (Station Amsterdam Sloterdijk)",
		"id": "4a56245ff964a52085b41fe3",
		"lat": 52.38899431620469,
		"lng": 4.837957990409058,
		"address": "Orlyplein 105",
		"postalCode": "1043 DT",
		"city": "Amsterdam",
		"country": "Nederland",
		"categories": [
			"Train Station"
		]
	},
	{
		"date": "2017-08-12T23:06:39.000Z",
		"name": "Station Haarlem Spaarnwoude",
		"id": "4accafdef964a52034c920e3",
		"lat": 52.38186059333917,
		"lng": 4.668725747728769,
		"address": "Woudplein 4",
		"city": "Haarlem",
		"country": "Nederland",
		"categories": [
			"Train Station"
		]
	},
	{
		"date": "2017-08-12T23:06:56.000Z",
		"name": "Station Haarlem",
		"id": "4a8c3036f964a5203a0d20e3",
		"lat": 52.38801057573046,
		"lng": 4.638713550666082,
		"address": "Stationsplein 11 L",
		"postalCode": "2011 LR",
		"city": "Haarlem",
		"country": "Nederland",
		"categories": [
			"Train Station"
		]
	},
	{
		"date": "2017-08-13T17:10:35.000Z",
		"name": "Station Haarlem",
		"id": "4a8c3036f964a5203a0d20e3",
		"lat": 52.38801057573046,
		"lng": 4.638713550666082,
		"address": "Stationsplein 11 L",
		"postalCode": "2011 LR",
		"city": "Haarlem",
		"country": "Nederland",
		"categories": [
			"Train Station"
		]
	},
	{
		"date": "2017-08-13T17:25:51.000Z",
		"name": "Station Zandvoort aan Zee",
		"id": "4b235a53f964a5205c5524e3",
		"lat": 52.3757860855875,
		"lng": 4.531738906725922,
		"address": "Stationsplein 6",
		"postalCode": "2041AB",
		"city": "Zandvoort",
		"country": "Nederland",
		"categories": [
			"Train Station"
		]
	},
	{
		"date": "2017-08-13T19:20:54.000Z",
		"name": "Strand Zandvoort aan Zee",
		"id": "4c2f344b3896e21e3978e390",
		"lat": 52.375486156134436,
		"lng": 4.525765926071059,
		"address": "Boulevard de Favauge",
		"city": "Zandvoort",
		"country": "Nederland",
		"categories": [
			"Beach"
		]
	},
	{
		"date": "2017-08-13T21:17:18.000Z",
		"name": "Station Haarlem",
		"id": "4a8c3036f964a5203a0d20e3",
		"lat": 52.38801057573046,
		"lng": 4.638713550666082,
		"address": "Stationsplein 11 L",
		"postalCode": "2011 LR",
		"city": "Haarlem",
		"country": "Nederland",
		"categories": [
			"Train Station"
		]
	},
	{
		"date": "2017-08-13T21:23:06.000Z",
		"name": "Station Haarlem",
		"id": "4a8c3036f964a5203a0d20e3",
		"lat": 52.38801057573046,
		"lng": 4.638713550666082,
		"address": "Stationsplein 11 L",
		"postalCode": "2011 LR",
		"city": "Haarlem",
		"country": "Nederland",
		"categories": [
			"Train Station"
		]
	},
	{
		"date": "2017-08-14T05:01:35.000Z",
		"name": "Station Haarlem",
		"id": "4a8c3036f964a5203a0d20e3",
		"lat": 52.38801057573046,
		"lng": 4.638713550666082,
		"address": "Stationsplein 11 L",
		"postalCode": "2011 LR",
		"city": "Haarlem",
		"country": "Nederland",
		"categories": [
			"Train Station"
		]
	},
	{
		"date": "2017-08-14T05:26:04.000Z",
		"name": "Amsterdam Central Railway Station (Station Amsterdam Centraal)",
		"id": "4a688ba1f964a52088ca1fe3",
		"lat": 52.37878224866535,
		"lng": 4.900374412536621,
		"address": "Stationsplein 15",
		"postalCode": "1012 AB",
		"city": "Amsterdam",
		"country": "Nederland",
		"categories": [
			"Train Station"
		]
	},
	{
		"date": "2017-08-14T05:51:42.000Z",
		"name": "SportCity",
		"id": "4a835233f964a520c6fa1fe3",
		"lat": 52.368877125084026,
		"lng": 4.900798968515201,
		"address": "Jodenbreestraat 6",
		"postalCode": "1011NK",
		"city": "Amsterdam",
		"country": "Nederland",
		"categories": [
			"Gym",
			"Gym / Fitness Center"
		]
	},
	{
		"date": "2017-08-14T06:52:54.000Z",
		"name": "WeWork Metropool",
		"id": "56a14a68498e77945ee2ced1",
		"lat": 52.36480793621647,
		"lng": 4.906191453337669,
		"address": "Weesperstraat 61",
		"postalCode": "1018 VN",
		"city": "Amsterdam",
		"country": "Nederland",
		"categories": [
			"Coworking Space",
			"Business Service"
		]
	},
	{
		"date": "2017-08-14T09:43:33.000Z",
		"name": "SPAR city Van Kempen",
		"id": "4b4c4089f964a52022b026e3",
		"lat": 52.36421961630775,
		"lng": 4.9056606671851295,
		"address": "Nieuwe Kerkstraat 65",
		"postalCode": "1018 DZ",
		"city": "Amsterdam",
		"country": "Nederland",
		"categories": [
			"Convenience Store",
			"Supermarket",
			"Grocery Store"
		]
	},
	{
		"date": "2017-08-14T16:21:24.000Z",
		"name": "Amsterdam Central Railway Station (Station Amsterdam Centraal)",
		"id": "4a688ba1f964a52088ca1fe3",
		"lat": 52.37878224866535,
		"lng": 4.900374412536621,
		"address": "Stationsplein 15",
		"postalCode": "1012 AB",
		"city": "Amsterdam",
		"country": "Nederland",
		"categories": [
			"Train Station"
		]
	},
	{
		"date": "2017-08-14T16:51:06.000Z",
		"name": "Station Haarlem",
		"id": "4a8c3036f964a5203a0d20e3",
		"lat": 52.38801057573046,
		"lng": 4.638713550666082,
		"address": "Stationsplein 11 L",
		"postalCode": "2011 LR",
		"city": "Haarlem",
		"country": "Nederland",
		"categories": [
			"Train Station"
		]
	},
	{
		"date": "2017-08-14T22:43:55.000Z",
		"name": "Cotton Candy Residence 10",
		"id": "58cd4fe316f000799f4cf4f4",
		"lat": 52.392946926098126,
		"lng": 4.640537129468235,
		"city": "Haarlem",
		"country": "Nederland",
		"categories": [
			"Home (private)"
		]
	},
	{
		"date": "2017-08-15T06:24:58.000Z",
		"name": "Amsterdam Central Railway Station (Station Amsterdam Centraal)",
		"id": "4a688ba1f964a52088ca1fe3",
		"lat": 52.37878224866535,
		"lng": 4.900374412536621,
		"address": "Stationsplein 15",
		"postalCode": "1012 AB",
		"city": "Amsterdam",
		"country": "Nederland",
		"categories": [
			"Train Station"
		]
	},
	{
		"date": "2017-08-15T17:13:06.000Z",
		"name": "WeWork Metropool",
		"id": "56a14a68498e77945ee2ced1",
		"lat": 52.36480793621647,
		"lng": 4.906191453337669,
		"address": "Weesperstraat 61",
		"postalCode": "1018 VN",
		"city": "Amsterdam",
		"country": "Nederland",
		"categories": [
			"Coworking Space",
			"Business Service"
		]
	},
	{
		"date": "2017-08-15T17:45:27.000Z",
		"name": "Station Haarlem Spaarnwoude",
		"id": "4accafdef964a52034c920e3",
		"lat": 52.38186059333917,
		"lng": 4.668725747728769,
		"address": "Woudplein 4",
		"city": "Haarlem",
		"country": "Nederland",
		"categories": [
			"Train Station"
		]
	},
	{
		"date": "2017-08-15T17:46:04.000Z",
		"name": "Station Haarlem",
		"id": "4a8c3036f964a5203a0d20e3",
		"lat": 52.38801057573046,
		"lng": 4.638713550666082,
		"address": "Stationsplein 11 L",
		"postalCode": "2011 LR",
		"city": "Haarlem",
		"country": "Nederland",
		"categories": [
			"Train Station"
		]
	},
	{
		"date": "2017-08-16T06:08:39.000Z",
		"name": "Station Haarlem",
		"id": "4a8c3036f964a5203a0d20e3",
		"lat": 52.38801057573046,
		"lng": 4.638713550666082,
		"address": "Stationsplein 11 L",
		"postalCode": "2011 LR",
		"city": "Haarlem",
		"country": "Nederland",
		"categories": [
			"Train Station"
		]
	},
	{
		"date": "2017-08-16T06:59:50.000Z",
		"name": "WeWork Metropool",
		"id": "56a14a68498e77945ee2ced1",
		"lat": 52.36480793621647,
		"lng": 4.906191453337669,
		"address": "Weesperstraat 61",
		"postalCode": "1018 VN",
		"city": "Amsterdam",
		"country": "Nederland",
		"categories": [
			"Coworking Space",
			"Business Service"
		]
	},
	{
		"date": "2017-08-16T10:33:09.000Z",
		"name": "Docler Holding Amsterdam",
		"id": "58b684db52a051661da12674",
		"lat": 52.36505739184381,
		"lng": 4.906015988886142,
		"address": "Weespertraat 61",
		"postalCode": "1018 VN",
		"city": "Amsterdam",
		"country": "Nederland",
		"categories": [
			"Tech Startup"
		]
	},
	{
		"date": "2017-08-16T16:25:34.000Z",
		"name": "Amsterdam Central Railway Station (Station Amsterdam Centraal)",
		"id": "4a688ba1f964a52088ca1fe3",
		"lat": 52.37878224866535,
		"lng": 4.900374412536621,
		"address": "Stationsplein 15",
		"postalCode": "1012 AB",
		"city": "Amsterdam",
		"country": "Nederland",
		"categories": [
			"Train Station"
		]
	},
	{
		"date": "2017-08-16T16:47:27.000Z",
		"name": "Station Haarlem",
		"id": "4a8c3036f964a5203a0d20e3",
		"lat": 52.38801057573046,
		"lng": 4.638713550666082,
		"address": "Stationsplein 11 L",
		"postalCode": "2011 LR",
		"city": "Haarlem",
		"country": "Nederland",
		"categories": [
			"Train Station"
		]
	},
	{
		"date": "2017-08-16T18:36:28.000Z",
		"name": "Cotton Candy Residence 10",
		"id": "58cd4fe316f000799f4cf4f4",
		"lat": 52.392946926098126,
		"lng": 4.640537129468235,
		"city": "Haarlem",
		"country": "Nederland",
		"categories": [
			"Home (private)"
		]
	},
	{
		"date": "2017-08-17T05:25:14.000Z",
		"name": "Amsterdam Central Railway Station (Station Amsterdam Centraal)",
		"id": "4a688ba1f964a52088ca1fe3",
		"lat": 52.37878224866535,
		"lng": 4.900374412536621,
		"address": "Stationsplein 15",
		"postalCode": "1012 AB",
		"city": "Amsterdam",
		"country": "Nederland",
		"categories": [
			"Train Station"
		]
	},
	{
		"date": "2017-08-17T05:57:11.000Z",
		"name": "SportCity",
		"id": "4a835233f964a520c6fa1fe3",
		"lat": 52.368877125084026,
		"lng": 4.900798968515201,
		"address": "Jodenbreestraat 6",
		"postalCode": "1011NK",
		"city": "Amsterdam",
		"country": "Nederland",
		"categories": [
			"Gym",
			"Gym / Fitness Center"
		]
	},
	{
		"date": "2017-08-17T06:50:11.000Z",
		"name": "WeWork Metropool",
		"id": "56a14a68498e77945ee2ced1",
		"lat": 52.36480793621647,
		"lng": 4.906191453337669,
		"address": "Weesperstraat 61",
		"postalCode": "1018 VN",
		"city": "Amsterdam",
		"country": "Nederland",
		"categories": [
			"Coworking Space",
			"Business Service"
		]
	},
	{
		"date": "2017-08-17T07:59:22.000Z",
		"name": "Docler Holding Amsterdam",
		"id": "58b684db52a051661da12674",
		"lat": 52.36505739184381,
		"lng": 4.906015988886142,
		"address": "Weespertraat 61",
		"postalCode": "1018 VN",
		"city": "Amsterdam",
		"country": "Nederland",
		"categories": [
			"Tech Startup"
		]
	},
	{
		"date": "2017-08-17T09:49:14.000Z",
		"name": "SPAR city Van Kempen",
		"id": "4b4c4089f964a52022b026e3",
		"lat": 52.36421961630775,
		"lng": 4.9056606671851295,
		"address": "Nieuwe Kerkstraat 65",
		"postalCode": "1018 DZ",
		"city": "Amsterdam",
		"country": "Nederland",
		"categories": [
			"Convenience Store",
			"Supermarket",
			"Grocery Store"
		]
	},
	{
		"date": "2017-08-17T16:27:11.000Z",
		"name": "Amsterdam Central Railway Station (Station Amsterdam Centraal)",
		"id": "4a688ba1f964a52088ca1fe3",
		"lat": 52.37878224866535,
		"lng": 4.900374412536621,
		"address": "Stationsplein 15",
		"postalCode": "1012 AB",
		"city": "Amsterdam",
		"country": "Nederland",
		"categories": [
			"Train Station"
		]
	},
	{
		"date": "2017-08-18T06:13:30.000Z",
		"name": "Station Haarlem",
		"id": "4a8c3036f964a5203a0d20e3",
		"lat": 52.38801057573046,
		"lng": 4.638713550666082,
		"address": "Stationsplein 11 L",
		"postalCode": "2011 LR",
		"city": "Haarlem",
		"country": "Nederland",
		"categories": [
			"Train Station"
		]
	},
	{
		"date": "2017-08-18T06:52:58.000Z",
		"name": "WeWork Metropool",
		"id": "56a14a68498e77945ee2ced1",
		"lat": 52.36480793621647,
		"lng": 4.906191453337669,
		"address": "Weesperstraat 61",
		"postalCode": "1018 VN",
		"city": "Amsterdam",
		"country": "Nederland",
		"categories": [
			"Coworking Space",
			"Business Service"
		]
	},
	{
		"date": "2017-08-18T10:41:07.000Z",
		"name": "Ponte Magro",
		"id": "5217b71611d27d4e0c569d77",
		"lat": 52.363956,
		"lng": 4.903325,
		"country": "Nederland",
		"categories": [
			"Italian Restaurant",
			"Pizza Place"
		]
	},
	{
		"date": "2017-08-18T14:40:28.000Z",
		"name": "Amsterdam Sloterdijk Station (Station Amsterdam Sloterdijk)",
		"id": "4a56245ff964a52085b41fe3",
		"lat": 52.38899431620469,
		"lng": 4.837957990409058,
		"address": "Orlyplein 105",
		"postalCode": "1043 DT",
		"city": "Amsterdam",
		"country": "Nederland",
		"categories": [
			"Train Station"
		]
	},
	{
		"date": "2017-08-18T14:52:26.000Z",
		"name": "Station Haarlem",
		"id": "4a8c3036f964a5203a0d20e3",
		"lat": 52.38801057573046,
		"lng": 4.638713550666082,
		"address": "Stationsplein 11 L",
		"postalCode": "2011 LR",
		"city": "Haarlem",
		"country": "Nederland",
		"categories": [
			"Train Station"
		]
	},
	{
		"date": "2017-08-19T11:48:44.000Z",
		"name": "HEMA",
		"id": "4b210645f964a520213624e3",
		"lat": 52.3830414,
		"lng": 4.6354098,
		"address": "Kruisstraat 51",
		"postalCode": "2011 PW",
		"city": "Haarlem",
		"country": "Nederland",
		"categories": [
			"Department Store"
		]
	},
	{
		"date": "2017-08-19T12:06:40.000Z",
		"name": "Albert Heijn",
		"id": "4b9a4b64f964a52066aa35e3",
		"lat": 52.38445463709139,
		"lng": 4.635787640721933,
		"address": "Kruisstraat 10",
		"postalCode": "2011 PX",
		"city": "Haarlem",
		"country": "Nederland",
		"categories": [
			"Supermarket"
		]
	},
	{
		"date": "2017-08-19T12:42:13.000Z",
		"name": "Cotton Candy Residence 10",
		"id": "58cd4fe316f000799f4cf4f4",
		"lat": 52.392946926098126,
		"lng": 4.640537129468235,
		"city": "Haarlem",
		"country": "Nederland",
		"categories": [
			"Home (private)"
		]
	},
	{
		"date": "2017-08-20T11:29:59.000Z",
		"name": "The Wolfhound",
		"id": "55253612498e4d37d3d614ba",
		"lat": 52.38125546951028,
		"lng": 4.637986546262745,
		"address": "Riviervischmarkt 9",
		"postalCode": "2011 HJ",
		"city": "Haarlem",
		"country": "Nederland",
		"categories": [
			"Irish Pub",
			"Music Venue"
		]
	},
	{
		"date": "2017-08-20T13:32:00.000Z",
		"name": "Episode",
		"id": "5380b522498e54d58e7f8a18",
		"lat": 52.382223768978946,
		"lng": 4.637807607650757,
		"address": "Jansstraat 52-54",
		"country": "Nederland",
		"categories": [
			"Clothing Store",
			"Thrift / Vintage Store"
		]
	},
	{
		"date": "2017-08-20T13:54:39.000Z",
		"name": "Jopenkerk",
		"id": "4c727bda2b7fef3bdc3c8e1d",
		"lat": 52.381356118814466,
		"lng": 4.629815913598906,
		"address": "Gedempte Voldersgracht 2",
		"postalCode": "2011 WD",
		"city": "Haarlem",
		"country": "Nederland",
		"categories": [
			"Brewery",
			"Bar",
			"Restaurant"
		]
	},
	{
		"date": "2017-08-20T17:23:39.000Z",
		"name": "Cotton Candy Residence 10",
		"id": "58cd4fe316f000799f4cf4f4",
		"lat": 52.392946926098126,
		"lng": 4.640537129468235,
		"city": "Haarlem",
		"country": "Nederland",
		"categories": [
			"Home (private)"
		]
	},
	{
		"date": "2017-08-21T05:07:03.000Z",
		"name": "Station Haarlem",
		"id": "4a8c3036f964a5203a0d20e3",
		"lat": 52.38801057573046,
		"lng": 4.638713550666082,
		"address": "Stationsplein 11 L",
		"postalCode": "2011 LR",
		"city": "Haarlem",
		"country": "Nederland",
		"categories": [
			"Train Station"
		]
	},
	{
		"date": "2017-08-21T05:25:52.000Z",
		"name": "Amsterdam Central Railway Station (Station Amsterdam Centraal)",
		"id": "4a688ba1f964a52088ca1fe3",
		"lat": 52.37878224866535,
		"lng": 4.900374412536621,
		"address": "Stationsplein 15",
		"postalCode": "1012 AB",
		"city": "Amsterdam",
		"country": "Nederland",
		"categories": [
			"Train Station"
		]
	},
	{
		"date": "2017-08-21T05:40:35.000Z",
		"name": "SportCity",
		"id": "4a835233f964a520c6fa1fe3",
		"lat": 52.368877125084026,
		"lng": 4.900798968515201,
		"address": "Jodenbreestraat 6",
		"postalCode": "1011NK",
		"city": "Amsterdam",
		"country": "Nederland",
		"categories": [
			"Gym",
			"Gym / Fitness Center"
		]
	},
	{
		"date": "2017-08-21T06:47:35.000Z",
		"name": "WeWork Metropool",
		"id": "56a14a68498e77945ee2ced1",
		"lat": 52.36480793621647,
		"lng": 4.906191453337669,
		"address": "Weesperstraat 61",
		"postalCode": "1018 VN",
		"city": "Amsterdam",
		"country": "Nederland",
		"categories": [
			"Coworking Space",
			"Business Service"
		]
	},
	{
		"date": "2017-08-21T08:30:49.000Z",
		"name": "Docler Holding Amsterdam",
		"id": "58b684db52a051661da12674",
		"lat": 52.36505739184381,
		"lng": 4.906015988886142,
		"address": "Weespertraat 61",
		"postalCode": "1018 VN",
		"city": "Amsterdam",
		"country": "Nederland",
		"categories": [
			"Tech Startup"
		]
	},
	{
		"date": "2017-08-21T16:50:40.000Z",
		"name": "Station Haarlem",
		"id": "4a8c3036f964a5203a0d20e3",
		"lat": 52.38801057573046,
		"lng": 4.638713550666082,
		"address": "Stationsplein 11 L",
		"postalCode": "2011 LR",
		"city": "Haarlem",
		"country": "Nederland",
		"categories": [
			"Train Station"
		]
	},
	{
		"date": "2017-08-21T18:00:57.000Z",
		"name": "Cotton Candy Residence 10",
		"id": "58cd4fe316f000799f4cf4f4",
		"lat": 52.392946926098126,
		"lng": 4.640537129468235,
		"city": "Haarlem",
		"country": "Nederland",
		"categories": [
			"Home (private)"
		]
	},
	{
		"date": "2017-08-22T06:06:16.000Z",
		"name": "Station Haarlem",
		"id": "4a8c3036f964a5203a0d20e3",
		"lat": 52.38801057573046,
		"lng": 4.638713550666082,
		"address": "Stationsplein 11 L",
		"postalCode": "2011 LR",
		"city": "Haarlem",
		"country": "Nederland",
		"categories": [
			"Train Station"
		]
	},
	{
		"date": "2017-08-22T06:29:21.000Z",
		"name": "Amsterdam Central Railway Station (Station Amsterdam Centraal)",
		"id": "4a688ba1f964a52088ca1fe3",
		"lat": 52.37878224866535,
		"lng": 4.900374412536621,
		"address": "Stationsplein 15",
		"postalCode": "1012 AB",
		"city": "Amsterdam",
		"country": "Nederland",
		"categories": [
			"Train Station"
		]
	},
	{
		"date": "2017-08-22T06:41:53.000Z",
		"name": "WeWork Metropool",
		"id": "56a14a68498e77945ee2ced1",
		"lat": 52.36480793621647,
		"lng": 4.906191453337669,
		"address": "Weesperstraat 61",
		"postalCode": "1018 VN",
		"city": "Amsterdam",
		"country": "Nederland",
		"categories": [
			"Coworking Space",
			"Business Service"
		]
	},
	{
		"date": "2017-08-22T16:18:23.000Z",
		"name": "Amsterdam Central Railway Station (Station Amsterdam Centraal)",
		"id": "4a688ba1f964a52088ca1fe3",
		"lat": 52.37878224866535,
		"lng": 4.900374412536621,
		"address": "Stationsplein 15",
		"postalCode": "1012 AB",
		"city": "Amsterdam",
		"country": "Nederland",
		"categories": [
			"Train Station"
		]
	},
	{
		"date": "2017-08-22T18:46:59.000Z",
		"name": "De Beren",
		"id": "58c6d781297c1621cb4defb1",
		"lat": 52.38146988679356,
		"lng": 4.629686934960305,
		"address": "Hortusplein 3",
		"postalCode": "2019 XV",
		"city": "Haarlem",
		"country": "Nederland",
		"categories": [
			"BBQ Joint",
			"Restaurant"
		]
	},
	{
		"date": "2017-08-23T05:26:40.000Z",
		"name": "Amsterdam Central Railway Station (Station Amsterdam Centraal)",
		"id": "4a688ba1f964a52088ca1fe3",
		"lat": 52.37878224866535,
		"lng": 4.900374412536621,
		"address": "Stationsplein 15",
		"postalCode": "1012 AB",
		"city": "Amsterdam",
		"country": "Nederland",
		"categories": [
			"Train Station"
		]
	},
	{
		"date": "2017-08-23T05:43:06.000Z",
		"name": "SportCity",
		"id": "4a835233f964a520c6fa1fe3",
		"lat": 52.368877125084026,
		"lng": 4.900798968515201,
		"address": "Jodenbreestraat 6",
		"postalCode": "1011NK",
		"city": "Amsterdam",
		"country": "Nederland",
		"categories": [
			"Gym",
			"Gym / Fitness Center"
		]
	},
	{
		"date": "2017-08-23T13:34:52.000Z",
		"name": "WeWork Metropool",
		"id": "56a14a68498e77945ee2ced1",
		"lat": 52.36480793621647,
		"lng": 4.906191453337669,
		"address": "Weesperstraat 61",
		"postalCode": "1018 VN",
		"city": "Amsterdam",
		"country": "Nederland",
		"categories": [
			"Coworking Space",
			"Business Service"
		]
	},
	{
		"date": "2017-08-23T14:39:47.000Z",
		"name": "Docler Holding Amsterdam",
		"id": "58b684db52a051661da12674",
		"lat": 52.36505739184381,
		"lng": 4.906015988886142,
		"address": "Weespertraat 61",
		"postalCode": "1018 VN",
		"city": "Amsterdam",
		"country": "Nederland",
		"categories": [
			"Tech Startup"
		]
	},
	{
		"date": "2017-08-24T07:00:25.000Z",
		"name": "Amsterdam Central Railway Station (Station Amsterdam Centraal)",
		"id": "4a688ba1f964a52088ca1fe3",
		"lat": 52.37878224866535,
		"lng": 4.900374412536621,
		"address": "Stationsplein 15",
		"postalCode": "1012 AB",
		"city": "Amsterdam",
		"country": "Nederland",
		"categories": [
			"Train Station"
		]
	},
	{
		"date": "2017-08-24T07:00:31.000Z",
		"name": "WeWork Metropool",
		"id": "56a14a68498e77945ee2ced1",
		"lat": 52.36480793621647,
		"lng": 4.906191453337669,
		"address": "Weesperstraat 61",
		"postalCode": "1018 VN",
		"city": "Amsterdam",
		"country": "Nederland",
		"categories": [
			"Coworking Space",
			"Business Service"
		]
	},
	{
		"date": "2017-08-24T09:53:11.000Z",
		"name": "Water & Brood",
		"id": "590c4ecfcad1b67f0cc84943",
		"lat": 52.36423552187337,
		"lng": 4.905926229851091,
		"address": "Nieuwe Kerkstraat 84",
		"postalCode": "1018 EC",
		"city": "Amsterdam",
		"country": "Nederland",
		"categories": [
			"Breakfast Spot"
		]
	},
	{
		"date": "2017-08-24T16:21:49.000Z",
		"name": "adidas Originals Store Amsterdam",
		"id": "4b55e4e0f964a52000f527e3",
		"lat": 52.36642118094936,
		"lng": 4.887737184762955,
		"address": "Leidsestraat 7",
		"postalCode": "1017 NS",
		"city": "Amsterdam",
		"country": "Nederland",
		"categories": [
			"Sporting Goods Shop"
		]
	},
	{
		"date": "2017-08-24T17:15:31.000Z",
		"name": "MediaMarkt",
		"id": "4f85272ae4b0657ba76d7762",
		"lat": 52.37609799833515,
		"lng": 4.907226586015713,
		"address": "Oosterdokskade 67",
		"postalCode": "1011 DL",
		"city": "Amsterdam",
		"country": "Nederland",
		"categories": [
			"Electronics Store"
		]
	},
	{
		"date": "2017-08-24T17:34:15.000Z",
		"name": "Station Haarlem",
		"id": "4a8c3036f964a5203a0d20e3",
		"lat": 52.38801057573046,
		"lng": 4.638713550666082,
		"address": "Stationsplein 11 L",
		"postalCode": "2011 LR",
		"city": "Haarlem",
		"country": "Nederland",
		"categories": [
			"Train Station"
		]
	},
	{
		"date": "2017-08-25T06:41:25.000Z",
		"name": "WeWork Metropool",
		"id": "56a14a68498e77945ee2ced1",
		"lat": 52.36480793621647,
		"lng": 4.906191453337669,
		"address": "Weesperstraat 61",
		"postalCode": "1018 VN",
		"city": "Amsterdam",
		"country": "Nederland",
		"categories": [
			"Coworking Space",
			"Business Service"
		]
	},
	{
		"date": "2017-08-25T09:59:35.000Z",
		"name": "Salsa Shop",
		"id": "53c3ca66498ea876ac0e1349",
		"lat": 52.36622550874323,
		"lng": 4.899968972243181,
		"address": "Amstelstraat 32A",
		"postalCode": "1017 DA",
		"city": "Amsterdam",
		"country": "Nederland",
		"categories": [
			"Mexican Restaurant"
		]
	},
	{
		"date": "2017-08-25T13:41:46.000Z",
		"name": "Docler Holding Amsterdam",
		"id": "58b684db52a051661da12674",
		"lat": 52.36505739184381,
		"lng": 4.906015988886142,
		"address": "Weespertraat 61",
		"postalCode": "1018 VN",
		"city": "Amsterdam",
		"country": "Nederland",
		"categories": [
			"Tech Startup"
		]
	},
	{
		"date": "2017-08-25T15:03:10.000Z",
		"name": "Amsterdam Central Railway Station (Station Amsterdam Centraal)",
		"id": "4a688ba1f964a52088ca1fe3",
		"lat": 52.37878224866535,
		"lng": 4.900374412536621,
		"address": "Stationsplein 15",
		"postalCode": "1012 AB",
		"city": "Amsterdam",
		"country": "Nederland",
		"categories": [
			"Train Station"
		]
	},
	{
		"date": "2017-08-26T11:31:53.000Z",
		"name": "Cotton Candy Residence 10",
		"id": "58cd4fe316f000799f4cf4f4",
		"lat": 52.392946926098126,
		"lng": 4.640537129468235,
		"city": "Haarlem",
		"country": "Nederland",
		"categories": [
			"Home (private)"
		]
	},
	{
		"date": "2017-08-26T12:18:47.000Z",
		"name": "Zara",
		"id": "520a45ba11d25973ec7d9563",
		"lat": 52.37882571647906,
		"lng": 4.633192845197722,
		"country": "Nederland",
		"categories": [
			"Clothing Store"
		]
	},
	{
		"date": "2017-08-26T12:31:21.000Z",
		"name": "Apple Haarlem",
		"id": "529e315f11d2f188f40a235a",
		"lat": 52.378432951567824,
		"lng": 4.6329654604005555,
		"address": "Grote Houtstraat 99",
		"postalCode": "2011 SH",
		"city": "Haarlem",
		"country": "Nederland",
		"categories": [
			"Electronics Store",
			"Mobile Phone Shop"
		]
	},
	{
		"date": "2017-08-26T12:43:32.000Z",
		"name": "Esprit",
		"id": "4e749dcbe4cd325436eafd1a",
		"lat": 52.37819772023286,
		"lng": 4.632483422756195,
		"address": "Grote Houtstraat",
		"postalCode": "2011 SJ",
		"city": "Haarlem",
		"country": "Nederland",
		"categories": [
			"Clothing Store"
		]
	},
	{
		"date": "2017-08-26T13:52:57.000Z",
		"name": "Havana House",
		"id": "4da5a0451e726e49695feea6",
		"lat": 52.38355105411946,
		"lng": 4.635652474578298,
		"address": "Kruisstraat 39",
		"postalCode": "2011 PW",
		"country": "Nederland",
		"categories": [
			"Smoke Shop"
		]
	},
	{
		"date": "2017-08-27T15:57:56.000Z",
		"name": "Yoghurt Barn",
		"id": "55d5b985498e389528c34d75",
		"lat": 52.384189060455085,
		"lng": 4.635916953840617,
		"address": "Kruisstraat 15",
		"city": "Haarlem",
		"country": "Nederland",
		"categories": [
			"Frozen Yogurt Shop"
		]
	},
	{
		"date": "2017-08-28T05:26:42.000Z",
		"name": "Amsterdam Central Railway Station (Station Amsterdam Centraal)",
		"id": "4a688ba1f964a52088ca1fe3",
		"lat": 52.37878224866535,
		"lng": 4.900374412536621,
		"address": "Stationsplein 15",
		"postalCode": "1012 AB",
		"city": "Amsterdam",
		"country": "Nederland",
		"categories": [
			"Train Station"
		]
	},
	{
		"date": "2017-08-28T05:41:30.000Z",
		"name": "SportCity",
		"id": "4a835233f964a520c6fa1fe3",
		"lat": 52.368877125084026,
		"lng": 4.900798968515201,
		"address": "Jodenbreestraat 6",
		"postalCode": "1011NK",
		"city": "Amsterdam",
		"country": "Nederland",
		"categories": [
			"Gym",
			"Gym / Fitness Center"
		]
	},
	{
		"date": "2017-08-28T07:47:35.000Z",
		"name": "WeWork Metropool",
		"id": "56a14a68498e77945ee2ced1",
		"lat": 52.36480793621647,
		"lng": 4.906191453337669,
		"address": "Weesperstraat 61",
		"postalCode": "1018 VN",
		"city": "Amsterdam",
		"country": "Nederland",
		"categories": [
			"Coworking Space",
			"Business Service"
		]
	},
	{
		"date": "2017-08-28T14:51:20.000Z",
		"name": "Docler Holding Amsterdam",
		"id": "58b684db52a051661da12674",
		"lat": 52.36505739184381,
		"lng": 4.906015988886142,
		"address": "Weespertraat 61",
		"postalCode": "1018 VN",
		"city": "Amsterdam",
		"country": "Nederland",
		"categories": [
			"Tech Startup"
		]
	},
	{
		"date": "2017-08-28T16:33:42.000Z",
		"name": "Station Haarlem",
		"id": "4a8c3036f964a5203a0d20e3",
		"lat": 52.38801057573046,
		"lng": 4.638713550666082,
		"address": "Stationsplein 11 L",
		"postalCode": "2011 LR",
		"city": "Haarlem",
		"country": "Nederland",
		"categories": [
			"Train Station"
		]
	},
	{
		"date": "2017-08-28T17:15:07.000Z",
		"name": "Basic X Hair",
		"id": "52e15bd4498eff401e7266b1",
		"lat": 52.38709780312595,
		"lng": 4.636948636589309,
		"address": "Kruisweg 35",
		"postalCode": "2011LA",
		"city": "Haarlem",
		"country": "Nederland",
		"categories": [
			"Salon / Barbershop"
		]
	},
	{
		"date": "2017-08-28T19:11:42.000Z",
		"name": "Cotton Candy Residence 10",
		"id": "58cd4fe316f000799f4cf4f4",
		"lat": 52.392946926098126,
		"lng": 4.640537129468235,
		"city": "Haarlem",
		"country": "Nederland",
		"categories": [
			"Home (private)"
		]
	},
	{
		"date": "2017-08-29T05:58:25.000Z",
		"name": "Station Haarlem",
		"id": "4a8c3036f964a5203a0d20e3",
		"lat": 52.38801057573046,
		"lng": 4.638713550666082,
		"address": "Stationsplein 11 L",
		"postalCode": "2011 LR",
		"city": "Haarlem",
		"country": "Nederland",
		"categories": [
			"Train Station"
		]
	},
	{
		"date": "2017-08-29T06:22:14.000Z",
		"name": "Amsterdam Central Railway Station (Station Amsterdam Centraal)",
		"id": "4a688ba1f964a52088ca1fe3",
		"lat": 52.37878224866535,
		"lng": 4.900374412536621,
		"address": "Stationsplein 15",
		"postalCode": "1012 AB",
		"city": "Amsterdam",
		"country": "Nederland",
		"categories": [
			"Train Station"
		]
	},
	{
		"date": "2017-08-29T06:36:13.000Z",
		"name": "Primera",
		"id": "4b75441ef964a52082032ee3",
		"lat": 52.368295728326196,
		"lng": 4.9023278028934625,
		"address": "Waterlooplein 169",
		"postalCode": "1011 PG",
		"city": "Amsterdam",
		"country": "Nederland",
		"categories": [
			"Convenience Store"
		]
	},
	{
		"date": "2017-08-29T06:47:39.000Z",
		"name": "WeWork Metropool",
		"id": "56a14a68498e77945ee2ced1",
		"lat": 52.36480793621647,
		"lng": 4.906191453337669,
		"address": "Weesperstraat 61",
		"postalCode": "1018 VN",
		"city": "Amsterdam",
		"country": "Nederland",
		"categories": [
			"Coworking Space",
			"Business Service"
		]
	},
	{
		"date": "2017-08-29T09:42:46.000Z",
		"name": "SPAR city Van Kempen",
		"id": "4b4c4089f964a52022b026e3",
		"lat": 52.36421961630775,
		"lng": 4.9056606671851295,
		"address": "Nieuwe Kerkstraat 65",
		"postalCode": "1018 DZ",
		"city": "Amsterdam",
		"country": "Nederland",
		"categories": [
			"Convenience Store",
			"Supermarket",
			"Grocery Store"
		]
	},
	{
		"date": "2017-08-29T16:20:39.000Z",
		"name": "Amsterdam Central Railway Station (Station Amsterdam Centraal)",
		"id": "4a688ba1f964a52088ca1fe3",
		"lat": 52.37878224866535,
		"lng": 4.900374412536621,
		"address": "Stationsplein 15",
		"postalCode": "1012 AB",
		"city": "Amsterdam",
		"country": "Nederland",
		"categories": [
			"Train Station"
		]
	},
	{
		"date": "2017-08-29T16:47:42.000Z",
		"name": "Station Haarlem",
		"id": "4a8c3036f964a5203a0d20e3",
		"lat": 52.38801057573046,
		"lng": 4.638713550666082,
		"address": "Stationsplein 11 L",
		"postalCode": "2011 LR",
		"city": "Haarlem",
		"country": "Nederland",
		"categories": [
			"Train Station"
		]
	},
	{
		"date": "2017-08-29T19:15:14.000Z",
		"name": "Cotton Candy Residence 10",
		"id": "58cd4fe316f000799f4cf4f4",
		"lat": 52.392946926098126,
		"lng": 4.640537129468235,
		"city": "Haarlem",
		"country": "Nederland",
		"categories": [
			"Home (private)"
		]
	},
	{
		"date": "2017-08-30T05:13:13.000Z",
		"name": "Station Haarlem",
		"id": "4a8c3036f964a5203a0d20e3",
		"lat": 52.38801057573046,
		"lng": 4.638713550666082,
		"address": "Stationsplein 11 L",
		"postalCode": "2011 LR",
		"city": "Haarlem",
		"country": "Nederland",
		"categories": [
			"Train Station"
		]
	},
	{
		"date": "2017-08-30T05:53:18.000Z",
		"name": "SportCity",
		"id": "4a835233f964a520c6fa1fe3",
		"lat": 52.368877125084026,
		"lng": 4.900798968515201,
		"address": "Jodenbreestraat 6",
		"postalCode": "1011NK",
		"city": "Amsterdam",
		"country": "Nederland",
		"categories": [
			"Gym",
			"Gym / Fitness Center"
		]
	},
	{
		"date": "2017-08-30T15:06:09.000Z",
		"name": "WeWork Metropool",
		"id": "56a14a68498e77945ee2ced1",
		"lat": 52.36480793621647,
		"lng": 4.906191453337669,
		"address": "Weesperstraat 61",
		"postalCode": "1018 VN",
		"city": "Amsterdam",
		"country": "Nederland",
		"categories": [
			"Coworking Space",
			"Business Service"
		]
	},
	{
		"date": "2017-08-30T15:06:14.000Z",
		"name": "Docler Holding Amsterdam",
		"id": "58b684db52a051661da12674",
		"lat": 52.36505739184381,
		"lng": 4.906015988886142,
		"address": "Weespertraat 61",
		"postalCode": "1018 VN",
		"city": "Amsterdam",
		"country": "Nederland",
		"categories": [
			"Tech Startup"
		]
	},
	{
		"date": "2017-08-30T17:43:45.000Z",
		"name": "Station Haarlem",
		"id": "4a8c3036f964a5203a0d20e3",
		"lat": 52.38801057573046,
		"lng": 4.638713550666082,
		"address": "Stationsplein 11 L",
		"postalCode": "2011 LR",
		"city": "Haarlem",
		"country": "Nederland",
		"categories": [
			"Train Station"
		]
	},
	{
		"date": "2017-08-30T19:09:45.000Z",
		"name": "Amsterdam Central Railway Station (Station Amsterdam Centraal)",
		"id": "4a688ba1f964a52088ca1fe3",
		"lat": 52.37878224866535,
		"lng": 4.900374412536621,
		"address": "Stationsplein 15",
		"postalCode": "1012 AB",
		"city": "Amsterdam",
		"country": "Nederland",
		"categories": [
			"Train Station"
		]
	},
	{
		"date": "2017-08-30T20:30:29.000Z",
		"name": "Station Eindhoven Centraal",
		"id": "4a97f55ff964a520fa2920e3",
		"lat": 51.44297434471812,
		"lng": 5.480289459228516,
		"address": "Stationsplein 22",
		"postalCode": "5611 AC",
		"city": "Eindhoven",
		"country": "Nederland",
		"categories": [
			"Train Station"
		]
	},
	{
		"date": "2017-08-30T21:07:24.000Z",
		"name": "Tulip Inn Eindhoven Airport",
		"id": "4f3911fae4b0571dc91fd6d0",
		"lat": 51.45803303865578,
		"lng": 5.391852171683278,
		"address": "Luchthavenweg 27",
		"postalCode": "5657 EA",
		"city": "Eindhoven",
		"country": "Nederland",
		"categories": [
			"Hotel"
		]
	},
	{
		"date": "2017-08-31T05:50:40.000Z",
		"name": "Eindhoven Airport (EIN)",
		"id": "4acae8fbf964a52027c320e3",
		"lat": 51.45785417137784,
		"lng": 5.391613873096554,
		"address": "Luchthavenweg 25",
		"postalCode": "5657 EA",
		"city": "Eindhoven",
		"country": "Nederland",
		"categories": [
			"Airport"
		]
	},
	{
		"date": "2017-08-31T09:21:04.000Z",
		"name": "Riga International Airport (RIX) (Starptautiskā lidosta “Rīga”)",
		"id": "4b738904f964a52006b32de3",
		"lat": 56.9223007929518,
		"lng": 23.97914669991612,
		"address": "Lidosta Riga 10/1",
		"postalCode": "LV-1053",
		"city": "Jaunmārupe",
		"country": "Latvija",
		"categories": [
			"Airport"
		]
	},
	{
		"date": "2017-08-31T10:30:33.000Z",
		"name": "LUKOIL Baltija DUS | Lidosta",
		"id": "4d34aec22c76a143064d87c7",
		"lat": 56.92144442077502,
		"lng": 23.991796656446265,
		"address": "Lidosta Rīga 10/1",
		"postalCode": "LV-1053",
		"city": "Mārupes novads",
		"country": "Latvija",
		"categories": [
			"Gas Station"
		]
	},
	{
		"date": "2017-08-31T10:53:28.000Z",
		"name": "Bellevue Park Hotel Riga",
		"id": "4bc8f5b9762beee180be3d38",
		"lat": 56.94158321949178,
		"lng": 24.081487884489224,
		"address": "Slokas 1",
		"postalCode": "LV-1048",
		"city": "Rīga",
		"country": "Latvija",
		"categories": [
			"Hotel"
		]
	},
	{
		"date": "2017-08-31T13:24:38.000Z",
		"name": "Riga Old Town (Vecrīga)",
		"id": "4be5077c910020a18597d214",
		"lat": 56.94900401120985,
		"lng": 24.10919247402751,
		"city": "Rīga",
		"country": "Latvija",
		"categories": [
			"Neighborhood"
		]
	},
	{
		"date": "2017-08-31T13:38:26.000Z",
		"name": "Fontaine Delisnack",
		"id": "50439ac8e4b0f30672b6eca7",
		"lat": 56.94811890612208,
		"lng": 24.111640082653857,
		"address": "Teātra iela 2",
		"postalCode": "LV-1050",
		"city": "Rīga",
		"country": "Latvija",
		"categories": [
			"Burger Joint",
			"Pizza Place"
		]
	},
	{
		"date": "2017-08-31T13:57:19.000Z",
		"name": "Melnā Bite",
		"id": "5252a57bbce6410172fe883d",
		"lat": 56.947109,
		"lng": 24.112478,
		"address": "13 Audēju Street",
		"postalCode": "LV-1050",
		"city": "Rīga",
		"country": "Latvija",
		"categories": [
			"Restaurant"
		]
	},
	{
		"date": "2017-08-31T15:18:57.000Z",
		"name": "DROGAS",
		"id": "4bc70a622f94d13acd20117f",
		"lat": 56.948636504427334,
		"lng": 24.108362960392373,
		"address": "Kaļķu iela 5",
		"city": "Rīga",
		"country": "Latvija",
		"categories": [
			"Cosmetics Shop"
		]
	},
	{
		"date": "2017-08-31T15:50:45.000Z",
		"name": "Retro Foto",
		"id": "4f92a127e4b0f888dc8a16fe",
		"lat": 56.946288349611514,
		"lng": 24.107294708983204,
		"address": "11. novembra krastmala 29, Rīga, LV-1050",
		"postalCode": "1050",
		"city": "Rīga",
		"country": "Latvija",
		"categories": [
			"Art Gallery"
		]
	},
	{
		"date": "2017-08-31T15:50:54.000Z",
		"name": "Dome square (Doma laukums)",
		"id": "4bbf89184cdfc9b6346e9121",
		"lat": 56.949444826828376,
		"lng": 24.10576343536377,
		"address": "Doma lauk.",
		"postalCode": "LV-1050",
		"city": "Rīga",
		"country": "Latvija",
		"categories": [
			"Plaza"
		]
	},
	{
		"date": "2017-08-31T17:45:04.000Z",
		"name": "Black Magic Bar",
		"id": "4c790da5a8683704ff200f4d",
		"lat": 56.94874112544222,
		"lng": 24.108926999114228,
		"address": "Kaļķu iela 10",
		"postalCode": "LV-1050",
		"city": "Rīga",
		"country": "Latvija",
		"categories": [
			"Bar",
			"Café",
			"Dessert Shop"
		]
	},
	{
		"date": "2017-08-31T19:27:24.000Z",
		"name": "Bellevue Park Hotel Riga",
		"id": "4bc8f5b9762beee180be3d38",
		"lat": 56.94158321949178,
		"lng": 24.081487884489224,
		"address": "Slokas 1",
		"postalCode": "LV-1048",
		"city": "Rīga",
		"country": "Latvija",
		"categories": [
			"Hotel"
		]
	}
]