[
	{
		"date": "2018-07-31T12:58+0200",
		"name": "The Döner Company",
		"id": "4d790928a56e37040e5d7567",
		"lat": 52.38817372624091,
		"lng": 4.63927902305991,
		"address": "Station Haarlem",
		"postalCode": "2011 LR",
		"city": "Haarlem",
		"country": "Nederland",
		"categories": [
			"Doner Restaurant",
			"Falafel Restaurant",
			"Kebab Restaurant"
		]
	},
	{
		"date": "2018-07-30T20:43+0200",
		"name": "Woodstone Pizza And Wine",
		"id": "4d7ba00ef260a093c3922aba",
		"lat": 52.38142433800417,
		"lng": 4.629887062490495,
		"address": "Hortusplein 2",
		"postalCode": "2019 XV",
		"city": "Haarlem",
		"country": "Nederland",
		"categories": ["Pizza Place", "Wine Bar"]
	},
	{
		"date": "2018-07-29T15:00+0200",
		"name": "Vomar Voordeelmarkt",
		"id": "4b72c969f964a52096882de3",
		"lat": 52.39127711020139,
		"lng": 4.649005288257338,
		"address": "Paul Krugerkade 22",
		"postalCode": "2021 BN",
		"city": "Haarlem",
		"country": "Nederland",
		"categories": ["Supermarket", "Grocery Store"]
	},
	{
		"date": "2018-07-29T01:23+0200",
		"name": "Station Haarlem",
		"id": "4a8c3036f964a5203a0d20e3",
		"lat": 52.387919728928985,
		"lng": 4.638276517449355,
		"address": "Stationsplein 11 L",
		"postalCode": "2011 LR",
		"city": "Haarlem",
		"country": "Nederland",
		"categories": ["Train Station"]
	},
	{
		"date": "2018-07-29T00:55+0200",
		"name": "Station Amsterdam Sloterdijk",
		"id": "4a56245ff964a52085b41fe3",
		"lat": 52.389038517725574,
		"lng": 4.838510921333843,
		"address": "Orlyplein 105",
		"postalCode": "1043 DT",
		"city": "Amsterdam",
		"country": "Nederland",
		"categories": ["Train Station"]
	},
	{
		"date": "2018-07-29T00:32+0200",
		"name": "Station Schiphol Airport",
		"id": "4b14bf25f964a5203fa623e3",
		"lat": 52.309421352795255,
		"lng": 4.762016504847906,
		"address": "Aankomstpassage 18",
		"postalCode": "1118 AX",
		"city": "Schiphol",
		"country": "Nederland",
		"categories": ["Train Station"]
	},
	{
		"date": "2018-07-29T00:20+0200",
		"name": "Amsterdam Airport Schiphol (AMS) (Amsterdam Airport Schiphol)",
		"id": "4a84e798f964a520defd1fe3",
		"lat": 52.3085704596075,
		"lng": 4.762122631072998,
		"address": "Aankomstpassage",
		"postalCode": "1118 CP",
		"city": "Schiphol",
		"country": "Nederland",
		"categories": ["Airport"]
	},
	{
		"date": "2018-07-29T00:09+0200",
		"name": "Polderbaan (18R / 36L)",
		"id": "4cd1b8a648b837047598fade",
		"lat": 52.34918261975891,
		"lng": 4.710731506347656,
		"address": "AMS Airport",
		"city": "Schiphol",
		"country": "Nederland",
		"categories": ["Airport Service"]
	},
	{
		"date": "2018-07-28T20:35+0200",
		"name": "Security check",
		"id": "51e3c1ca498e6f1751043647",
		"lat": 43.802320468275205,
		"lng": 11.20027725419404,
		"country": "Italia",
		"categories": ["Airport Service"]
	},
	{
		"date": "2018-07-28T20:00+0200",
		"name": "Aeroporto di Firenze \"Amerigo Vespucci\" (FLR) (Aeroporto di Firenze \"Amerigo Vespucci\")",
		"id": "4b76e9f3f964a520ef692ee3",
		"lat": 43.80234861459779,
		"lng": 11.201047254387117,
		"address": "Via del Termine, 11",
		"postalCode": "50127",
		"city": "Firenze",
		"country": "Italia",
		"categories": ["Airport"]
	},
	{
		"date": "2018-07-28T19:49+0200",
		"name": "GOLDCAR Firenze Aeroporto",
		"id": "59d341f71c0b346e7f9f9cf1",
		"lat": 43.800452,
		"lng": 11.19689,
		"address": "1963 Via Palagio degli Spini",
		"postalCode": "50127",
		"city": "Firenze",
		"country": "Italia",
		"categories": ["Rental Car Location"]
	},
	{
		"date": "2018-07-28T19:43+0200",
		"name": "GOLDCAR Firenze Aeroporto",
		"id": "59d341f71c0b346e7f9f9cf1",
		"lat": 43.800452,
		"lng": 11.19689,
		"address": "1963 Via Palagio degli Spini",
		"postalCode": "50127",
		"city": "Firenze",
		"country": "Italia",
		"categories": ["Rental Car Location"]
	},
	{
		"date": "2018-07-28T17:55+0200",
		"name": "McDonald's",
		"id": "53357387498e37b0ecc4ce93",
		"lat": 43.74934604920317,
		"lng": 11.234469429153156,
		"address": "Via Senese",
		"country": "Italia",
		"categories": ["Fast Food Restaurant"]
	},
	{
		"date": "2018-07-28T17:43+0200",
		"name": "ip - benzinaio/lavaggio",
		"id": "526e4dc4498eb308a800117c",
		"lat": 43.642698286935904,
		"lng": 11.466300293622272,
		"country": "Italia",
		"categories": ["Car Wash"]
	},
	{
		"date": "2018-07-28T17:42+0200",
		"name": "Iperself",
		"id": "5117a4a7e4b0543c8e8b64b3",
		"lat": 43.742797,
		"lng": 11.225468,
		"country": "Italia",
		"categories": ["Gas Station"]
	},
	{
		"date": "2018-07-28T15:44+0200",
		"name": "Flower",
		"id": "57acccae498e7db2dd387d19",
		"lat": 43.762696,
		"lng": 11.265481,
		"country": "Italia",
		"categories": ["Café"]
	},
	{
		"date": "2018-07-28T15:14+0200",
		"name": "Parco della Rimembranza",
		"id": "4ec0e807b803bca7deb9828d",
		"lat": 43.759835571569376,
		"lng": 11.26474237831735,
		"city": "Firenze",
		"country": "Italia",
		"categories": ["Park"]
	},
	{
		"date": "2018-07-28T14:51+0200",
		"name": "Piazzale Michelangelo",
		"id": "4b3276d5f964a520620c25e3",
		"lat": 43.76311869394607,
		"lng": 11.26418327659324,
		"address": "Piazzale Michelangelo",
		"postalCode": "50125",
		"city": "Firenze",
		"country": "Italia",
		"categories": ["Plaza", "Scenic Lookout"]
	},
	{
		"date": "2018-07-28T14:15+0200",
		"name": "Cimitero degli Inglesi",
		"id": "5026d37ae4b07f32954470fa",
		"lat": 43.77738116889305,
		"lng": 11.268395991939759,
		"address": "Piazzale Donatello",
		"city": "Firenze",
		"country": "Italia",
		"categories": ["Cemetery"]
	},
	{
		"date": "2018-07-28T13:59+0200",
		"name": "Giardino dei Semplici",
		"id": "4b1ccb27f964a520c50924e3",
		"lat": 43.778852,
		"lng": 11.261158,
		"address": "Via Giorgio la Pira",
		"postalCode": "50121",
		"city": "Firenze",
		"country": "Italia",
		"categories": ["Garden"]
	},
	{
		"date": "2018-07-28T13:44+0200",
		"name": "Tutto 1 Euro",
		"id": "4c35774aa0ced13a73e8196e",
		"lat": 43.77681711711718,
		"lng": 11.256057282789264,
		"country": "Italia",
		"categories": ["Food & Drink Shop"]
	},
	{
		"date": "2018-07-28T12:42+0200",
		"name": "Trattoria Zà Zà",
		"id": "4be1b81da145c928ae564e80",
		"lat": 43.77643661896121,
		"lng": 11.254202766044898,
		"address": "Piazza del Mercato Centrale 25",
		"postalCode": "50123",
		"city": "Firenze",
		"country": "Italia",
		"categories": ["Italian Restaurant"]
	},
	{
		"date": "2018-07-28T12:26+0200",
		"name": "Centro Storico",
		"id": "5984bb53ad1ea40bd68648f6",
		"lat": 43.769968,
		"lng": 11.25556,
		"postalCode": "50122",
		"city": "Firenze",
		"country": "Italia",
		"categories": ["Neighborhood"]
	},
	{
		"date": "2018-07-28T12:16+0200",
		"name": "Piazza del Duomo",
		"id": "4b36068ef964a520c12f25e3",
		"lat": 43.773054,
		"lng": 11.255541,
		"address": "Piazza del Duomo",
		"postalCode": "50122",
		"city": "Firenze",
		"country": "Italia",
		"categories": ["Plaza", "Historic Site"]
	},
	{
		"date": "2018-07-28T12:10+0200",
		"name": "Piazza del Mercato Nuovo",
		"id": "4bd9f9eec79cc92823e27ce9",
		"lat": 43.76983767246146,
		"lng": 11.254333171386538,
		"address": "Piazza del Mercato Nuovo",
		"city": "Firenze",
		"country": "Italia",
		"categories": ["Plaza"]
	},
	{
		"date": "2018-07-28T11:55+0200",
		"name": "Piazza della Signoria",
		"id": "4b81729af964a520a7a630e3",
		"lat": 43.769513729479904,
		"lng": 11.255603398153688,
		"address": "Piazza della Signoria",
		"postalCode": "50100",
		"city": "Firenze",
		"country": "Italia",
		"categories": ["Plaza"]
	},
	{
		"date": "2018-07-28T11:43+0200",
		"name": "Piazza Santa Croce",
		"id": "4b2b7bf1f964a520bdb624e3",
		"lat": 43.768851,
		"lng": 11.261405,
		"address": "Piazza Santa Croce",
		"city": "Firenze",
		"country": "Italia",
		"categories": ["Plaza"]
	},
	{
		"date": "2018-07-28T11:37+0200",
		"name": "Santa Croce",
		"id": "54725afa498e46a8b946447d",
		"lat": 43.76859527532262,
		"lng": 11.261205144300273,
		"country": "Italia",
		"categories": ["Neighborhood"]
	},
	{
		"date": "2018-07-28T11:20+0200",
		"name": "Parcheggio Beccaria",
		"id": "4dda5e23922ef477d2b85ccf",
		"lat": 43.77007115319042,
		"lng": 11.270899772644043,
		"address": "Piazza Cesare Beccaria",
		"postalCode": "50121",
		"city": "Firenze",
		"country": "Italia",
		"categories": ["Parking"]
	},
	{
		"date": "2018-07-28T10:47+0200",
		"name": "Bellariva",
		"id": "4fc104d7e4b06f6d2308564d",
		"lat": 43.76588991066443,
		"lng": 11.280675333833248,
		"country": "Italia",
		"categories": ["Neighborhood"]
	},
	{
		"date": "2018-07-28T10:18+0200",
		"name": "Pasticceria Bonaiuti",
		"id": "4c9e7fadd3c2b60c2b04ccbc",
		"lat": 43.7848889335734,
		"lng": 11.400903714806917,
		"address": "Via Aretina 29/a - Le Sieci",
		"postalCode": "50065",
		"city": "Pontassieve",
		"country": "Italia",
		"categories": ["Dessert Shop"]
	},
	{
		"date": "2018-07-28T10:08+0200",
		"name": "Sieci",
		"id": "53366a4a498e940581a5843f",
		"lat": 43.78691659640141,
		"lng": 11.394538861098559,
		"country": "Italia",
		"categories": ["City"]
	},
	{
		"date": "2018-07-28T10:08+0200",
		"name": "Esso",
		"id": "4faa9f3ee4b06bb61c11784f",
		"lat": 43.792287256573196,
		"lng": 11.40146215167314,
		"country": "Italia",
		"categories": ["Gas Station"]
	},
	{
		"date": "2018-07-27T12:48+0200",
		"name": "Doccione di Sotto",
		"id": "5b5442bf772fbc002c8276d4",
		"lat": 43.757633,
		"lng": 11.964316,
		"postalCode": "52010",
		"city": "Chiusi della Verna",
		"country": "Italia",
		"categories": ["Vacation Rental"]
	},
	{
		"date": "2018-07-26T14:44+0200",
		"name": "Doccione di Sotto",
		"id": "5b5442bf772fbc002c8276d4",
		"lat": 43.757633,
		"lng": 11.964316,
		"postalCode": "52010",
		"city": "Chiusi della Verna",
		"country": "Italia",
		"categories": ["Vacation Rental"]
	},
	{
		"date": "2018-07-26T13:49+0200",
		"name": "Bar Turismo",
		"id": "4da20feb7aee5481649ecefe",
		"lat": 43.6940778240209,
		"lng": 11.81584283709526,
		"address": "Piazza Matteotti, Bibbiena",
		"city": "Bibbiena",
		"country": "Italia",
		"categories": ["Ice Cream Shop"]
	},
	{
		"date": "2018-07-26T12:50+0200",
		"name": "Chalet",
		"id": "4efb97f5775bec1428c54d83",
		"lat": 43.69395277581488,
		"lng": 11.816114187598474,
		"address": "Viale garibaldi",
		"postalCode": "52011",
		"city": "Bibbiena",
		"country": "Italia",
		"categories": ["Cocktail Bar", "Italian Restaurant"]
	},
	{
		"date": "2018-07-26T11:42+0200",
		"name": "Il Podestà",
		"id": "4dfd298b7d8b305080177b9a",
		"lat": 43.69546130699818,
		"lng": 11.81733502757458,
		"city": "Bibbiena",
		"country": "Italia",
		"categories": ["Coffee Shop"]
	},
	{
		"date": "2018-07-26T11:35+0200",
		"name": "Piazza Tarlati",
		"id": "4fcaa620e4b01dfc7f712cc4",
		"lat": 43.69554905934955,
		"lng": 11.81739206568018,
		"country": "Italia",
		"categories": ["Plaza"]
	},
	{
		"date": "2018-07-26T10:57+0200",
		"name": "Bibbiena",
		"id": "4d286574068e8cfad3e9c44c",
		"lat": 43.69546249716878,
		"lng": 11.817491054534912,
		"city": "Bibbiena",
		"country": "Italia",
		"categories": ["Town", "States & Municipalities"]
	},
	{
		"date": "2018-07-26T09:51+0200",
		"name": "Doccione di Sotto",
		"id": "5b5442bf772fbc002c8276d4",
		"lat": 43.757633,
		"lng": 11.964316,
		"postalCode": "52010",
		"city": "Chiusi della Verna",
		"country": "Italia",
		"categories": ["Vacation Rental"]
	},
	{
		"date": "2018-07-25T18:51+0200",
		"name": "Pizzeria Vallesanta",
		"id": "5b58aa97fe63bd00399e4ca9",
		"lat": 43.74691,
		"lng": 11.923822,
		"postalCode": "52010",
		"city": "Rimbocchi",
		"country": "Italia",
		"categories": ["Pizza Place", "Italian Restaurant"]
	},
	{
		"date": "2018-07-25T17:59+0200",
		"name": "Nasseto",
		"id": "4e47bf65aeb70e74f4a5ace8",
		"lat": 43.83630350232124,
		"lng": 11.95896316319704,
		"country": "Italia",
		"categories": ["Scenic Lookout"]
	},
	{
		"date": "2018-07-25T17:41+0200",
		"name": "Alfero",
		"id": "4e75ed24c65bb91db491d03a",
		"lat": 43.84686429417818,
		"lng": 12.056528892060868,
		"country": "Italia",
		"categories": ["Outdoors & Recreation"]
	},
	{
		"date": "2018-07-25T16:02+0200",
		"name": "Cascate Di Alfero",
		"id": "4dbd88f3fa8cee727368df8f",
		"lat": 43.84881132592062,
		"lng": 12.071780645214682,
		"city": "Verghereto",
		"country": "Italia",
		"categories": ["Other Great Outdoors"]
	},
	{
		"date": "2018-07-24T22:24+0200",
		"name": "Doccione di Sotto",
		"id": "5b5442bf772fbc002c8276d4",
		"lat": 43.757633,
		"lng": 11.964316,
		"postalCode": "52010",
		"city": "Chiusi della Verna",
		"country": "Italia",
		"categories": ["Vacation Rental"]
	},
	{
		"date": "2018-07-24T15:28+0200",
		"name": "Ipercoop Arezzo",
		"id": "4b9e2575f964a52087cd36e3",
		"lat": 43.4753482069789,
		"lng": 11.861263906926713,
		"address": "Viale Giovanni Amendola, 13-15",
		"postalCode": "52100",
		"city": "Arezzo",
		"country": "Italia",
		"categories": ["Supermarket", "Grocery Store"]
	},
	{
		"date": "2018-07-24T14:29+0200",
		"name": "Lumar",
		"id": "527d1f1d11d28e0e43bd799a",
		"lat": 43.47652963780868,
		"lng": 11.8644270502374,
		"country": "Italia",
		"categories": ["Department Store"]
	},
	{
		"date": "2018-07-24T13:07+0200",
		"name": "Bistrot Il Pratello",
		"id": "4d1f57d26e8c3704a7bcef9f",
		"lat": 43.72295088324786,
		"lng": 11.767027382761222,
		"address": "Via Conti Guidi",
		"postalCode": "52014",
		"city": "Poppi",
		"country": "Italia",
		"categories": ["Bar", "Café", "Pub"]
	},
	{
		"date": "2018-07-24T12:47+0200",
		"name": "Castello di Poppi",
		"id": "4cec2b7a28408eec24e908eb",
		"lat": 43.72317689855763,
		"lng": 11.767734038670556,
		"address": "via conti guidi",
		"postalCode": "52014",
		"city": "Poppi",
		"country": "Italia",
		"categories": ["Historic Site", "Scenic Lookout"]
	},
	{
		"date": "2018-07-24T11:26+0200",
		"name": "Palazzo Comunale di Poppi",
		"id": "53f6f5f6498ee389ab703c58",
		"lat": 43.723346,
		"lng": 11.765493,
		"country": "Italia",
		"categories": ["Town Hall"]
	},
	{
		"date": "2018-07-24T10:55+0200",
		"name": "Bazaar",
		"id": "54f1ec2d498e5a9d293996cd",
		"lat": 43.728367,
		"lng": 11.768783,
		"country": "Italia",
		"categories": ["Clothing Store"]
	},
	{
		"date": "2018-07-24T10:39+0200",
		"name": "Piazza Garibaldi",
		"id": "4e904044dab46521c0fc839d",
		"lat": 43.728126525878906,
		"lng": 11.768183708190918,
		"country": "Italia",
		"categories": ["Plaza"]
	},
	{
		"date": "2018-07-24T10:28+0200",
		"name": "Poppi",
		"id": "4c7850ad81bca0938ec7f914",
		"lat": 43.72312100220171,
		"lng": 11.766728658090337,
		"postalCode": "52014",
		"country": "Italia",
		"categories": ["City"]
	},
	{
		"date": "2018-07-23T22:04+0200",
		"name": "Doccione di Sotto",
		"id": "5b5442bf772fbc002c8276d4",
		"lat": 43.757633,
		"lng": 11.964316,
		"postalCode": "52010",
		"city": "Chiusi della Verna",
		"country": "Italia",
		"categories": ["Vacation Rental"]
	},
	{
		"date": "2018-07-23T20:33+0200",
		"name": "Stazione Servizio ERG",
		"id": "4bd4581ca8b3a5939b936b5f",
		"lat": 43.40663027991625,
		"lng": 11.762706680298466,
		"address": "A1",
		"city": "Arezzo",
		"country": "Italia",
		"categories": ["Gas Station"]
	},
	{
		"date": "2018-07-23T19:54+0200",
		"name": "Giardini Poggiofanti",
		"id": "5026a5f3e4b0f23b017f20f9",
		"lat": 43.09747263883564,
		"lng": 11.786021268180711,
		"address": "Viale 1 Maggio",
		"city": "Montepulciano",
		"country": "Italia",
		"categories": ["Garden"]
	},
	{
		"date": "2018-07-23T19:26+0200",
		"name": "Pizzeria Montepulciano",
		"id": "5b560fb82b9844002cf1bba1",
		"lat": 43.09511,
		"lng": 11.783117,
		"postalCode": "53045",
		"city": "Montepulciano",
		"country": "Italia",
		"categories": ["Pizza Place"]
	},
	{
		"date": "2018-07-23T19:02+0200",
		"name": "Pienza View",
		"id": "518d7066498e3382104aefc5",
		"lat": 43.0924087001867,
		"lng": 11.782139322972217,
		"country": "Italia",
		"categories": ["Scenic Lookout"]
	},
	{
		"date": "2018-07-23T18:02+0200",
		"name": "Montepulciano",
		"id": "4b558a26f964a520dee627e3",
		"lat": 43.09317525919074,
		"lng": 11.782094812378391,
		"postalCode": "53045",
		"city": "Siena",
		"country": "Italia",
		"categories": ["City", "Scenic Lookout", "Town"]
	},
	{
		"date": "2018-07-23T16:43+0200",
		"name": "Area Servizio Q8 & Bar",
		"id": "4d546aa1a05c37041d15ac87",
		"lat": 43.45424164953475,
		"lng": 11.808100667507883,
		"address": "Loc. San Giuliano",
		"city": "Arezzo",
		"country": "Italia",
		"categories": ["Gas Station"]
	},
	{
		"date": "2018-07-23T16:28+0200",
		"name": "Ufficio Turistico",
		"id": "4facc4fee4b0c811fe97b881",
		"lat": 43.46133,
		"lng": 11.876371,
		"address": "Piazza Della Repubblica",
		"postalCode": "52100",
		"city": "Arezzo",
		"country": "Italia",
		"categories": ["Tourist Information Center"]
	},
	{
		"date": "2018-07-23T16:27+0200",
		"name": "Arezzo",
		"id": "4bb9d07553649c74d94148fb",
		"lat": 43.471551,
		"lng": 11.862027,
		"postalCode": "52100",
		"city": "Arezzo",
		"country": "Italia",
		"categories": ["City"]
	},
	{
		"date": "2018-07-23T09:53+0200",
		"name": "Doccione di Sotto",
		"id": "5b5442bf772fbc002c8276d4",
		"lat": 43.757633,
		"lng": 11.964316,
		"postalCode": "52010",
		"city": "Chiusi della Verna",
		"country": "Italia",
		"categories": ["Vacation Rental"]
	},
	{
		"date": "2018-07-22T15:58+0200",
		"name": "Coop Centro Italia",
		"id": "4eb286fa29c2b0499acb23f8",
		"lat": 43.701466549948165,
		"lng": 11.805142182660509,
		"address": "Loc. Palazzetto",
		"city": "Bibbiena",
		"country": "Italia",
		"categories": ["Department Store"]
	},
	{
		"date": "2018-07-22T15:52+0200",
		"name": "Bibbiena",
		"id": "4d286574068e8cfad3e9c44c",
		"lat": 43.69546249716878,
		"lng": 11.817491054534912,
		"city": "Bibbiena",
		"country": "Italia",
		"categories": ["Town", "States & Municipalities"]
	},
	{
		"date": "2018-07-22T10:39+0200",
		"name": "Doccione di Sotto",
		"id": "5b5442bf772fbc002c8276d4",
		"lat": 43.757633,
		"lng": 11.964316,
		"postalCode": "52010",
		"city": "Chiusi della Verna",
		"country": "Italia",
		"categories": ["Vacation Rental"]
	},
	{
		"date": "2018-07-22T00:41+0200",
		"name": "Arezzo",
		"id": "4bb9d07553649c74d94148fb",
		"lat": 43.471551,
		"lng": 11.862027,
		"postalCode": "52100",
		"city": "Arezzo",
		"country": "Italia",
		"categories": ["City"]
	},
	{
		"date": "2018-07-21T23:17+0200",
		"name": "GOLDCAR Firenze Aeroporto",
		"id": "59d341f71c0b346e7f9f9cf1",
		"lat": 43.800452,
		"lng": 11.19689,
		"address": "1963 Via Palagio degli Spini",
		"postalCode": "50127",
		"city": "Firenze",
		"country": "Italia",
		"categories": ["Rental Car Location"]
	},
	{
		"date": "2018-07-21T22:36+0200",
		"name": "Arrivo Arrivals",
		"id": "503a4519e4b06ee16eb16b9f",
		"lat": 43.802421543293974,
		"lng": 11.20099888893138,
		"address": "Aeroporto di Firenze",
		"country": "Italia",
		"categories": ["Airport Terminal"]
	},
	{
		"date": "2018-07-21T22:32+0200",
		"name": "Aeroporto di Firenze \"Amerigo Vespucci\" (FLR) (Aeroporto di Firenze \"Amerigo Vespucci\")",
		"id": "4b76e9f3f964a520ef692ee3",
		"lat": 43.80234861459779,
		"lng": 11.201047254387117,
		"address": "Via del Termine, 11",
		"postalCode": "50127",
		"city": "Firenze",
		"country": "Italia",
		"categories": ["Airport"]
	},
	{
		"date": "2018-07-21T20:17+0200",
		"name": "Schiphol B Platform",
		"id": "4ba7a96ff964a52055a739e3",
		"lat": 52.301426909753005,
		"lng": 4.755942004075122,
		"address": "AMS Airport",
		"postalCode": "1118 CP",
		"city": "Luchthaven Schiphol",
		"country": "Nederland",
		"categories": ["Airport Terminal"]
	},
	{
		"date": "2018-07-21T19:30+0200",
		"name": "Departures 1",
		"id": "4ba43205f964a520fa8a38e3",
		"lat": 52.30862885793512,
		"lng": 4.763721275893073,
		"address": "AMS Airport",
		"city": "Schiphol",
		"country": "Nederland",
		"categories": ["Airport Terminal"]
	},
	{
		"date": "2018-07-21T19:21+0200",
		"name": "Amsterdam Airport Schiphol (AMS) (Amsterdam Airport Schiphol)",
		"id": "4a84e798f964a520defd1fe3",
		"lat": 52.3085704596075,
		"lng": 4.762122631072998,
		"address": "Aankomstpassage",
		"postalCode": "1118 CP",
		"city": "Schiphol",
		"country": "Nederland",
		"categories": ["Airport"]
	},
	{
		"date": "2018-07-21T19:07+0200",
		"name": "Station Amsterdam Sloterdijk",
		"id": "4a56245ff964a52085b41fe3",
		"lat": 52.389038517725574,
		"lng": 4.838510921333843,
		"address": "Orlyplein 105",
		"postalCode": "1043 DT",
		"city": "Amsterdam",
		"country": "Nederland",
		"categories": ["Train Station"]
	},
	{
		"date": "2018-07-21T18:55+0200",
		"name": "Station Haarlem",
		"id": "4a8c3036f964a5203a0d20e3",
		"lat": 52.387919728928985,
		"lng": 4.638276517449355,
		"address": "Stationsplein 11 L",
		"postalCode": "2011 LR",
		"city": "Haarlem",
		"country": "Nederland",
		"categories": ["Train Station"]
	},
	{
		"date": "2018-07-20T20:09+0200",
		"name": "Grote Markt",
		"id": "4b33f1aef964a520842225e3",
		"lat": 52.38142024346606,
		"lng": 4.635760280866094,
		"address": "Grote Markt",
		"postalCode": "2011",
		"city": "Haarlem",
		"country": "Nederland",
		"categories": ["Plaza", "Event Space"]
	},
	{
		"date": "2018-07-19T20:14+0200",
		"name": "Station Haarlem",
		"id": "4a8c3036f964a5203a0d20e3",
		"lat": 52.387919728928985,
		"lng": 4.638276517449355,
		"address": "Stationsplein 11 L",
		"postalCode": "2011 LR",
		"city": "Haarlem",
		"country": "Nederland",
		"categories": ["Train Station"]
	},
	{
		"date": "2018-07-19T19:49+0200",
		"name": "Station Amsterdam Centraal",
		"id": "4a688ba1f964a52088ca1fe3",
		"lat": 52.37878224866535,
		"lng": 4.900374412536621,
		"address": "Stationsplein 15",
		"postalCode": "1012 AB",
		"city": "Amsterdam",
		"country": "Nederland",
		"categories": ["Train Station"]
	},
	{
		"date": "2018-07-19T19:42+0200",
		"name": "Salsa Shop",
		"id": "574f4d9c498efc56a240b8c2",
		"lat": 52.37958465946948,
		"lng": 4.900045992389015,
		"address": "Stationsplein",
		"postalCode": "1012 AB",
		"city": "Amsterdam",
		"country": "Nederland",
		"categories": ["Burrito Place"]
	},
	{
		"date": "2018-07-19T19:23+0200",
		"name": "Impact Hub",
		"id": "586b9dc89c439d2cc8919a83",
		"lat": 52.36229268128553,
		"lng": 4.9216869508087555,
		"country": "Nederland",
		"categories": ["Coworking Space"]
	},
	{
		"date": "2018-07-19T18:37+0200",
		"name": "Tramhalte Waterlooplein",
		"id": "4b72e2dff964a520848d2de3",
		"lat": 52.36707703818086,
		"lng": 4.9020448483654,
		"address": "Waterlooplein",
		"postalCode": "1017",
		"city": "Amsterdam",
		"country": "Nederland",
		"categories": ["Tram Station"]
	},
	{
		"date": "2018-07-19T18:36+0200",
		"name": "Waterlooplein",
		"id": "4a61dfebf964a5209bc21fe3",
		"lat": 52.368085954991855,
		"lng": 4.902520179748535,
		"address": "Waterlooplein",
		"city": "Amsterdam",
		"country": "Nederland",
		"categories": ["Plaza"]
	},
	{
		"date": "2018-07-19T18:25+0200",
		"name": "Station Amsterdam Centraal",
		"id": "4a688ba1f964a52088ca1fe3",
		"lat": 52.37878224866535,
		"lng": 4.900374412536621,
		"address": "Stationsplein 15",
		"postalCode": "1012 AB",
		"city": "Amsterdam",
		"country": "Nederland",
		"categories": ["Train Station"]
	},
	{
		"date": "2018-07-19T18:09+0200",
		"name": "Station Haarlem",
		"id": "4a8c3036f964a5203a0d20e3",
		"lat": 52.387919728928985,
		"lng": 4.638276517449355,
		"address": "Stationsplein 11 L",
		"postalCode": "2011 LR",
		"city": "Haarlem",
		"country": "Nederland",
		"categories": ["Train Station"]
	},
	{
		"date": "2018-07-16T11:38+0200",
		"name": "The Döner Company",
		"id": "4d790928a56e37040e5d7567",
		"lat": 52.38817372624091,
		"lng": 4.63927902305991,
		"address": "Station Haarlem",
		"postalCode": "2011 LR",
		"city": "Haarlem",
		"country": "Nederland",
		"categories": [
			"Doner Restaurant",
			"Falafel Restaurant",
			"Kebab Restaurant"
		]
	},
	{
		"date": "2018-07-15T23:04+0200",
		"name": "Metrostation Postjesweg",
		"id": "4b176901f964a52053c523e3",
		"lat": 52.36451392747967,
		"lng": 4.833916204451173,
		"address": "Postjesweg",
		"city": "Amsterdam",
		"country": "Nederland",
		"categories": ["Metro Station"]
	},
	{
		"date": "2018-07-15T19:50+0200",
		"name": "Station Amsterdam Sloterdijk",
		"id": "4a56245ff964a52085b41fe3",
		"lat": 52.389038517725574,
		"lng": 4.838510921333843,
		"address": "Orlyplein 105",
		"postalCode": "1043 DT",
		"city": "Amsterdam",
		"country": "Nederland",
		"categories": ["Train Station"]
	},
	{
		"date": "2018-07-15T19:30+0200",
		"name": "Station Haarlem",
		"id": "4a8c3036f964a5203a0d20e3",
		"lat": 52.387919728928985,
		"lng": 4.638276517449355,
		"address": "Stationsplein 11 L",
		"postalCode": "2011 LR",
		"city": "Haarlem",
		"country": "Nederland",
		"categories": ["Train Station"]
	},
	{
		"date": "2018-07-15T17:56+0200",
		"name": "Station Amsterdam Sloterdijk",
		"id": "4a56245ff964a52085b41fe3",
		"lat": 52.389038517725574,
		"lng": 4.838510921333843,
		"address": "Orlyplein 105",
		"postalCode": "1043 DT",
		"city": "Amsterdam",
		"country": "Nederland",
		"categories": ["Train Station"]
	},
	{
		"date": "2018-07-15T17:40+0200",
		"name": "Station Schiphol Airport",
		"id": "4b14bf25f964a5203fa623e3",
		"lat": 52.309421352795255,
		"lng": 4.762016504847906,
		"address": "Aankomstpassage 18",
		"postalCode": "1118 AX",
		"city": "Schiphol",
		"country": "Nederland",
		"categories": ["Train Station"]
	},
	{
		"date": "2018-07-15T17:31+0200",
		"name": "Amsterdam Airport Schiphol (AMS) (Amsterdam Airport Schiphol)",
		"id": "4a84e798f964a520defd1fe3",
		"lat": 52.3085704596075,
		"lng": 4.762122631072998,
		"address": "Aankomstpassage",
		"postalCode": "1118 CP",
		"city": "Schiphol",
		"country": "Nederland",
		"categories": ["Airport"]
	},
	{
		"date": "2018-07-15T15:26+0200",
		"name": "Apron",
		"id": "4da5597093a01f42fac49368",
		"lat": 48.116991541692876,
		"lng": 16.568263812449405,
		"address": "VIE Airport",
		"postalCode": "2320",
		"city": "Schwechat",
		"country": "Österreich",
		"categories": ["Airport Service"]
	},
	{
		"date": "2018-07-15T14:20+0200",
		"name": "Gate F02",
		"id": "4fd80df6e4b014487f89a53d",
		"lat": 48.11875462403914,
		"lng": 16.566437804241847,
		"address": "Terminal 3",
		"postalCode": "1300",
		"city": "Schwechat",
		"country": "Österreich",
		"categories": ["Airport Gate"]
	},
	{
		"date": "2018-07-15T13:38+0200",
		"name": "Terminal 3 (301-399)",
		"id": "4db922856a2334682da18d97",
		"lat": 48.11954413586366,
		"lng": 16.562747955322266,
		"address": "VIE Airport",
		"postalCode": "1300",
		"city": "Schwechat",
		"country": "Österreich",
		"categories": ["Airport Terminal"]
	},
	{
		"date": "2018-07-15T12:35+0200",
		"name": "Jamie’s Italian",
		"id": "5a3bf647c21cb11308f47f05",
		"lat": 48.11934649830307,
		"lng": 16.56526424208089,
		"address": "Flughafen Wien",
		"city": "Schwechat",
		"country": "Österreich",
		"categories": ["Italian Restaurant"]
	},
	{
		"date": "2018-07-15T12:22+0200",
		"name": "Vienna International Airport (VIE) (Flughafen Wien-Schwechat)",
		"id": "4b05889af964a520e5cf22e3",
		"lat": 48.119328926702686,
		"lng": 16.56236894679551,
		"address": "Abflugstr.",
		"postalCode": "1300",
		"city": "Schwechat",
		"country": "Österreich",
		"categories": ["Airport"]
	},
	{
		"date": "2018-07-15T11:10+0200",
		"name": "Gate A6",
		"id": "4e23dda11495f18f0365f617",
		"lat": 47.433851433401536,
		"lng": 19.26203934034426,
		"address": "Terminal 2A",
		"postalCode": "1185",
		"city": "Budapest",
		"country": "Magyarország",
		"categories": ["Airport Gate"]
	},
	{
		"date": "2018-07-15T10:20+0200",
		"name": "Food Court",
		"id": "57fa1ad4498eb0c4e6e570cd",
		"lat": 47.43324471866434,
		"lng": 19.261294958863196,
		"address": "Budapest Liszt Ferenc Nemzetközi Repülőtér",
		"postalCode": "1185",
		"city": "Budapest",
		"country": "Magyarország",
		"categories": ["Food Court"]
	},
	{
		"date": "2018-07-15T09:58+0200",
		"name": "Terminal 2A",
		"id": "4c25aa535c5ca59357e044fe",
		"lat": 47.43307502585309,
		"lng": 19.262175999269573,
		"address": "BUD Nemzetközi Repülőtér",
		"postalCode": "1185",
		"city": "Budapest",
		"country": "Magyarország",
		"categories": ["Airport Terminal"]
	},
	{
		"date": "2018-07-15T09:55+0200",
		"name": "Terminal 2A",
		"id": "4c25aa535c5ca59357e044fe",
		"lat": 47.43307502585309,
		"lng": 19.262175999269573,
		"address": "BUD Nemzetközi Repülőtér",
		"postalCode": "1185",
		"city": "Budapest",
		"country": "Magyarország",
		"categories": ["Airport Terminal"]
	},
	{
		"date": "2018-07-15T09:17+0200",
		"name": "Mechwart Liget",
		"id": "4c260654a852c928b6cce56c",
		"lat": 47.51118835277128,
		"lng": 19.03218258259001,
		"address": "Mechwart Liget 1",
		"postalCode": "1024",
		"city": "Budapest",
		"country": "Magyarország",
		"categories": ["Park"]
	},
	{
		"date": "2018-07-14T23:42+0200",
		"name": "Miniatür Bar",
		"id": "4ce57e5519efa09331bac5f1",
		"lat": 47.51325077323346,
		"lng": 19.031313046642374,
		"address": "Rózsahegy u. 1/a",
		"postalCode": "1024",
		"city": "Budapest",
		"country": "Magyarország",
		"categories": ["Nightclub", "Café", "Restaurant"]
	},
	{
		"date": "2018-07-14T19:13+0200",
		"name": "Angéla Udvar",
		"id": "51b1a34d498e9bce9861d28c",
		"lat": 47.514602,
		"lng": 19.029444,
		"address": "Ady Endre Utca 03.",
		"postalCode": "1024",
		"city": "Budapest",
		"country": "Magyarország",
		"categories": ["Soccer Field"]
	},
	{
		"date": "2018-07-14T17:45+0200",
		"name": "Marangona gasztro.pont",
		"id": "55547d0a498e2805c35c89bc",
		"lat": 47.51185184463025,
		"lng": 19.02997499576382,
		"address": "Bimbo Street 2.",
		"postalCode": "1022",
		"city": "Budapest",
		"country": "Magyarország",
		"categories": ["Dessert Shop", "Cupcake Shop"]
	},
	{
		"date": "2018-07-14T17:06+0200",
		"name": "Mechwart ligeti játszótér",
		"id": "4dff7ad9d4c00c69c14c9028",
		"lat": 47.51178650664935,
		"lng": 19.032393103299004,
		"address": "Mechwart tér 1.",
		"postalCode": "1024",
		"city": "Budapest",
		"country": "Magyarország",
		"categories": ["Playground"]
	},
	{
		"date": "2018-07-14T16:12+0200",
		"name": "Bp. II. Ker. Polgármesteri Hivatal",
		"id": "4d5504aefb65236a6979f4b3",
		"lat": 47.512498543204266,
		"lng": 19.032549479204008,
		"address": "Mechwart liget 1.",
		"postalCode": "1025",
		"city": "Budapest",
		"country": "Magyarország",
		"categories": ["City Hall", "Government Building", "Building"]
	},
	{
		"date": "2018-07-14T13:58+0200",
		"name": "Mechwart ligeti szökőkút",
		"id": "4f9fcc22e4b018e2a503686a",
		"lat": 47.511729345360315,
		"lng": 19.031798373233634,
		"country": "Magyarország",
		"categories": ["Garden"]
	},
	{
		"date": "2018-07-14T13:35+0200",
		"name": "Angéla Udvar",
		"id": "51b1a34d498e9bce9861d28c",
		"lat": 47.514602,
		"lng": 19.029444,
		"address": "Ady Endre Utca 03.",
		"postalCode": "1024",
		"city": "Budapest",
		"country": "Magyarország",
		"categories": ["Soccer Field"]
	},
	{
		"date": "2018-07-14T11:26+0200",
		"name": "Millenáris park",
		"id": "4b858e2df964a5203a6531e3",
		"lat": 47.51114047594367,
		"lng": 19.024743415875573,
		"address": "Kis Rókus u. 16–20.",
		"postalCode": "1024",
		"city": "Budapest",
		"country": "Magyarország",
		"categories": ["Park"]
	},
	{
		"date": "2018-07-14T11:13+0200",
		"name": "Széll Kálmán tér",
		"id": "4b4cc7dff964a5209abe26e3",
		"lat": 47.506890027000544,
		"lng": 19.02481591861899,
		"address": "Széll Kálmán tér",
		"postalCode": "1014",
		"city": "Budapest",
		"country": "Magyarország",
		"categories": ["Plaza"]
	},
	{
		"date": "2018-07-14T11:00+0200",
		"name": "Media Markt",
		"id": "4c1cf271eac020a1974d47c2",
		"lat": 47.5087982126228,
		"lng": 19.026966227377184,
		"address": "Lövőház u. 2-6.",
		"postalCode": "1024",
		"city": "Budapest",
		"country": "Magyarország",
		"categories": ["Electronics Store"]
	},
	{
		"date": "2018-07-14T10:27+0200",
		"name": "Pupa",
		"id": "548706d6498e6510cc3851b7",
		"lat": 47.508858412755025,
		"lng": 19.026714593643042,
		"country": "Magyarország",
		"categories": ["Cosmetics Shop"]
	},
	{
		"date": "2018-07-14T10:27+0200",
		"name": "Mammut II.",
		"id": "4be47ec4d4f7c9b6563b2420",
		"lat": 47.50891554717574,
		"lng": 19.026785923674826,
		"address": "Lövőház u. 2-6.",
		"postalCode": "1024",
		"city": "Budapest",
		"country": "Magyarország",
		"categories": ["Shopping Mall"]
	},
	{
		"date": "2018-07-14T09:54+0200",
		"name": "Lipóti Pékség",
		"id": "4cecbb703b03f04dff7930dc",
		"lat": 47.510431947006765,
		"lng": 19.030446723139306,
		"address": "Margit krt. 59.",
		"postalCode": "1027",
		"city": "Budapest",
		"country": "Magyarország",
		"categories": ["Bakery"]
	},
	{
		"date": "2018-07-14T08:33+0200",
		"name": "Rózsadomb",
		"id": "4d04da957d9ba35d69366823",
		"lat": 47.518100523912466,
		"lng": 19.023532177409834,
		"postalCode": "1024",
		"city": "Budapest",
		"country": "Magyarország",
		"categories": ["Neighborhood", "Mountain"]
	},
	{
		"date": "2018-07-13T21:37+0200",
		"name": "Porcellino Grasso Ristorante",
		"id": "4b77fde2f964a52038b12ee3",
		"lat": 47.515458387862154,
		"lng": 19.02714814289518,
		"address": "Ady Endre u. 19.",
		"postalCode": "1024",
		"city": "Budapest",
		"country": "Magyarország",
		"categories": ["Italian Restaurant"]
	},
	{
		"date": "2018-07-13T20:45+0200",
		"name": "Budapest",
		"id": "4c4ee92afa9d952159e36b0a",
		"lat": 47.4988508168438,
		"lng": 19.04029369354248,
		"country": "Magyarország",
		"categories": ["City"]
	},
	{
		"date": "2018-07-13T20:02+0200",
		"name": "Budapest Liszt Ferenc International Airport (BUD) (Budapest Liszt Ferenc nemzetközi repülőtér)",
		"id": "4b61c2daf964a5200f212ae3",
		"lat": 47.4331855826648,
		"lng": 19.261276141427583,
		"address": "Budapest Airport",
		"postalCode": "1185",
		"city": "Budapest",
		"country": "Magyarország",
		"categories": ["Airport"]
	},
	{
		"date": "2018-07-13T20:01+0200",
		"name": "Terminal 2A",
		"id": "4c25aa535c5ca59357e044fe",
		"lat": 47.43307502585309,
		"lng": 19.262175999269573,
		"address": "BUD Nemzetközi Repülőtér",
		"postalCode": "1185",
		"city": "Budapest",
		"country": "Magyarország",
		"categories": ["Airport Terminal"]
	},
	{
		"date": "2018-07-13T18:22+0200",
		"name": "Gate K22",
		"id": "575547b1498e75528fa0cf52",
		"lat": 48.353339791521535,
		"lng": 11.798644547098375,
		"address": "Terminal 2 Satellit",
		"postalCode": "85356",
		"city": "Oberding",
		"country": "Deutschland",
		"categories": ["Airport Gate"]
	},
	{
		"date": "2018-07-13T17:45+0200",
		"name": "Terminal 2",
		"id": "4b93a176f964a520f14a34e3",
		"lat": 48.35394456756676,
		"lng": 11.790423444513088,
		"address": "MUC Airport",
		"postalCode": "85356",
		"city": "München",
		"country": "Deutschland",
		"categories": ["Airport Terminal"]
	},
	{
		"date": "2018-07-13T17:27+0200",
		"name": "München Flughafen \"Franz Josef Strauß\" (MUC) (Flughafen München „Franz Josef Strauß“)",
		"id": "4cbd1bfaf50e224b160503fc",
		"lat": 48.35407316545161,
		"lng": 11.78991134195538,
		"address": "Nordallee 25",
		"postalCode": "85356",
		"city": "München",
		"country": "Deutschland",
		"categories": ["Airport"]
	},
	{
		"date": "2018-07-13T15:53+0200",
		"name": "Gate B23",
		"id": "4b9fb157f964a520763537e3",
		"lat": 52.30407541657281,
		"lng": 4.762622566929252,
		"address": "Concourse B",
		"city": "Schiphol",
		"country": "Nederland",
		"categories": ["Airport Gate"]
	},
	{
		"date": "2018-07-13T14:57+0200",
		"name": "Amsterdam Airport Schiphol (AMS) (Amsterdam Airport Schiphol)",
		"id": "4a84e798f964a520defd1fe3",
		"lat": 52.3085704596075,
		"lng": 4.762122631072998,
		"address": "Aankomstpassage",
		"postalCode": "1118 CP",
		"city": "Schiphol",
		"country": "Nederland",
		"categories": ["Airport"]
	},
	{
		"date": "2018-07-13T14:37+0200",
		"name": "Station Amsterdam Sloterdijk",
		"id": "4a56245ff964a52085b41fe3",
		"lat": 52.389038517725574,
		"lng": 4.838510921333843,
		"address": "Orlyplein 105",
		"postalCode": "1043 DT",
		"city": "Amsterdam",
		"country": "Nederland",
		"categories": ["Train Station"]
	},
	{
		"date": "2018-07-13T14:16+0200",
		"name": "Station Haarlem",
		"id": "4a8c3036f964a5203a0d20e3",
		"lat": 52.387919728928985,
		"lng": 4.638276517449355,
		"address": "Stationsplein 11 L",
		"postalCode": "2011 LR",
		"city": "Haarlem",
		"country": "Nederland",
		"categories": ["Train Station"]
	},
	{
		"date": "2018-07-13T12:01+0200",
		"name": "Schatkamer CityLife",
		"id": "552fb6db498e5f41b0be73bf",
		"lat": 52.37975448488789,
		"lng": 4.637396023506427,
		"address": "Anegang 39",
		"postalCode": "2011HR",
		"city": "Haarlem",
		"country": "Nederland",
		"categories": ["Furniture / Home Store"]
	},
	{
		"date": "2018-07-12T21:51+0200",
		"name": "Albert Heijn",
		"id": "4b9a4b64f964a52066aa35e3",
		"lat": 52.38445463709139,
		"lng": 4.635787640721933,
		"address": "Kruisstraat 10",
		"postalCode": "2011 PX",
		"city": "Haarlem",
		"country": "Nederland",
		"categories": ["Supermarket"]
	},
	{
		"date": "2018-07-12T20:28+0200",
		"name": "Zara",
		"id": "520a45ba11d25973ec7d9563",
		"lat": 52.37882571647906,
		"lng": 4.633192845197722,
		"country": "Nederland",
		"categories": ["Clothing Store"]
	},
	{
		"date": "2018-07-12T15:47+0200",
		"name": "McDonald's",
		"id": "4cbf1ced021ca143a7c2590c",
		"lat": 52.379173,
		"lng": 4.633436999999958,
		"address": "Grote Houtstraat 75",
		"postalCode": "2011 SG",
		"city": "Haarlem",
		"country": "Nederland",
		"categories": ["Fast Food Restaurant"]
	},
	{
		"date": "2018-07-11T13:54+0200",
		"name": "SLA",
		"id": "57caa839498e1f871ab5ad3c",
		"lat": 52.38599600064496,
		"lng": 4.63620111519587,
		"address": "Kruisweg 68A",
		"postalCode": "2011 LE",
		"city": "Haarlem",
		"country": "Nederland",
		"categories": ["Salad Place"]
	},
	{
		"date": "2018-07-11T12:47+0200",
		"name": "Zara",
		"id": "520a45ba11d25973ec7d9563",
		"lat": 52.37882571647906,
		"lng": 4.633192845197722,
		"country": "Nederland",
		"categories": ["Clothing Store"]
	},
	{
		"date": "2018-07-10T18:21+0200",
		"name": "Albert Heijn",
		"id": "4b9a4b64f964a52066aa35e3",
		"lat": 52.38445463709139,
		"lng": 4.635787640721933,
		"address": "Kruisstraat 10",
		"postalCode": "2011 PX",
		"city": "Haarlem",
		"country": "Nederland",
		"categories": ["Supermarket"]
	},
	{
		"date": "2018-07-10T14:19+0200",
		"name": "The Döner Company",
		"id": "4d790928a56e37040e5d7567",
		"lat": 52.38817372624091,
		"lng": 4.63927902305991,
		"address": "Station Haarlem",
		"postalCode": "2011 LR",
		"city": "Haarlem",
		"country": "Nederland",
		"categories": [
			"Doner Restaurant",
			"Falafel Restaurant",
			"Kebab Restaurant"
		]
	},
	{
		"date": "2018-07-10T13:47+0200",
		"name": "Basic X Hair",
		"id": "52e15bd4498eff401e7266b1",
		"lat": 52.38709780312595,
		"lng": 4.636948636589309,
		"address": "Kruisweg 35",
		"postalCode": "2011LA",
		"city": "Haarlem",
		"country": "Nederland",
		"categories": ["Salon / Barbershop"]
	},
	{
		"date": "2018-07-10T13:46+0200",
		"name": "CIGO",
		"id": "4da04ae8bb206ea8fafed7fd",
		"lat": 52.38698266012458,
		"lng": 4.636698269208286,
		"address": "Kruisweg 37",
		"postalCode": "2011 LA",
		"city": "Haarlem",
		"country": "Nederland",
		"categories": ["Bookstore", "Smoke Shop"]
	},
	{
		"date": "2018-07-09T13:01+0200",
		"name": "SUBWAY",
		"id": "4e899f5e9a52f9bbd0e654b4",
		"lat": 52.38297200404556,
		"lng": 4.6351964166808415,
		"address": "Krocht 12",
		"postalCode": "2011 PT",
		"city": "Haarlem",
		"country": "Nederland",
		"categories": ["Sandwich Place"]
	},
	{
		"date": "2018-07-08T22:01+0200",
		"name": "Sultan shoarma",
		"id": "573362de498e4009791e56a8",
		"lat": 52.386933,
		"lng": 4.636699,
		"country": "Nederland",
		"categories": ["Snack Place"]
	},
	{
		"date": "2018-07-08T20:35+0200",
		"name": "San Blas",
		"id": "5555e51c498e5518297d7966",
		"lat": 52.40307423092486,
		"lng": 4.543550861664443,
		"address": "Zeeweg 86",
		"city": "Overveen",
		"country": "Nederland",
		"categories": ["Beach Bar"]
	},
	{
		"date": "2018-07-08T19:50+0200",
		"name": "Strand Bloemendaal",
		"id": "4bc9aea0511f95211009aec7",
		"lat": 52.40155918662464,
		"lng": 4.542601808013764,
		"address": "Zeeweg",
		"city": "Bloemendaal",
		"country": "Nederland",
		"categories": ["Beach", "Surf Spot"]
	},
	{
		"date": "2018-07-08T12:05+0200",
		"name": "Vomar Voordeelmarkt",
		"id": "4b72c969f964a52096882de3",
		"lat": 52.39127711020139,
		"lng": 4.649005288257338,
		"address": "Paul Krugerkade 22",
		"postalCode": "2021 BN",
		"city": "Haarlem",
		"country": "Nederland",
		"categories": ["Supermarket", "Grocery Store"]
	},
	{
		"date": "2018-07-07T21:20+0200",
		"name": "Albert Heijn",
		"id": "4b9a4b64f964a52066aa35e3",
		"lat": 52.38445463709139,
		"lng": 4.635787640721933,
		"address": "Kruisstraat 10",
		"postalCode": "2011 PX",
		"city": "Haarlem",
		"country": "Nederland",
		"categories": ["Supermarket"]
	},
	{
		"date": "2018-07-07T12:52+0200",
		"name": "SUBWAY",
		"id": "4e899f5e9a52f9bbd0e654b4",
		"lat": 52.38297200404556,
		"lng": 4.6351964166808415,
		"address": "Krocht 12",
		"postalCode": "2011 PT",
		"city": "Haarlem",
		"country": "Nederland",
		"categories": ["Sandwich Place"]
	},
	{
		"date": "2018-07-04T20:16+0200",
		"name": "Albert Heijn",
		"id": "4b227818f964a520424724e3",
		"lat": 52.37863241703463,
		"lng": 4.8964994998580496,
		"address": "Prins Hendrikkade 20",
		"postalCode": "1012 TL",
		"city": "Amsterdam",
		"country": "Nederland",
		"categories": ["Supermarket"]
	},
	{
		"date": "2018-07-04T19:33+0200",
		"name": "Juice by Nature",
		"id": "5800aa6c38fa5505da5fce01",
		"lat": 52.374319455150065,
		"lng": 4.896672858266566,
		"address": "Warmoesstraat 8",
		"postalCode": "1012 JJ",
		"city": "Amsterdam",
		"country": "Nederland",
		"categories": ["Juice Bar"]
	},
	{
		"date": "2018-07-04T18:55+0200",
		"name": "Station Amsterdam Centraal",
		"id": "4a688ba1f964a52088ca1fe3",
		"lat": 52.37878224866535,
		"lng": 4.900374412536621,
		"address": "Stationsplein 15",
		"postalCode": "1012 AB",
		"city": "Amsterdam",
		"country": "Nederland",
		"categories": ["Train Station"]
	},
	{
		"date": "2018-07-03T21:17+0200",
		"name": "India Palace",
		"id": "4c5057673a6f2d7f60a06877",
		"lat": 52.38126838250037,
		"lng": 4.632222643743207,
		"address": "Gedempte Oude Gracht 29",
		"postalCode": "2011 GL",
		"city": "Haarlem",
		"country": "Nederland",
		"categories": ["Indian Restaurant"]
	},
	{
		"date": "2018-07-02T00:12+0200",
		"name": "Station Amsterdam Sloterdijk",
		"id": "4a56245ff964a52085b41fe3",
		"lat": 52.389038517725574,
		"lng": 4.838510921333843,
		"address": "Orlyplein 105",
		"postalCode": "1043 DT",
		"city": "Amsterdam",
		"country": "Nederland",
		"categories": ["Train Station"]
	},
	{
		"date": "2018-07-01T23:43+0200",
		"name": "Burger King",
		"id": "4a27055ef964a520a4871fe3",
		"lat": 52.37867354981148,
		"lng": 4.899643510289329,
		"address": "Station Amsterdam Centraal",
		"postalCode": "1012 AB",
		"city": "Amsterdam",
		"country": "Nederland",
		"categories": ["Fast Food Restaurant"]
	},
	{
		"date": "2018-07-01T23:43+0200",
		"name": "Station Amsterdam Centraal",
		"id": "4a688ba1f964a52088ca1fe3",
		"lat": 52.37878224866535,
		"lng": 4.900374412536621,
		"address": "Stationsplein 15",
		"postalCode": "1012 AB",
		"city": "Amsterdam",
		"country": "Nederland",
		"categories": ["Train Station"]
	},
	{
		"date": "2018-07-01T17:36+0100",
		"name": "Eurostar Boarding Hall",
		"id": "58b02b849435a903b9ab1bfe",
		"lat": 51.531761593991895,
		"lng": -0.12663213994211817,
		"address": "St Pancras Eurostar Terminal",
		"city": "London",
		"country": "United Kingdom",
		"categories": ["Travel Lounge"]
	},
	{
		"date": "2018-07-01T16:55+0100",
		"name": "Eurostar Passport Control",
		"id": "5654b01f498e89858afee4a3",
		"lat": 51.53163847040216,
		"lng": -0.1262470776936236,
		"address": "Pancras Rd",
		"postalCode": "NW1 2QP",
		"city": "London",
		"country": "United Kingdom",
		"categories": ["Border Crossing"]
	},
	{
		"date": "2018-07-01T16:55+0100",
		"name": "London St Pancras Eurostar Terminal (London St Pancras International Eurostar Terminal)",
		"id": "4bcc08273740b7139c756365",
		"lat": 51.53157404627683,
		"lng": -0.12617111206054688,
		"address": "Pancras Rd",
		"postalCode": "NW1 2QP",
		"city": "London",
		"country": "United Kingdom",
		"categories": ["Train Station"]
	},
	{
		"date": "2018-07-01T15:23+0100",
		"name": "Pret A Manger",
		"id": "4ba1f143f964a52030d337e3",
		"lat": 51.53071869427611,
		"lng": -0.12216772266770833,
		"address": "296 Pentonville Rd",
		"postalCode": "N1 9NR",
		"city": "King's Cross",
		"country": "United Kingdom",
		"categories": ["Sandwich Place", "Café", "Salad Place"]
	},
	{
		"date": "2018-07-01T15:10+0100",
		"name": "Platform 9¾",
		"id": "4b114284f964a520657923e3",
		"lat": 51.5319738000279,
		"lng": -0.12418363779179442,
		"address": "King's Cross Railway Station",
		"postalCode": "N1 9AL",
		"city": "London",
		"country": "United Kingdom",
		"categories": ["General Entertainment"]
	},
	{
		"date": "2018-07-01T15:10+0100",
		"name": "London King's Cross Railway Station (KGX) (London King's Cross Railway Station)",
		"id": "4af33684f964a520c7eb21e3",
		"lat": 51.531696358938234,
		"lng": -0.12412846311843359,
		"address": "Euston Rd",
		"postalCode": "N1 9AL",
		"city": "London",
		"country": "United Kingdom",
		"categories": ["Train Station"]
	},
	{
		"date": "2018-07-01T15:05+0100",
		"name": "London St Pancras International Railway Station (STP) (London St Pancras International Railway Station)",
		"id": "4ac518f7f964a520c6af20e3",
		"lat": 51.53148370536347,
		"lng": -0.1258510533250094,
		"address": "Pancras Rd",
		"postalCode": "NW1 2QP",
		"city": "London",
		"country": "United Kingdom",
		"categories": ["Train Station"]
	},
	{
		"date": "2018-07-01T13:19+0100",
		"name": "Brighton Railway Station (BTN)",
		"id": "4b0433c8f964a520105222e3",
		"lat": 50.82905576757376,
		"lng": -0.1410435973193085,
		"address": "Queen's Rd",
		"postalCode": "BN1 3XP",
		"city": "Brighton",
		"country": "United Kingdom",
		"categories": ["Train Station"]
	},
	{
		"date": "2018-07-01T12:56+0100",
		"name": "Falmer Railway Station (FMR)",
		"id": "4b97a58df964a520740d35e3",
		"lat": 50.86196623395006,
		"lng": -0.08727663922096199,
		"address": "Station Approach",
		"postalCode": "BN1 9PU",
		"city": "Brighton",
		"country": "United Kingdom",
		"categories": ["Train Station"]
	},
	{
		"date": "2018-07-01T12:36+0100",
		"name": "Attenborough Centre for the Creative Arts",
		"id": "571884d1cd10a651ba063ec4",
		"lat": 50.8646073,
		"lng": -0.0828679,
		"city": "Brighton",
		"country": "United Kingdom",
		"categories": ["Music Venue"]
	},
	{
		"date": "2018-07-01T12:16+0100",
		"name": "Arts Piazza Cafe",
		"id": "4c08e0251244b713b816a872",
		"lat": 50.86600822776235,
		"lng": -0.08827686309814453,
		"address": "Arts A, University of Sussex campus,",
		"postalCode": "BN1 9RH",
		"city": "Brighton",
		"country": "United Kingdom",
		"categories": ["Coffee Shop"]
	},
	{
		"date": "2018-07-01T11:41+0100",
		"name": "University of Sussex",
		"id": "4b0e77f6f964a520c75723e3",
		"lat": 50.866317787076014,
		"lng": -0.08846428722577528,
		"address": "Sussex House",
		"postalCode": "BN1 9RH",
		"city": "Falmer",
		"country": "United Kingdom",
		"categories": ["University"]
	}
]
