[
	{
		"date": "2018-04-30T22:16+0900",
		"name": "Keikyū Kawasaki Station (KK20) (京急川崎駅)",
		"id": "4b56345ff964a520330528e3",
		"lat": 35.53251594247986,
		"lng": 139.70060808556045,
		"address": "川崎区砂子1-3-1",
		"postalCode": "210-0006",
		"city": "川崎市",
		"country": "日本",
		"categories": ["Train Station"]
	},
	{
		"date": "2018-04-30T20:26+0900",
		"name": "Craft Beer x Mex-Italian CRAFTSMAN",
		"id": "56d8faec498ecfa01b3ff038",
		"lat": 35.46810744071174,
		"lng": 139.62290274962152,
		"address": "神奈川区鶴屋町2-16-4",
		"postalCode": "221-0835",
		"city": "横浜市",
		"country": "日本",
		"categories": ["Beer Bar", "Mexican Restaurant", "Italian Restaurant"]
	},
	{
		"date": "2018-04-30T18:51+0900",
		"name": "Cosmo Clock 21 (コスモクロック21)",
		"id": "4ccd084597d0224b372064b8",
		"lat": 35.45531655289822,
		"lng": 139.63679411726352,
		"address": "中区新港2-8-1",
		"postalCode": "231-0001",
		"city": "横浜市",
		"country": "日本",
		"categories": ["Theme Park Ride / Attraction"]
	},
	{
		"date": "2018-04-30T18:22+0900",
		"name": "Queen's Square Yokohama (クイーンズスクエア横浜)",
		"id": "4b5a860ef964a520a4c928e3",
		"lat": 35.45660681611284,
		"lng": 139.63359078579194,
		"address": "西区みなとみらい2-3",
		"postalCode": "220-0012",
		"city": "横浜市",
		"country": "日本",
		"categories": ["Shopping Mall"]
	},
	{
		"date": "2018-04-30T17:32+0900",
		"name": "天長門",
		"id": "4c70e49c34443704c090255f",
		"lat": 35.44256469831913,
		"lng": 139.64784029856312,
		"address": "中区山下町",
		"city": "横浜市",
		"country": "日本",
		"categories": ["Monument / Landmark"]
	},
	{
		"date": "2018-04-30T17:26+0900",
		"name": "Yokohama Chinatown (横浜中華街)",
		"id": "4befc9fb51f2c9b662e8f092",
		"lat": 35.44343521864105,
		"lng": 139.64607954025269,
		"postalCode": "231-0023",
		"city": "横浜市",
		"country": "日本",
		"categories": ["Neighborhood"]
	},
	{
		"date": "2018-04-30T17:08+0900",
		"name": "CAFE GIANG",
		"id": "5accca8e603d2a6045b0246e",
		"lat": 35.44383553969597,
		"lng": 139.64737236499786,
		"address": "中区山下町78-3",
		"postalCode": "231-0023",
		"city": "横浜市",
		"country": "日本",
		"categories": ["Coffee Shop", "Vietnamese Restaurant"]
	},
	{
		"date": "2018-04-30T16:58+0900",
		"name": "北京飯店 本館",
		"id": "4b6d63fff964a52072742ce3",
		"lat": 35.444013073344955,
		"lng": 139.6479075548611,
		"address": "中区山下町79-5",
		"postalCode": "231-0023",
		"city": "横浜市",
		"country": "日本",
		"categories": ["Chinese Restaurant"]
	},
	{
		"date": "2018-04-30T13:42+0900",
		"name": "Sankeien (三渓園)",
		"id": "4b551567f964a52099da27e3",
		"lat": 35.416999128243404,
		"lng": 139.65880393981934,
		"address": "中区本牧三之谷58-1",
		"postalCode": "231-0824",
		"city": "横浜市",
		"country": "日本",
		"categories": ["Garden", "Historic Site"]
	},
	{
		"date": "2018-04-30T12:52+0900",
		"name": "フランス橋",
		"id": "4dead239ae60e98923643788",
		"lat": 35.44217655398351,
		"lng": 139.65232372283936,
		"address": "中区山手町114",
		"postalCode": "231-0862",
		"city": "横浜市",
		"country": "日本",
		"categories": ["Bridge"]
	},
	{
		"date": "2018-04-30T12:25+0900",
		"name": "Yokohama Station (横浜駅)",
		"id": "4b07c29cf964a520d8ff22e3",
		"lat": 35.465878941747526,
		"lng": 139.6225398465855,
		"address": "西区高島2/南幸1",
		"postalCode": "220-0011",
		"city": "横浜市",
		"country": "日本",
		"categories": ["Train Station", "Metro Station"]
	},
	{
		"date": "2018-04-30T12:12+0900",
		"name": "Keikyū Kamata Station (KK11) (京急蒲田駅)",
		"id": "4b4d45eff964a520d7cf26e3",
		"lat": 35.56141823673204,
		"lng": 139.7243873840393,
		"address": "蒲田4-50-10",
		"postalCode": "144-0052",
		"city": "東京",
		"country": "日本",
		"categories": ["Train Station"]
	},
	{
		"date": "2018-04-29T22:35+0900",
		"name": "Kirin City Plus (キリンシティプラス)",
		"id": "566a7691498eb34bbe3b4846",
		"lat": 35.560616202797156,
		"lng": 139.72351640290393,
		"address": "蒲田4-50-11",
		"postalCode": "144-0052",
		"city": "東京",
		"country": "日本",
		"categories": ["Gastropub"]
	},
	{
		"date": "2018-04-29T22:28+0900",
		"name": "Keikyū Kamata Station (KK11) (京急蒲田駅)",
		"id": "4b4d45eff964a520d7cf26e3",
		"lat": 35.56141823673204,
		"lng": 139.7243873840393,
		"address": "蒲田4-50-10",
		"postalCode": "144-0052",
		"city": "東京",
		"country": "日本",
		"categories": ["Train Station"]
	},
	{
		"date": "2018-04-29T21:40+0900",
		"name": "Shimbashi Station (新橋駅)",
		"id": "4b600990f964a520e3d329e3",
		"lat": 35.66686947700204,
		"lng": 139.7582224997352,
		"address": "新橋2-17-14",
		"postalCode": "105-0004",
		"city": "港区",
		"country": "日本",
		"categories": ["Train Station"]
	},
	{
		"date": "2018-04-29T20:26+0900",
		"name": "Hitachino Brewing Lab. (常陸野ブルーイング・ラボ)",
		"id": "54c70141498e782c1745371a",
		"lat": 35.6971,
		"lng": 139.77058,
		"address": "神田須田町1-25-4",
		"postalCode": "101-0041",
		"city": "千代田区",
		"country": "日本",
		"categories": ["Beer Bar", "Brewery", "Gastropub"]
	},
	{
		"date": "2018-04-29T19:37+0900",
		"name": "Manseibashi Bridge (万世橋)",
		"id": "4b5bd76ef964a520411929e3",
		"lat": 35.69710946519229,
		"lng": 139.77097392082214,
		"address": "外神田1/神田須田町2/神田須田町1",
		"city": "千代田区",
		"country": "日本",
		"categories": ["Bridge"]
	},
	{
		"date": "2018-04-29T18:47+0900",
		"name": "Bar&Junk MIKAKU",
		"id": "4b741da5f964a520a5c82de3",
		"lat": 35.700139946143175,
		"lng": 139.77546351273247,
		"address": "神田和泉町1-3-3",
		"postalCode": "101-0024",
		"city": "東京",
		"country": "日本",
		"categories": ["Whisky Bar", "Bar", "Gastropub"]
	},
	{
		"date": "2018-04-29T17:00+0900",
		"name": "Yodobashi-Akiba (ヨドバシカメラ マルチメディアAkiba)",
		"id": "4b55670ff964a52071e327e3",
		"lat": 35.69866076913014,
		"lng": 139.77472043409654,
		"address": "神田花岡町1-1",
		"postalCode": "101-0028",
		"city": "東京",
		"country": "日本",
		"categories": ["Electronics Store"]
	},
	{
		"date": "2018-04-29T16:57+0900",
		"name": "Akihabara (秋葉原)",
		"id": "4b5a80a4f964a52078c828e3",
		"lat": 35.69889764755667,
		"lng": 139.7715502786448,
		"city": "東京",
		"country": "日本",
		"categories": ["Neighborhood"]
	},
	{
		"date": "2018-04-29T15:15+0900",
		"name": "Denny's (デニーズ 清澄店)",
		"id": "4bf8fee14a67c928e73b26cf",
		"lat": 35.681863945869644,
		"lng": 139.7970155266076,
		"address": "清澄2-6-9",
		"postalCode": "135-0024",
		"city": "東京",
		"country": "日本",
		"categories": ["Restaurant"]
	},
	{
		"date": "2018-04-29T12:21+0900",
		"name": "Kiyosumi Garden (清澄庭園)",
		"id": "4bdd08424ffaa59375a86ef7",
		"lat": 35.68099331707285,
		"lng": 139.79765542854327,
		"address": "清澄3-3-9",
		"postalCode": "135-0024",
		"city": "東京",
		"country": "日本",
		"categories": ["Garden", "Park"]
	},
	{
		"date": "2018-04-29T11:32+0900",
		"name": "Keikyu Shinagawa Station (KK01) (京急 品川駅)",
		"id": "4b5a4723f964a5209eb928e3",
		"lat": 35.628158024199244,
		"lng": 139.7380019379651,
		"address": "高輪3-26-26",
		"postalCode": "108-0074",
		"city": "東京",
		"country": "日本",
		"categories": ["Train Station"]
	},
	{
		"date": "2018-04-29T11:28+0900",
		"name": "Aomono-yokochō Station (KK04) (青物横丁駅)",
		"id": "4b5413b6f964a5209eb127e3",
		"lat": 35.609349647617826,
		"lng": 139.74299156436157,
		"address": "南品川3-1-20",
		"postalCode": "140-0004",
		"city": "品川区",
		"country": "日本",
		"categories": ["Train Station"]
	},
	{
		"date": "2018-04-29T11:13+0900",
		"name": "Keikyū Kamata Station (KK11) (京急蒲田駅)",
		"id": "4b4d45eff964a520d7cf26e3",
		"lat": 35.56141823673204,
		"lng": 139.7243873840393,
		"address": "蒲田4-50-10",
		"postalCode": "144-0052",
		"city": "東京",
		"country": "日本",
		"categories": ["Train Station"]
	},
	{
		"date": "2018-04-28T21:51+0900",
		"name": "7-Eleven (セブンイレブン 大田区蒲田あやめ橋店)",
		"id": "567d240c498e0948d3ccd573",
		"lat": 35.56286046585829,
		"lng": 139.72151199657557,
		"address": "蒲田3-17-20",
		"postalCode": "144-0052",
		"city": "東京",
		"country": "日本",
		"categories": ["Convenience Store"]
	},
	{
		"date": "2018-04-28T21:45+0900",
		"name": "Keikyū Kamata Station (KK11) (京急蒲田駅)",
		"id": "4b4d45eff964a520d7cf26e3",
		"lat": 35.56141823673204,
		"lng": 139.7243873840393,
		"address": "蒲田4-50-10",
		"postalCode": "144-0052",
		"city": "東京",
		"country": "日本",
		"categories": ["Train Station"]
	},
	{
		"date": "2018-04-28T21:13+0900",
		"name": "Keikyu Shinagawa Station (KK01) (京急 品川駅)",
		"id": "4b5a4723f964a5209eb928e3",
		"lat": 35.628158024199244,
		"lng": 139.7380019379651,
		"address": "高輪3-26-26",
		"postalCode": "108-0074",
		"city": "東京",
		"country": "日本",
		"categories": ["Train Station"]
	},
	{
		"date": "2018-04-28T20:50+0900",
		"name": "Harajuku Station (原宿駅)",
		"id": "4b67a5c4f964a52069592be3",
		"lat": 35.67049610645305,
		"lng": 139.70279211094123,
		"address": "神宮前1-18-20",
		"postalCode": "150-0001",
		"city": "東京",
		"country": "日本",
		"categories": ["Train Station"]
	},
	{
		"date": "2018-04-28T19:06+0900",
		"name": "Kawaii Monster Cafe",
		"id": "55bc6bfd498e69dea3fd176c",
		"lat": 35.669065564643596,
		"lng": 139.70604054273028,
		"address": "神宮前4-31-10",
		"postalCode": "150-0001",
		"city": "東京",
		"country": "日本",
		"categories": ["Theme Restaurant"]
	},
	{
		"date": "2018-04-28T18:22+0900",
		"name": "Tokyu Plaza Omotesando Harajuku (東急プラザ表参道原宿)",
		"id": "4f518a21e4b0195da2dcdbea",
		"lat": 35.66863122358995,
		"lng": 139.70554968279188,
		"address": "神宮前4-30-3",
		"postalCode": "150-0001",
		"city": "東京",
		"country": "日本",
		"categories": ["Shopping Mall"]
	},
	{
		"date": "2018-04-28T17:26+0900",
		"name": "Five G music technology",
		"id": "4bc54bfa6c26b713bc35ebf3",
		"lat": 35.67138610078386,
		"lng": 139.70326125984494,
		"address": "神宮前1-14-2",
		"postalCode": "150-0001",
		"city": "東京",
		"country": "日本",
		"categories": ["Music Store"]
	},
	{
		"date": "2018-04-28T17:26+0900",
		"name": "Takeshita Street (竹下通り)",
		"id": "4b63f221f964a5203d982ae3",
		"lat": 35.671407601870335,
		"lng": 139.70377943654586,
		"address": "神宮前1",
		"postalCode": "150-0001",
		"city": "東京",
		"country": "日本",
		"categories": ["Shopping Mall", "Road"]
	},
	{
		"date": "2018-04-28T14:05+0900",
		"name": "EUROSPACE (ユーロスペース)",
		"id": "4b570c1bf964a520472428e3",
		"lat": 35.6593,
		"lng": 139.695354,
		"address": "円山町1-5",
		"postalCode": "150-0044",
		"city": "渋谷区",
		"country": "日本",
		"categories": ["Movie Theater", "Indie Movie Theater", "Indie Theater"]
	},
	{
		"date": "2018-04-28T14:04+0900",
		"name": "LOFT9 SHIBUYA",
		"id": "5774f31c498e005e90eeb87a",
		"lat": 35.65928814340806,
		"lng": 139.69536244869232,
		"address": "円山町1-5",
		"postalCode": "150-0044",
		"city": "渋谷区",
		"country": "日本",
		"categories": ["Event Space", "Rock Club"]
	},
	{
		"date": "2018-04-28T13:56+0900",
		"name": "Shibuya (渋谷)",
		"id": "4e06d21a8877394591e2b73e",
		"lat": 35.659179469038435,
		"lng": 139.70049838778195,
		"city": "東京",
		"country": "日本",
		"categories": ["Neighborhood"]
	},
	{
		"date": "2018-04-28T13:21+0900",
		"name": "Shibuya Station (渋谷駅)",
		"id": "4b093eeff964a520e51423e3",
		"lat": 35.65900474529797,
		"lng": 139.70129619444708,
		"address": "道玄坂1/2",
		"postalCode": "150-0043",
		"city": "渋谷区",
		"country": "日本",
		"categories": ["Train Station", "Metro Station"]
	},
	{
		"date": "2018-04-28T13:17+0900",
		"name": "Harajuku Station (原宿駅)",
		"id": "4b67a5c4f964a52069592be3",
		"lat": 35.67049610645305,
		"lng": 139.70279211094123,
		"address": "神宮前1-18-20",
		"postalCode": "150-0001",
		"city": "東京",
		"country": "日本",
		"categories": ["Train Station"]
	},
	{
		"date": "2018-04-28T12:57+0900",
		"name": "Hamamatsuchō Station (浜松町駅)",
		"id": "4b4327e6f964a5209fdc25e3",
		"lat": 35.655627,
		"lng": 139.757032,
		"address": "海岸1-3-1",
		"postalCode": "105-0022",
		"city": "東京",
		"country": "日本",
		"categories": ["Train Station"]
	},
	{
		"date": "2018-04-28T12:54+0900",
		"name": "Monorail Hamamatsuchō Station (MO01) (モノレール浜松町駅)",
		"id": "4b6fadbdf964a520d1f92ce3",
		"lat": 35.65548084413022,
		"lng": 139.75688489536256,
		"address": "浜松町2-4-12",
		"postalCode": "105-0013",
		"city": "東京",
		"country": "日本",
		"categories": ["Light Rail Station"]
	},
	{
		"date": "2018-04-28T11:32+0900",
		"name": "Ōmorikaigan Station (KK07) (大森海岸駅)",
		"id": "4b55bac9f964a5207bed27e3",
		"lat": 35.58760921981092,
		"lng": 139.73537756298418,
		"address": "南大井3-32-1",
		"postalCode": "140-0013",
		"city": "品川区",
		"country": "日本",
		"categories": ["Train Station"]
	},
	{
		"date": "2018-04-28T11:08+0900",
		"name": "Keikyu Shinagawa Station (KK01) (京急 品川駅)",
		"id": "4b5a4723f964a5209eb928e3",
		"lat": 35.628158024199244,
		"lng": 139.7380019379651,
		"address": "高輪3-26-26",
		"postalCode": "108-0074",
		"city": "東京",
		"country": "日本",
		"categories": ["Train Station"]
	},
	{
		"date": "2018-04-28T10:45+0900",
		"name": "Den-en-chofu (田園調布)",
		"id": "4c7bc57c81bca0937f140415",
		"lat": 35.593921,
		"lng": 139.66674,
		"city": "東京",
		"country": "日本",
		"categories": ["Neighborhood"]
	},
	{
		"date": "2018-04-27T16:08+0900",
		"name": "Keikyū Kamata Station (KK11) (京急蒲田駅)",
		"id": "4b4d45eff964a520d7cf26e3",
		"lat": 35.56141823673204,
		"lng": 139.7243873840393,
		"address": "蒲田4-50-10",
		"postalCode": "144-0052",
		"city": "東京",
		"country": "日本",
		"categories": ["Train Station"]
	},
	{
		"date": "2018-04-27T15:41+0900",
		"name": "7-Eleven (セブンイレブン 京急蒲田駅前店)",
		"id": "4bfa2444508c0f47b3d43f31",
		"lat": 35.56001025266341,
		"lng": 139.7221999534942,
		"address": "蒲田4-25-7",
		"postalCode": "144-0052",
		"city": "東京",
		"country": "日本",
		"categories": ["Convenience Store"]
	},
	{
		"date": "2018-04-27T15:27+0900",
		"name": "Ota (大田区)",
		"id": "5314d82be4b0e72a36d1fa3b",
		"lat": 35.56028944893784,
		"lng": 139.72682171003933,
		"country": "日本",
		"categories": ["City"]
	},
	{
		"date": "2018-04-27T14:35+0900",
		"name": "Sukiya (すき家 蒲田五丁目店)",
		"id": "4bd2f56aa8b3a5937dbd685f",
		"lat": 35.56174450418255,
		"lng": 139.72093377521983,
		"address": "蒲田5-28-7",
		"postalCode": "144-0052",
		"city": "東京",
		"country": "日本",
		"categories": ["Donburi Restaurant"]
	},
	{
		"date": "2018-04-27T14:18+0900",
		"name": "Keikyū Kamata Station (KK11) (京急蒲田駅)",
		"id": "4b4d45eff964a520d7cf26e3",
		"lat": 35.56141823673204,
		"lng": 139.7243873840393,
		"address": "蒲田4-50-10",
		"postalCode": "144-0052",
		"city": "東京",
		"country": "日本",
		"categories": ["Train Station"]
	},
	{
		"date": "2018-04-27T10:21+0900",
		"name": "Imba Nihon-idai Station (印旛日本医大駅)",
		"id": "4b72bac8f964a520da852de3",
		"lat": 35.78762970619892,
		"lng": 140.20329157841556,
		"address": "若萩1-1",
		"postalCode": "270-1609",
		"city": "印西市",
		"country": "日本",
		"categories": ["Train Station"]
	},
	{
		"date": "2018-04-27T09:44+0900",
		"name": "Keisei Narita Airport Terminal 1 Station (KS42) (京成 成田空港駅)",
		"id": "4b808527f964a5208c7930e3",
		"lat": 35.76474020870081,
		"lng": 140.38627060615505,
		"address": "三里塚御料牧場1-1",
		"postalCode": "286-0116",
		"city": "成田市",
		"country": "日本",
		"categories": ["Train Station"]
	},
	{
		"date": "2018-04-27T09:29+0900",
		"name": "Starbucks (Starbucks Coffee)",
		"id": "4b7cfba6f964a52012ab2fe3",
		"lat": 35.764481,
		"lng": 140.385659,
		"address": "三里塚御料牧場1-1",
		"postalCode": "282-0011",
		"city": "成田市",
		"country": "日本",
		"categories": ["Coffee Shop"]
	},
	{
		"date": "2018-04-27T09:01+0900",
		"name": "Narita International Airport (NRT) (成田国際空港)",
		"id": "4ad6cea1f964a520480821e3",
		"lat": 35.76977563519393,
		"lng": 140.38742065429688,
		"address": "古込1-1",
		"postalCode": "282-8601",
		"city": "成田市",
		"country": "日本",
		"categories": ["Airport"]
	},
	{
		"date": "2018-04-26T21:59+0900",
		"name": "Budget Parking Schiphol",
		"id": "4c49c07b6f1420a130150c56",
		"lat": 52.283439665645915,
		"lng": 4.735708236694336,
		"address": "Beechavenue 400",
		"postalCode": "1437 CH",
		"city": "Schiphol-Zuid",
		"country": "Nederland",
		"categories": ["Parking"]
	},
	{
		"date": "2018-04-26T14:13+0200",
		"name": "Gate E24",
		"id": "4b7e796ef964a52094ee2fe3",
		"lat": 52.31398834849257,
		"lng": 4.768982467571046,
		"address": "Concourse E",
		"city": "Schiphol",
		"country": "Nederland",
		"categories": ["Airport Gate", "Travel Lounge"]
	},
	{
		"date": "2018-04-26T12:49+0200",
		"name": "Amsterdam Airport Schiphol (AMS) (Amsterdam Airport Schiphol)",
		"id": "4a84e798f964a520defd1fe3",
		"lat": 52.3085704596075,
		"lng": 4.762122631072998,
		"address": "Aankomstpassage",
		"postalCode": "1118 CP",
		"city": "Schiphol",
		"country": "Nederland",
		"categories": ["Airport"]
	},
	{
		"date": "2018-04-26T12:26+0200",
		"name": "Station Amsterdam Sloterdijk",
		"id": "4a56245ff964a52085b41fe3",
		"lat": 52.389038517725574,
		"lng": 4.838510921333843,
		"address": "Orlyplein 105",
		"postalCode": "1043 DT",
		"city": "Amsterdam",
		"country": "Nederland",
		"categories": ["Train Station"]
	},
	{
		"date": "2018-04-26T10:09+0200",
		"name": "Apple Haarlem",
		"id": "529e315f11d2f188f40a235a",
		"lat": 52.378432951567824,
		"lng": 4.6329654604005555,
		"address": "Grote Houtstraat 99",
		"postalCode": "2011 SH",
		"city": "Haarlem",
		"country": "Nederland",
		"categories": ["Electronics Store"]
	},
	{
		"date": "2018-04-23T18:20+0200",
		"name": "Albert Heijn",
		"id": "4b9a4b64f964a52066aa35e3",
		"lat": 52.38445463709139,
		"lng": 4.635787640721933,
		"address": "Kruisstraat 10",
		"postalCode": "2011 PX",
		"city": "Haarlem",
		"country": "Nederland",
		"categories": ["Supermarket"]
	},
	{
		"date": "2018-04-22T20:06+0200",
		"name": "Station Haarlem",
		"id": "4a8c3036f964a5203a0d20e3",
		"lat": 52.387919728928985,
		"lng": 4.638276517449355,
		"address": "Stationsplein 11 L",
		"postalCode": "2011 LR",
		"city": "Haarlem",
		"country": "Nederland",
		"categories": ["Train Station"]
	},
	{
		"date": "2018-04-22T18:12+0200",
		"name": "Schoterbos",
		"id": "4beb9c2ab3352d7f07b956d2",
		"lat": 52.41368749664641,
		"lng": 4.641030240824585,
		"country": "Nederland",
		"categories": ["Park"]
	},
	{
		"date": "2018-04-22T16:40+0200",
		"name": "Albert Heijn",
		"id": "4b641baef964a520699f2ae3",
		"lat": 52.398444855174965,
		"lng": 4.64495741785039,
		"address": "Soendaplein 18",
		"postalCode": "2022 BA",
		"city": "Haarlem",
		"country": "Nederland",
		"categories": ["Supermarket"]
	},
	{
		"date": "2018-04-22T15:01+0200",
		"name": "Scheepmakers-hofje",
		"id": "4d8a22b9bc848cfa48a5d22b",
		"lat": 52.38245042,
		"lng": 4.64448402,
		"address": "Scheepmakersdijk",
		"city": "Haarlem",
		"country": "Nederland",
		"categories": ["Field"]
	},
	{
		"date": "2018-04-22T13:45+0200",
		"name": "mooie nel windmolens waarderpolder",
		"id": "4d57b1775ba054816f2a0846",
		"lat": 52.40392192111159,
		"lng": 4.667419159663775,
		"country": "Nederland",
		"categories": ["Windmill"]
	},
	{
		"date": "2018-04-22T13:02+0200",
		"name": "Haarlemmerliede",
		"id": "4e565ae518a8edeb70df8728",
		"lat": 52.38345701206087,
		"lng": 4.688331920860244,
		"country": "Nederland",
		"categories": ["Lake"]
	},
	{
		"date": "2018-04-22T11:11+0200",
		"name": "Catharijnebrug",
		"id": "4c6e3263f338236a14e8091b",
		"lat": 52.38303588153227,
		"lng": 4.642963060018276,
		"address": "Harmejansweg",
		"city": "Haarlem",
		"country": "Nederland",
		"categories": ["Bridge"]
	},
	{
		"date": "2018-04-21T00:38+0200",
		"name": "Burger King",
		"id": "4b3e3645f964a520939925e3",
		"lat": 52.38744848035656,
		"lng": 4.6376815692659425,
		"address": "Stationsplein 11J",
		"postalCode": "2011 LC",
		"city": "Haarlem",
		"country": "Nederland",
		"categories": ["Fast Food Restaurant"]
	},
	{
		"date": "2018-04-20T22:14+0200",
		"name": "Purple Pool Cafe",
		"id": "4b632e31f964a5208c682ae3",
		"lat": 52.37915886314111,
		"lng": 4.634043514852842,
		"address": "Gedempte Oude Gracht 81",
		"postalCode": "2011GN",
		"city": "Haarlem",
		"country": "Nederland",
		"categories": ["Pool Hall"]
	},
	{
		"date": "2018-04-20T20:46+0200",
		"name": "Proeflokaal in den Uiver",
		"id": "4b13b8e7f964a520af9823e3",
		"lat": 52.3811345300534,
		"lng": 4.638170726115867,
		"address": "Riviervismarkt 13",
		"postalCode": "2011HJ",
		"city": "Haarlem",
		"country": "Nederland",
		"categories": ["Bar"]
	},
	{
		"date": "2018-04-20T20:15+0200",
		"name": "Sultan shoarma",
		"id": "573362de498e4009791e56a8",
		"lat": 52.386933,
		"lng": 4.636699,
		"country": "Nederland",
		"categories": ["Snack Place"]
	},
	{
		"date": "2018-04-19T16:49+0200",
		"name": "Frame Offices",
		"id": "59edaa258c35dc366efbc9cb",
		"lat": 52.388996,
		"lng": 4.6387815,
		"address": "Kennemerplein 6-14",
		"postalCode": "2011 MJ",
		"city": "Haarlem",
		"country": "Nederland",
		"categories": ["Office"]
	},
	{
		"date": "2018-04-19T13:25+0200",
		"name": "SUBWAY",
		"id": "4e899f5e9a52f9bbd0e654b4",
		"lat": 52.38297200404556,
		"lng": 4.6351964166808415,
		"address": "Krocht 12",
		"postalCode": "2011 PT",
		"city": "Haarlem",
		"country": "Nederland",
		"categories": ["Sandwich Place"]
	},
	{
		"date": "2018-04-18T13:54+0200",
		"name": "Koningshoed Huisartsenpraktijk",
		"id": "4cf5f57be308236a65a3e3ac",
		"lat": 52.390076979246665,
		"lng": 4.642660227200655,
		"country": "Nederland",
		"categories": ["Doctor's Office"]
	},
	{
		"date": "2018-04-16T18:23+0200",
		"name": "Albert Heijn",
		"id": "4b9a4b64f964a52066aa35e3",
		"lat": 52.38445463709139,
		"lng": 4.635787640721933,
		"address": "Kruisstraat 10",
		"postalCode": "2011 PX",
		"city": "Haarlem",
		"country": "Nederland",
		"categories": ["Supermarket"]
	},
	{
		"date": "2018-04-15T19:18+0200",
		"name": "Station Haarlem",
		"id": "4a8c3036f964a5203a0d20e3",
		"lat": 52.387919728928985,
		"lng": 4.638276517449355,
		"address": "Stationsplein 11 L",
		"postalCode": "2011 LR",
		"city": "Haarlem",
		"country": "Nederland",
		"categories": ["Train Station"]
	},
	{
		"date": "2018-04-15T18:53+0200",
		"name": "Starbucks",
		"id": "4c1b12a08b3aa59397b3965f",
		"lat": 52.389066266752856,
		"lng": 4.83764576907052,
		"address": "Station Amsterdam Sloterdijk",
		"postalCode": "1043 DT",
		"city": "Amsterdam",
		"country": "Nederland",
		"categories": ["Coffee Shop"]
	},
	{
		"date": "2018-04-15T18:17+0200",
		"name": "Gate H6",
		"id": "4e15bc9fd4c0e3d78b2f7149",
		"lat": 52.30965125588352,
		"lng": 4.753182904949709,
		"address": "Concourse H",
		"city": "Schiphol",
		"country": "Nederland",
		"categories": ["Airport Gate"]
	},
	{
		"date": "2018-04-15T18:17+0200",
		"name": "Amsterdam Airport Schiphol (AMS) (Amsterdam Airport Schiphol)",
		"id": "4a84e798f964a520defd1fe3",
		"lat": 52.3085704596075,
		"lng": 4.762122631072998,
		"address": "Aankomstpassage",
		"postalCode": "1118 CP",
		"city": "Schiphol",
		"country": "Nederland",
		"categories": ["Airport"]
	},
	{
		"date": "2018-04-15T16:19+0200",
		"name": "Gate C36",
		"id": "4cc7ac108c5b236afbf5fa6d",
		"lat": 48.12006096436925,
		"lng": 16.557239657899597,
		"address": "Terminal 1",
		"postalCode": "1300",
		"city": "Schwechat",
		"country": "Österreich",
		"categories": ["Airport Gate"]
	},
	{
		"date": "2018-04-15T14:58+0200",
		"name": "Vienna International Airport (VIE) (Flughafen Wien-Schwechat)",
		"id": "4b05889af964a520e5cf22e3",
		"lat": 48.119328926702686,
		"lng": 16.56236894679551,
		"address": "Abflugstr.",
		"postalCode": "1300",
		"city": "Schwechat",
		"country": "Österreich",
		"categories": ["Airport"]
	},
	{
		"date": "2018-04-15T14:57+0200",
		"name": "Terminal 3 (301-399)",
		"id": "4db922856a2334682da18d97",
		"lat": 48.11954413586366,
		"lng": 16.562747955322266,
		"address": "VIE Airport",
		"postalCode": "1300",
		"city": "Schwechat",
		"country": "Österreich",
		"categories": ["Airport Terminal"]
	},
	{
		"date": "2018-04-15T11:53+0200",
		"name": "Széchenyi tér",
		"id": "4dc924f11f6e936efe52ac05",
		"lat": 47.68289779925098,
		"lng": 16.589524032040796,
		"address": "Széchenyi tér",
		"postalCode": "9400",
		"city": "Sopron",
		"country": "Magyarország",
		"categories": ["Park", "Plaza"]
	},
	{
		"date": "2018-04-15T03:09+0200",
		"name": "Sopronkőhida",
		"id": "4f8c045ae4b0ddfd848fdbef",
		"lat": 47.722520102293764,
		"lng": 16.622979341131607,
		"city": "Sopron",
		"country": "Magyarország",
		"categories": ["Neighborhood"]
	},
	{
		"date": "2018-04-15T01:11+0200",
		"name": "Central Palace",
		"id": "53617b98498e445c71317759",
		"lat": 47.68661773752238,
		"lng": 16.58066112268842,
		"address": "Lackner Kristóf u. 33/a",
		"postalCode": "9400",
		"city": "Sopron",
		"country": "Magyarország",
		"categories": ["Nightclub"]
	},
	{
		"date": "2018-04-15T00:49+0200",
		"name": "Casino Sopron @ Mediterrano",
		"id": "5297316c11d2d6648fbb89e1",
		"lat": 47.694798,
		"lng": 16.581414,
		"address": "Lackner Kristóf u. 33/A",
		"postalCode": "H-9400",
		"city": "Sopron",
		"country": "Magyarország",
		"categories": ["Other Nightlife"]
	},
	{
		"date": "2018-04-14T19:52+0200",
		"name": "McDonald's",
		"id": "4c2f08963896e21edb43e390",
		"lat": 47.69342888945339,
		"lng": 16.582018388219954,
		"address": "Lackner Kristóf u. 60.",
		"postalCode": "9400",
		"city": "Sopron",
		"country": "Magyarország",
		"categories": ["Fast Food Restaurant"]
	},
	{
		"date": "2018-04-14T17:47+0200",
		"name": "Sopronkőhida",
		"id": "4f8c045ae4b0ddfd848fdbef",
		"lat": 47.722520102293764,
		"lng": 16.622979341131607,
		"city": "Sopron",
		"country": "Magyarország",
		"categories": ["Neighborhood"]
	},
	{
		"date": "2018-04-13T19:04+0200",
		"name": "Tómalom",
		"id": "4e29ab8352b1c37d35cea4b7",
		"lat": 47.71554211831894,
		"lng": 16.621489894444487,
		"city": "Sopron",
		"country": "Magyarország",
		"categories": ["Neighborhood"]
	},
	{
		"date": "2018-04-13T18:47+0200",
		"name": "Sopron vasútállomás",
		"id": "4bd6fe6529eb9c749dee95e1",
		"lat": 47.67771249028291,
		"lng": 16.58738136291504,
		"address": "Állomás u. 2.",
		"postalCode": "9400",
		"city": "Sopron",
		"country": "Magyarország",
		"categories": ["Train Station"]
	},
	{
		"date": "2018-04-13T16:48+0200",
		"name": "BahnhofCity Wien Hauptbahnhof",
		"id": "54da1138498e6598ce662904",
		"lat": 48.18551702695384,
		"lng": 16.376709938049316,
		"address": "Am Hauptbahnhof 1",
		"postalCode": "1100",
		"city": "Wien",
		"country": "Österreich",
		"categories": ["Shopping Mall"]
	},
	{
		"date": "2018-04-13T16:28+0200",
		"name": "Wien Hauptbahnhof",
		"id": "4cff7e9321ea6ea887f33c9f",
		"lat": 48.185044917599285,
		"lng": 16.37735366821289,
		"address": "Am Hauptbahnhof 1",
		"postalCode": "1100",
		"city": "Wien",
		"country": "Österreich",
		"categories": ["Train Station"]
	},
	{
		"date": "2018-04-13T15:46+0200",
		"name": "Vienna International Airport (VIE) (Flughafen Wien-Schwechat)",
		"id": "4b05889af964a520e5cf22e3",
		"lat": 48.119328926702686,
		"lng": 16.56236894679551,
		"address": "Abflugstr.",
		"postalCode": "1300",
		"city": "Schwechat",
		"country": "Österreich",
		"categories": ["Airport"]
	},
	{
		"date": "2018-04-13T15:46+0200",
		"name": "Terminal 3 (301-399)",
		"id": "4db922856a2334682da18d97",
		"lat": 48.11954413586366,
		"lng": 16.562747955322266,
		"address": "VIE Airport",
		"postalCode": "1300",
		"city": "Schwechat",
		"country": "Österreich",
		"categories": ["Airport Terminal"]
	},
	{
		"date": "2018-04-13T13:15+0200",
		"name": "Gate M3",
		"id": "4b628c88f964a520044b2ae3",
		"lat": 52.310247474115506,
		"lng": 4.75490504581914,
		"address": "Concourse M",
		"city": "Schiphol",
		"country": "Nederland",
		"categories": ["Airport Gate"]
	},
	{
		"date": "2018-04-13T12:30+0200",
		"name": "Amsterdam Airport Schiphol (AMS) (Amsterdam Airport Schiphol)",
		"id": "4a84e798f964a520defd1fe3",
		"lat": 52.3085704596075,
		"lng": 4.762122631072998,
		"address": "Aankomstpassage",
		"postalCode": "1118 CP",
		"city": "Schiphol",
		"country": "Nederland",
		"categories": ["Airport"]
	},
	{
		"date": "2018-04-13T12:10+0200",
		"name": "Station Amsterdam Sloterdijk",
		"id": "4a56245ff964a52085b41fe3",
		"lat": 52.389038517725574,
		"lng": 4.838510921333843,
		"address": "Orlyplein 105",
		"postalCode": "1043 DT",
		"city": "Amsterdam",
		"country": "Nederland",
		"categories": ["Train Station"]
	},
	{
		"date": "2018-04-13T11:56+0200",
		"name": "Station Haarlem",
		"id": "4a8c3036f964a5203a0d20e3",
		"lat": 52.387919728928985,
		"lng": 4.638276517449355,
		"address": "Stationsplein 11 L",
		"postalCode": "2011 LR",
		"city": "Haarlem",
		"country": "Nederland",
		"categories": ["Train Station"]
	},
	{
		"date": "2018-04-12T13:10+0200",
		"name": "Albert Heijn",
		"id": "4b9a4b64f964a52066aa35e3",
		"lat": 52.38445463709139,
		"lng": 4.635787640721933,
		"address": "Kruisstraat 10",
		"postalCode": "2011 PX",
		"city": "Haarlem",
		"country": "Nederland",
		"categories": ["Supermarket"]
	},
	{
		"date": "2018-04-12T09:14+0200",
		"name": "Station Amsterdam Centraal",
		"id": "4a688ba1f964a52088ca1fe3",
		"lat": 52.37878224866535,
		"lng": 4.900374412536621,
		"address": "Stationsplein 15",
		"postalCode": "1012 AB",
		"city": "Amsterdam",
		"country": "Nederland",
		"categories": ["Train Station"]
	},
	{
		"date": "2018-04-12T08:56+0200",
		"name": "WeWork Metropool",
		"id": "56a14a68498e77945ee2ced1",
		"lat": 52.36480793621647,
		"lng": 4.906191453337669,
		"address": "Weesperstraat 61",
		"postalCode": "1018 VN",
		"city": "Amsterdam",
		"country": "Nederland",
		"categories": ["Coworking Space", "Building"]
	},
	{
		"date": "2018-04-11T16:38+0200",
		"name": "Havana House",
		"id": "4da5a0451e726e49695feea6",
		"lat": 52.38355105411946,
		"lng": 4.635652474578298,
		"address": "Kruisstraat 39",
		"postalCode": "2011 PW",
		"country": "Nederland",
		"categories": ["Smoke Shop"]
	},
	{
		"date": "2018-04-10T20:58+0200",
		"name": "Sugarfactory",
		"id": "4a27db92f964a52095941fe3",
		"lat": 52.36478195816011,
		"lng": 4.881827234637606,
		"address": "Lijnbaansgracht 238",
		"postalCode": "1017 PH",
		"city": "Amsterdam",
		"country": "Nederland",
		"categories": ["Music Venue", "Nightclub", "Concert Hall"]
	},
	{
		"date": "2018-04-10T20:40+0200",
		"name": "Station Amsterdam Centraal",
		"id": "4a688ba1f964a52088ca1fe3",
		"lat": 52.37878224866535,
		"lng": 4.900374412536621,
		"address": "Stationsplein 15",
		"postalCode": "1012 AB",
		"city": "Amsterdam",
		"country": "Nederland",
		"categories": ["Train Station"]
	},
	{
		"date": "2018-04-10T20:14+0200",
		"name": "Station Haarlem",
		"id": "4a8c3036f964a5203a0d20e3",
		"lat": 52.387919728928985,
		"lng": 4.638276517449355,
		"address": "Stationsplein 11 L",
		"postalCode": "2011 LR",
		"city": "Haarlem",
		"country": "Nederland",
		"categories": ["Train Station"]
	},
	{
		"date": "2018-04-09T19:05+0200",
		"name": "Albert Heijn",
		"id": "4b9a4b64f964a52066aa35e3",
		"lat": 52.38445463709139,
		"lng": 4.635787640721933,
		"address": "Kruisstraat 10",
		"postalCode": "2011 PX",
		"city": "Haarlem",
		"country": "Nederland",
		"categories": ["Supermarket"]
	},
	{
		"date": "2018-04-08T19:49+0200",
		"name": "Station Den Haag Centraal",
		"id": "4aeff0e3f964a52060da21e3",
		"lat": 52.08091606380144,
		"lng": 4.324436820886615,
		"address": "Koningin Julianaplein 10",
		"postalCode": "2595 AA",
		"city": "Den Haag",
		"country": "Nederland",
		"categories": ["Train Station"]
	},
	{
		"date": "2018-04-08T18:09+0200",
		"name": "Hofvijver",
		"id": "4c626b4a79d1e21eae0cd615",
		"lat": 52.080393979303,
		"lng": 4.311583158620502,
		"address": "Lange Vijverberg",
		"city": "Den Haag",
		"country": "Nederland",
		"categories": ["Lake"]
	},
	{
		"date": "2018-04-08T18:06+0200",
		"name": "Paleis Noordeinde",
		"id": "4b03ec8ef964a5208f5022e3",
		"lat": 52.081,
		"lng": 4.30668,
		"address": "Noordeinde 68",
		"postalCode": "2514 GL",
		"city": "Den Haag",
		"country": "Nederland",
		"categories": ["Palace"]
	},
	{
		"date": "2018-04-08T17:35+0200",
		"name": "Albert Heijn",
		"id": "4c38a8ff0a71c9b60f0641c9",
		"lat": 52.080654129075626,
		"lng": 4.284495798153335,
		"address": "Conradkade 67",
		"postalCode": "2517 BS",
		"city": "Den Haag",
		"country": "Nederland",
		"categories": ["Supermarket"]
	},
	{
		"date": "2018-04-08T14:37+0200",
		"name": "Hungarian Corner",
		"id": "58dbf90ca36ecd2ae5427e48",
		"lat": 52.07945,
		"lng": 4.2714767,
		"address": "Thomsonplein 26C",
		"postalCode": "2565 KW",
		"city": "Den Haag",
		"country": "Nederland",
		"categories": ["Hungarian Restaurant"]
	},
	{
		"date": "2018-04-08T13:47+0200",
		"name": "Coffeeshop Blue White",
		"id": "4b6069f4f964a52088e429e3",
		"lat": 52.1117361034951,
		"lng": 4.288645705052736,
		"address": "Bosschestraat 63",
		"postalCode": "2587 HC",
		"city": "Den Haag",
		"country": "Nederland",
		"categories": ["Marijuana Dispensary"]
	},
	{
		"date": "2018-04-08T12:57+0200",
		"name": "Scheveningse Pier",
		"id": "4bc059cc461576b043077a32",
		"lat": 52.11545577516887,
		"lng": 4.283221335590497,
		"address": "Strandweg 1",
		"postalCode": "2586 JK",
		"city": "Scheveningen",
		"country": "Nederland",
		"categories": ["Pier", "Scenic Lookout"]
	},
	{
		"date": "2018-04-08T12:20+0200",
		"name": "De Golfslag Beachclub",
		"id": "4ba61d45f964a520a53439e3",
		"lat": 52.11382263900308,
		"lng": 4.280487794994295,
		"address": "Strandweg 35a",
		"city": "Den Haag",
		"country": "Nederland",
		"categories": ["Beach", "Restaurant", "Café"]
	},
	{
		"date": "2018-04-08T11:42+0200",
		"name": "Station Den Haag Centraal",
		"id": "4aeff0e3f964a52060da21e3",
		"lat": 52.08091606380144,
		"lng": 4.324436820886615,
		"address": "Koningin Julianaplein 10",
		"postalCode": "2595 AA",
		"city": "Den Haag",
		"country": "Nederland",
		"categories": ["Train Station"]
	},
	{
		"date": "2018-04-08T11:15+0200",
		"name": "Tramhalte Loosduinseweg (Midden)",
		"id": "4c0fcc86f1b6a59372d87a27",
		"lat": 52.071089130623655,
		"lng": 4.284663899031899,
		"address": "Loosduinseweg",
		"city": "Den Haag",
		"country": "Nederland",
		"categories": ["Tram Station"]
	},
	{
		"date": "2018-04-08T10:28+0200",
		"name": "De Drie Linden",
		"id": "4ef220285c5cd8c3b21e3149",
		"lat": 52.07239352009143,
		"lng": 4.269352988408045,
		"address": "Braamstraat 4-6",
		"city": "Den Haag",
		"country": "Nederland",
		"categories": ["School"]
	},
	{
		"date": "2018-04-08T09:57+0200",
		"name": "Station Den Haag Centraal",
		"id": "4aeff0e3f964a52060da21e3",
		"lat": 52.08091606380144,
		"lng": 4.324436820886615,
		"address": "Koningin Julianaplein 10",
		"postalCode": "2595 AA",
		"city": "Den Haag",
		"country": "Nederland",
		"categories": ["Train Station"]
	},
	{
		"date": "2018-04-08T09:16+0200",
		"name": "Station Haarlem",
		"id": "4a8c3036f964a5203a0d20e3",
		"lat": 52.387919728928985,
		"lng": 4.638276517449355,
		"address": "Stationsplein 11 L",
		"postalCode": "2011 LR",
		"city": "Haarlem",
		"country": "Nederland",
		"categories": ["Train Station"]
	},
	{
		"date": "2018-04-07T19:47+0200",
		"name": "Station Amsterdam Centraal",
		"id": "4a688ba1f964a52088ca1fe3",
		"lat": 52.37878224866535,
		"lng": 4.900374412536621,
		"address": "Stationsplein 15",
		"postalCode": "1012 AB",
		"city": "Amsterdam",
		"country": "Nederland",
		"categories": ["Train Station"]
	},
	{
		"date": "2018-04-07T19:32+0200",
		"name": "Westermarkt",
		"id": "4bd9f81b3904a5937d78449e",
		"lat": 52.374101854587074,
		"lng": 4.883861604892192,
		"address": "Westermarkt",
		"city": "Amsterdam",
		"country": "Nederland",
		"categories": ["Plaza"]
	},
	{
		"date": "2018-04-07T18:43+0200",
		"name": "The Original California Burrito Company",
		"id": "517a580a498e7ee29277d552",
		"lat": 52.37461,
		"lng": 4.8886228,
		"address": "Oude Leliestraat 5",
		"city": "Amsterdam",
		"country": "Nederland",
		"categories": ["Burrito Place", "Mexican Restaurant"]
	},
	{
		"date": "2018-04-07T17:59+0200",
		"name": "The Cold Pressed Juicery",
		"id": "572670dc498ee138c18b2773",
		"lat": 52.37507302505723,
		"lng": 4.883178475662585,
		"address": "Prinsengracht 154",
		"postalCode": "1016 HA",
		"city": "Amsterdam",
		"country": "Nederland",
		"categories": ["Juice Bar"]
	},
	{
		"date": "2018-04-07T14:22+0200",
		"name": "Station Haarlem",
		"id": "4a8c3036f964a5203a0d20e3",
		"lat": 52.387919728928985,
		"lng": 4.638276517449355,
		"address": "Stationsplein 11 L",
		"postalCode": "2011 LR",
		"city": "Haarlem",
		"country": "Nederland",
		"categories": ["Train Station"]
	},
	{
		"date": "2018-04-07T11:08+0200",
		"name": "McDonald's",
		"id": "4cbf1ced021ca143a7c2590c",
		"lat": 52.379173,
		"lng": 4.633436999999958,
		"address": "Grote Houtstraat 75",
		"postalCode": "2011 SG",
		"city": "Haarlem",
		"country": "Nederland",
		"categories": ["Fast Food Restaurant"]
	},
	{
		"date": "2018-04-07T11:02+0200",
		"name": "Apple Haarlem",
		"id": "529e315f11d2f188f40a235a",
		"lat": 52.378432951567824,
		"lng": 4.6329654604005555,
		"address": "Grote Houtstraat 99",
		"postalCode": "2011 SH",
		"city": "Haarlem",
		"country": "Nederland",
		"categories": ["Electronics Store"]
	},
	{
		"date": "2018-04-07T10:12+0200",
		"name": "Kruidvat",
		"id": "4ce0ed647e2e236aacb48d1b",
		"lat": 52.3833540786031,
		"lng": 4.6352954386558745,
		"address": "Kruisstraat 42",
		"postalCode": "2011 PZ",
		"city": "Haarlem",
		"country": "Nederland",
		"categories": ["Drugstore"]
	},
	{
		"date": "2018-04-06T21:22+0200",
		"name": "Station Haarlem",
		"id": "4a8c3036f964a5203a0d20e3",
		"lat": 52.387919728928985,
		"lng": 4.638276517449355,
		"address": "Stationsplein 11 L",
		"postalCode": "2011 LR",
		"city": "Haarlem",
		"country": "Nederland",
		"categories": ["Train Station"]
	},
	{
		"date": "2018-04-06T20:47+0200",
		"name": "Westerkerk",
		"id": "4a27db93f964a5209b941fe3",
		"lat": 52.374490290358516,
		"lng": 4.883866236223822,
		"address": "Prinsengracht 281",
		"postalCode": "1016 GW",
		"city": "Amsterdam",
		"country": "Nederland",
		"categories": ["Church", "Monument / Landmark"]
	},
	{
		"date": "2018-04-06T20:17+0200",
		"name": "Haarlemmerdijk & Haarlemmerstraat",
		"id": "51b0fe64498ec3286a7e1d7a",
		"lat": 52.38256076639588,
		"lng": 4.887323658589101,
		"country": "Nederland",
		"categories": ["Neighborhood", "Road"]
	},
	{
		"date": "2018-04-06T20:03+0200",
		"name": "Sloterdijkerbrug (Brug 321)",
		"id": "4da553420437667c9b294a07",
		"lat": 52.386093740327965,
		"lng": 4.8857121043077605,
		"address": "Galgenstraat",
		"city": "Amsterdam",
		"country": "Nederland",
		"categories": ["Bridge"]
	},
	{
		"date": "2018-04-06T19:40+0200",
		"name": "Papiermolensluis (Brug 57)",
		"id": "501cfbaf582faee63ca61b66",
		"lat": 52.38039989485784,
		"lng": 4.888642430305481,
		"address": "Korte Prinsengracht",
		"city": "Amsterdam",
		"country": "Nederland",
		"categories": ["Bridge"]
	},
	{
		"date": "2018-04-06T18:54+0200",
		"name": "Black and Blue",
		"id": "53cefd14498e3d63c383f51a",
		"lat": 52.37571566439161,
		"lng": 4.885371054774767,
		"address": "Leliegracht 46",
		"postalCode": "1015 DH",
		"city": "Amsterdam",
		"country": "Nederland",
		"categories": ["Steakhouse"]
	},
	{
		"date": "2018-04-06T18:24+0200",
		"name": "Station Amsterdam Centraal",
		"id": "4a688ba1f964a52088ca1fe3",
		"lat": 52.37878224866535,
		"lng": 4.900374412536621,
		"address": "Stationsplein 15",
		"postalCode": "1012 AB",
		"city": "Amsterdam",
		"country": "Nederland",
		"categories": ["Train Station"]
	},
	{
		"date": "2018-04-06T18:02+0200",
		"name": "Station Haarlem",
		"id": "4a8c3036f964a5203a0d20e3",
		"lat": 52.387919728928985,
		"lng": 4.638276517449355,
		"address": "Stationsplein 11 L",
		"postalCode": "2011 LR",
		"city": "Haarlem",
		"country": "Nederland",
		"categories": ["Train Station"]
	},
	{
		"date": "2018-04-06T17:57+0200",
		"name": "Albert Heijn to go",
		"id": "4b862ee0f964a520038231e3",
		"lat": 52.38851437453483,
		"lng": 4.639542485412089,
		"address": "Stationsplein 14",
		"postalCode": "2011 LR",
		"city": "Haarlem",
		"country": "Nederland",
		"categories": ["Convenience Store"]
	},
	{
		"date": "2018-04-05T20:26+0200",
		"name": "Restaurant Dubrovnik",
		"id": "4e29a6f5d22d848a146fa739",
		"lat": 52.38300345665138,
		"lng": 4.638255968351016,
		"address": "Jansstraat 44",
		"postalCode": "2011 RX",
		"city": "Haarlem",
		"country": "Nederland",
		"categories": ["Eastern European Restaurant"]
	},
	{
		"date": "2018-04-05T20:10+0200",
		"name": "Apple Haarlem",
		"id": "529e315f11d2f188f40a235a",
		"lat": 52.378432951567824,
		"lng": 4.6329654604005555,
		"address": "Grote Houtstraat 99",
		"postalCode": "2011 SH",
		"city": "Haarlem",
		"country": "Nederland",
		"categories": ["Electronics Store"]
	},
	{
		"date": "2018-04-04T19:42+0200",
		"name": "Jansbrug",
		"id": "4e7cc07eb9934b432d065769",
		"lat": 52.38472008170079,
		"lng": 4.6389532894745455,
		"country": "Nederland",
		"categories": ["Bridge"]
	},
	{
		"date": "2018-04-04T16:57+0200",
		"name": "Albert Heijn",
		"id": "4b9a4b64f964a52066aa35e3",
		"lat": 52.38445463709139,
		"lng": 4.635787640721933,
		"address": "Kruisstraat 10",
		"postalCode": "2011 PX",
		"city": "Haarlem",
		"country": "Nederland",
		"categories": ["Supermarket"]
	},
	{
		"date": "2018-04-01T16:00+0200",
		"name": "Sumo",
		"id": "50a7ba98e4b0740a17dedff7",
		"lat": 52.38125846452132,
		"lng": 4.638113814869877,
		"address": "Riviervismarkt 11",
		"postalCode": "2011 HJ",
		"city": "Haarlem",
		"country": "Nederland",
		"categories": ["Sushi Restaurant"]
	},
	{
		"date": "2018-04-01T01:10+0200",
		"name": "Uiltje Bar",
		"id": "54662da6498ebc9787daa7a4",
		"lat": 52.38290278394098,
		"lng": 4.630722274373556,
		"address": "Zijlstraat 18",
		"postalCode": "2011TN",
		"city": "Haarlem",
		"country": "Nederland",
		"categories": ["Beer Bar"]
	},
	{
		"date": "2018-04-01T00:19+0200",
		"name": "Station Haarlem",
		"id": "4a8c3036f964a5203a0d20e3",
		"lat": 52.387919728928985,
		"lng": 4.638276517449355,
		"address": "Stationsplein 11 L",
		"postalCode": "2011 LR",
		"city": "Haarlem",
		"country": "Nederland",
		"categories": ["Train Station"]
	}
]
