[
	{
		"date": "2018-10-31T18:01+0100",
		"name": "Albert Heijn",
		"id": "4b9a4b64f964a52066aa35e3",
		"lat": 52.38445463709139,
		"lng": 4.635787640721933,
		"address": "Kruisstraat 10",
		"postalCode": "2011 PX",
		"city": "Haarlem",
		"country": "Nederland",
		"categories": ["Supermarket"]
	},
	{
		"date": "2018-10-28T15:37+0100",
		"name": "Station Amsterdam Sloterdijk",
		"id": "4a56245ff964a52085b41fe3",
		"lat": 52.389038517725574,
		"lng": 4.838510921333843,
		"address": "Orlyplein 105",
		"postalCode": "1043 DT",
		"city": "Amsterdam",
		"country": "Nederland",
		"categories": ["Train Station"]
	},
	{
		"date": "2018-10-28T12:49+0100",
		"name": "IKEA Restaurant",
		"id": "4d6263b0865a224b225dc185",
		"lat": 52.30215108972074,
		"lng": 4.94992508505487,
		"address": "Hullenbergweg 2",
		"postalCode": "1101 BL",
		"city": "Amsterdam",
		"country": "Nederland",
		"categories": ["Scandinavian Restaurant"]
	},
	{
		"date": "2018-10-28T12:43+0100",
		"name": "Swedish Food Market",
		"id": "4e47d3aab0fb93df271b8828",
		"lat": 52.302141701562505,
		"lng": 4.949107349717003,
		"address": "Hullenbergweg 2",
		"postalCode": "1101 BL",
		"city": "Amsterdam",
		"country": "Nederland",
		"categories": ["Food & Drink Shop"]
	},
	{
		"date": "2018-10-28T12:36+0100",
		"name": "IKEA",
		"id": "4a8e7cd1f964a520511220e3",
		"lat": 52.302251162511176,
		"lng": 4.949745738955716,
		"address": "Hullenbergweg 2",
		"postalCode": "1101 BL",
		"city": "Amsterdam-Zuidoost",
		"country": "Nederland",
		"categories": ["Furniture / Home Store"]
	},
	{
		"date": "2018-10-28T11:51+0100",
		"name": "Station Amsterdam Centraal",
		"id": "4a688ba1f964a52088ca1fe3",
		"lat": 52.37878224866535,
		"lng": 4.900374412536621,
		"address": "Stationsplein 15",
		"postalCode": "1012 AB",
		"city": "Amsterdam",
		"country": "Nederland",
		"categories": ["Train Station"]
	},
	{
		"date": "2018-10-28T11:19+0100",
		"name": "Station Haarlem",
		"id": "4a8c3036f964a5203a0d20e3",
		"lat": 52.387919728928985,
		"lng": 4.638276517449355,
		"address": "Stationsplein 11 L",
		"postalCode": "2011 LR",
		"city": "Haarlem",
		"country": "Nederland",
		"categories": ["Train Station"]
	},
	{
		"date": "2018-10-24T20:25+0200",
		"name": "Albert Heijn",
		"id": "4b9a4b64f964a52066aa35e3",
		"lat": 52.38445463709139,
		"lng": 4.635787640721933,
		"address": "Kruisstraat 10",
		"postalCode": "2011 PX",
		"city": "Haarlem",
		"country": "Nederland",
		"categories": ["Supermarket"]
	},
	{
		"date": "2018-10-21T19:37+0200",
		"name": "Parels",
		"id": "4c4341a4ce54e21e3ecf0d1a",
		"lat": 52.38069,
		"lng": 4.637001,
		"address": "Oude Groenmarkt 8",
		"postalCode": "2011 HL",
		"city": "Haarlem",
		"country": "Nederland",
		"categories": ["French Restaurant"]
	},
	{
		"date": "2018-10-21T12:29+0200",
		"name": "Albert Heijn",
		"id": "4b9a4b64f964a52066aa35e3",
		"lat": 52.38445463709139,
		"lng": 4.635787640721933,
		"address": "Kruisstraat 10",
		"postalCode": "2011 PX",
		"city": "Haarlem",
		"country": "Nederland",
		"categories": ["Supermarket"]
	},
	{
		"date": "2018-10-21T02:37+0200",
		"name": "Bushalte Oranjebaan",
		"id": "4cb99cef4495721e42414b7a",
		"lat": 52.302863348713366,
		"lng": 4.87296321309077,
		"address": "Oranjebaan",
		"city": "Amstelveen",
		"country": "Nederland",
		"categories": ["Bus Stop"]
	},
	{
		"date": "2018-10-20T19:16+0200",
		"name": "Busstation Amstelveen",
		"id": "4bb63bfb941ad13a21191fe3",
		"lat": 52.30225518897117,
		"lng": 4.857590155149996,
		"address": "Sandbergplein",
		"postalCode": "1181",
		"city": "Amstelveen",
		"country": "Nederland",
		"categories": ["Bus Station"]
	},
	{
		"date": "2018-10-20T18:40+0200",
		"name": "Station Haarlem",
		"id": "4a8c3036f964a5203a0d20e3",
		"lat": 52.387919728928985,
		"lng": 4.638276517449355,
		"address": "Stationsplein 11 L",
		"postalCode": "2011 LR",
		"city": "Haarlem",
		"country": "Nederland",
		"categories": ["Train Station"]
	},
	{
		"date": "2018-10-17T19:32+0200",
		"name": "Albert Heijn",
		"id": "4b9a4b64f964a52066aa35e3",
		"lat": 52.38445463709139,
		"lng": 4.635787640721933,
		"address": "Kruisstraat 10",
		"postalCode": "2011 PX",
		"city": "Haarlem",
		"country": "Nederland",
		"categories": ["Supermarket"]
	},
	{
		"date": "2018-10-16T19:33+0200",
		"name": "Albert Heijn",
		"id": "4b9a4b64f964a52066aa35e3",
		"lat": 52.38445463709139,
		"lng": 4.635787640721933,
		"address": "Kruisstraat 10",
		"postalCode": "2011 PX",
		"city": "Haarlem",
		"country": "Nederland",
		"categories": ["Supermarket"]
	},
	{
		"date": "2018-10-14T13:01+0200",
		"name": "Vomar Voordeelmarkt",
		"id": "4b72c969f964a52096882de3",
		"lat": 52.39127711020139,
		"lng": 4.649005288257338,
		"address": "Paul Krugerkade 22",
		"postalCode": "2021 BN",
		"city": "Haarlem",
		"country": "Nederland",
		"categories": ["Supermarket", "Grocery Store"]
	},
	{
		"date": "2018-10-14T01:04+0200",
		"name": "Bushalte Toolenburg",
		"id": "4bff607a369476b046c98d1f",
		"lat": 52.3027922325208,
		"lng": 4.669488082401088,
		"address": "Van Heuven Goedhartlaan",
		"postalCode": "2131",
		"city": "Hoofddorp",
		"country": "Nederland",
		"categories": ["Bus Stop"]
	},
	{
		"date": "2018-10-13T22:05+0200",
		"name": "Toolenburg",
		"id": "513cd1b2e4b0178149e62b30",
		"lat": 52.305416,
		"lng": 4.6578827,
		"city": "Hoofddorp",
		"country": "Nederland",
		"categories": ["Neighborhood"]
	},
	{
		"date": "2018-10-13T14:26+0200",
		"name": "McDonald's",
		"id": "4cbf1ced021ca143a7c2590c",
		"lat": 52.379173,
		"lng": 4.633436999999958,
		"address": "Grote Houtstraat 75",
		"postalCode": "2011 SG",
		"city": "Haarlem",
		"country": "Nederland",
		"categories": ["Fast Food Restaurant"]
	},
	{
		"date": "2018-10-12T17:42+0200",
		"name": "Lukx",
		"id": "4da6c6341e725f1229741168",
		"lat": 52.38080105849728,
		"lng": 4.636287000757343,
		"address": "Spekstraat 2",
		"city": "Haarlem",
		"country": "Nederland",
		"categories": ["Optical Shop"]
	},
	{
		"date": "2018-10-12T15:59+0200",
		"name": "Lukx",
		"id": "4da6c6341e725f1229741168",
		"lat": 52.38080105849728,
		"lng": 4.636287000757343,
		"address": "Spekstraat 2",
		"city": "Haarlem",
		"country": "Nederland",
		"categories": ["Optical Shop"]
	},
	{
		"date": "2018-10-09T18:59+0200",
		"name": "Marqt",
		"id": "4ae1d0e3f964a520aa8721e3",
		"lat": 52.3802600023814,
		"lng": 4.632357722477905,
		"address": "Gedempte Oude Gracht 66",
		"postalCode": "2011 TG",
		"city": "Haarlem",
		"country": "Nederland",
		"categories": ["Organic Grocery"]
	},
	{
		"date": "2018-10-09T11:48+0200",
		"name": "CIGO",
		"id": "4da04ae8bb206ea8fafed7fd",
		"lat": 52.38698266012458,
		"lng": 4.636698269208286,
		"address": "Kruisweg 37",
		"postalCode": "2011 LA",
		"city": "Haarlem",
		"country": "Nederland",
		"categories": ["Bookstore", "Smoke Shop"]
	},
	{
		"date": "2018-10-09T08:09+0200",
		"name": "Station Haarlem",
		"id": "4a8c3036f964a5203a0d20e3",
		"lat": 52.387919728928985,
		"lng": 4.638276517449355,
		"address": "Stationsplein 11 L",
		"postalCode": "2011 LR",
		"city": "Haarlem",
		"country": "Nederland",
		"categories": ["Train Station"]
	},
	{
		"date": "2018-10-09T07:30+0200",
		"name": "Station Schiphol Airport",
		"id": "4b14bf25f964a5203fa623e3",
		"lat": 52.309421352795255,
		"lng": 4.762016504847906,
		"address": "Aankomstpassage 18",
		"postalCode": "1118 AX",
		"city": "Schiphol",
		"country": "Nederland",
		"categories": ["Train Station"]
	},
	{
		"date": "2018-10-09T07:13+0200",
		"name": "Amsterdam Airport Schiphol (AMS) (Amsterdam Airport Schiphol)",
		"id": "4a84e798f964a520defd1fe3",
		"lat": 52.3085704596075,
		"lng": 4.762122631072998,
		"address": "Aankomstpassage",
		"postalCode": "1118 CP",
		"city": "Schiphol",
		"country": "Nederland",
		"categories": ["Airport"]
	},
	{
		"date": "2018-10-09T07:05+0200",
		"name": "Zwanenburgbaan (18C / 36C)",
		"id": "500c2d93e4b0629c8be02085",
		"lat": 52.31388350057912,
		"lng": 4.738454818725585,
		"address": "AMS Airport",
		"postalCode": "1118 CP",
		"city": "Luchthaven Schiphol",
		"country": "Nederland",
		"categories": ["Airport Service"]
	},
	{
		"date": "2018-10-09T05:09+0200",
		"name": "Security-Check",
		"id": "4e8735ab82310ce11ea40df3",
		"lat": 53.632099307738414,
		"lng": 10.006207624384682,
		"address": "Airport Plaza",
		"postalCode": "22335",
		"city": "Hamburg",
		"country": "Deutschland",
		"categories": ["Airport Service"]
	},
	{
		"date": "2018-10-09T05:04+0200",
		"name": "Hamburg Airport Helmut Schmidt (HAM) (Hamburg Airport Helmut Schmidt)",
		"id": "4b058866f964a520cec322e3",
		"lat": 53.63201776804796,
		"lng": 10.005176067352295,
		"address": "Flughafenstr. 1-3",
		"postalCode": "22335",
		"city": "Hamburg",
		"country": "Deutschland",
		"categories": ["Airport"]
	},
	{
		"date": "2018-10-09T05:00+0200",
		"name": "Radisson Blu",
		"id": "4b78fca4f964a52030e82ee3",
		"lat": 53.632436606776764,
		"lng": 10.00779188364465,
		"address": "Flughafenstr. 1-3",
		"postalCode": "22335",
		"city": "Hamburg",
		"country": "Deutschland",
		"categories": ["Hotel"]
	},
	{
		"date": "2018-10-08T19:54+0200",
		"name": "Filini Bar & Restaurant",
		"id": "4bd718be29eb9c74e52a96e1",
		"lat": 53.632410465838745,
		"lng": 10.007696176323847,
		"address": "Flughafenstr. 1-3",
		"postalCode": "22335",
		"city": "Hamburg",
		"country": "Deutschland",
		"categories": ["Italian Restaurant", "Hotel Bar", "Breakfast Spot"]
	},
	{
		"date": "2018-10-08T19:18+0200",
		"name": "Radisson Blu",
		"id": "4b78fca4f964a52030e82ee3",
		"lat": 53.632436606776764,
		"lng": 10.00779188364465,
		"address": "Flughafenstr. 1-3",
		"postalCode": "22335",
		"city": "Hamburg",
		"country": "Deutschland",
		"categories": ["Hotel"]
	},
	{
		"date": "2018-10-08T18:16+0200",
		"name": "Hamburg Hauptbahnhof",
		"id": "4b05885cf964a520c7c022e3",
		"lat": 53.55289799623735,
		"lng": 10.007011469978039,
		"address": "Hachmannplatz 16",
		"postalCode": "20099",
		"city": "Hamburg",
		"country": "Deutschland",
		"categories": ["Train Station", "Light Rail Station"]
	},
	{
		"date": "2018-10-08T18:15+0200",
		"name": "Gleis 13/14",
		"id": "4f3b3bb6e4b0b0c43377fe7f",
		"lat": 53.55214727956492,
		"lng": 10.006377696990967,
		"address": "Hamburg Hauptbahnhof",
		"postalCode": "20099",
		"city": "Hamburg",
		"country": "Deutschland",
		"categories": ["Platform"]
	},
	{
		"date": "2018-10-08T15:59+0200",
		"name": "Bahnhof Cuxhaven",
		"id": "4b375637f964a520894025e3",
		"lat": 53.860765589642426,
		"lng": 8.703811168670654,
		"address": "Am Bahnhof 1",
		"postalCode": "27472",
		"city": "Cuxhaven",
		"country": "Deutschland",
		"categories": ["Train Station"]
	},
	{
		"date": "2018-10-08T13:54+0200",
		"name": "Helgoland-Düne",
		"id": "4dad6a7fcda1aece4a581a86",
		"lat": 54.18627212405039,
		"lng": 7.910242080688477,
		"postalCode": "27498",
		"city": "Helgoland",
		"country": "Deutschland",
		"categories": ["Island", "Beach"]
	},
	{
		"date": "2018-10-08T13:19+0200",
		"name": "Landungsbrücken Helgoland",
		"id": "501017fbe4b0afaa4aec7284",
		"lat": 54.180809558664684,
		"lng": 7.890564573767834,
		"address": "Am Südstrand",
		"city": "Helgoland",
		"country": "Deutschland",
		"categories": ["Pier"]
	},
	{
		"date": "2018-10-08T12:59+0200",
		"name": "Hotel Helgoländer Klassik",
		"id": "553793bd498e69a299e89626",
		"lat": 54.18233993808311,
		"lng": 7.88976655033913,
		"address": "Kurpromenade 29",
		"city": "27498 Helgoland",
		"country": "Deutschland",
		"categories": ["Hotel"]
	},
	{
		"date": "2018-10-07T21:51+0200",
		"name": "Hotel Helgoländer Klassik",
		"id": "553793bd498e69a299e89626",
		"lat": 54.18233993808311,
		"lng": 7.88976655033913,
		"address": "Kurpromenade 29",
		"city": "27498 Helgoland",
		"country": "Deutschland",
		"categories": ["Hotel"]
	},
	{
		"date": "2018-10-07T20:42+0200",
		"name": "Hotel Meeresblick",
		"id": "5190a16a498edbdad151f20f",
		"lat": 54.18156809134689,
		"lng": 7.887132321490094,
		"address": "Am Falm 305",
		"postalCode": "27498",
		"city": "Helgoland",
		"country": "Deutschland",
		"categories": ["Hotel"]
	},
	{
		"date": "2018-10-07T20:37+0200",
		"name": "Leuchtturm Helgoland",
		"id": "4eae70f1dab4a75e0a7ee751",
		"lat": 54.18182706130798,
		"lng": 7.882475852966308,
		"address": "Leuchtturmstr. 716",
		"postalCode": "27498",
		"city": "Helgoland",
		"country": "Deutschland",
		"categories": ["Lighthouse"]
	},
	{
		"date": "2018-10-07T14:29+0200",
		"name": "Hotel Helgoländer Klassik",
		"id": "553793bd498e69a299e89626",
		"lat": 54.18233993808311,
		"lng": 7.88976655033913,
		"address": "Kurpromenade 29",
		"city": "27498 Helgoland",
		"country": "Deutschland",
		"categories": ["Hotel"]
	},
	{
		"date": "2018-10-07T13:27+0200",
		"name": "Dünenfähre",
		"id": "4bc1b20e920eb713e30c1b2c",
		"lat": 54.18473077290325,
		"lng": 7.903621586184312,
		"address": "Helgoland - Düne - Helgoland",
		"postalCode": "27498",
		"city": "Helgoland",
		"country": "Deutschland",
		"categories": ["Boat or Ferry"]
	},
	{
		"date": "2018-10-07T12:08+0200",
		"name": "Düne Nordstrand",
		"id": "508d07c6e4b0c2bf401e654e",
		"lat": 54.18805503752959,
		"lng": 7.911529541015624,
		"address": "Düne",
		"city": "Helgoland",
		"country": "Deutschland",
		"categories": ["Surf Spot"]
	},
	{
		"date": "2018-10-07T10:43+0200",
		"name": "Dünenrestaurant",
		"id": "4c9b36f178ffa09386c77275",
		"lat": 54.18268791734534,
		"lng": 7.912301138778329,
		"address": "Düne Südstrand",
		"postalCode": "27498",
		"city": "Helgoland",
		"country": "Deutschland",
		"categories": ["Seafood Restaurant", "Beach Bar"]
	},
	{
		"date": "2018-10-07T09:44+0200",
		"name": "Helgoland-Düne",
		"id": "4dad6a7fcda1aece4a581a86",
		"lat": 54.18627212405039,
		"lng": 7.910242080688477,
		"postalCode": "27498",
		"city": "Helgoland",
		"country": "Deutschland",
		"categories": ["Island", "Beach"]
	},
	{
		"date": "2018-10-07T09:39+0200",
		"name": "Unterland",
		"id": "508d8bdde4b0167a9e6d6dbb",
		"lat": 54.18180194660158,
		"lng": 7.889771461486816,
		"postalCode": "27498",
		"city": "Helgoland",
		"country": "Deutschland",
		"categories": ["Neighborhood"]
	},
	{
		"date": "2018-10-07T09:22+0200",
		"name": "Landungsbrücken Helgoland",
		"id": "501017fbe4b0afaa4aec7284",
		"lat": 54.180809558664684,
		"lng": 7.890564573767834,
		"address": "Am Südstrand",
		"city": "Helgoland",
		"country": "Deutschland",
		"categories": ["Pier"]
	},
	{
		"date": "2018-10-06T21:27+0200",
		"name": "Hotel Helgoländer Klassik",
		"id": "553793bd498e69a299e89626",
		"lat": 54.18233993808311,
		"lng": 7.88976655033913,
		"address": "Kurpromenade 29",
		"city": "27498 Helgoland",
		"country": "Deutschland",
		"categories": ["Hotel"]
	},
	{
		"date": "2018-10-06T20:27+0200",
		"name": "Aquarium Café",
		"id": "4ead8cc45c5ce6e50612c03e",
		"lat": 54.18249121171485,
		"lng": 7.889249174994971,
		"address": "Aquariumstr. 186",
		"postalCode": "27498",
		"city": "Helgoland",
		"country": "Deutschland",
		"categories": ["German Restaurant"]
	},
	{
		"date": "2018-10-06T18:43+0200",
		"name": "Bruns Pizza+Pasta",
		"id": "51581397e4b09e1b9a3e48ee",
		"lat": 54.18163242193455,
		"lng": 7.8890472650527945,
		"address": "Mellinstr. 47",
		"postalCode": "27498",
		"city": "Helgoland",
		"country": "Deutschland",
		"categories": ["Pizza Place"]
	},
	{
		"date": "2018-10-06T18:43+0200",
		"name": "Bruns Bistro",
		"id": "52cfdcde498ed785adc88958",
		"lat": 54.18181136461828,
		"lng": 7.888457179069519,
		"address": "Siemensterrasse 173",
		"postalCode": "27498",
		"city": "Helgoland",
		"country": "Deutschland",
		"categories": ["Bistro"]
	},
	{
		"date": "2018-10-06T16:45+0200",
		"name": "Landungsbrücken Helgoland",
		"id": "501017fbe4b0afaa4aec7284",
		"lat": 54.180809558664684,
		"lng": 7.890564573767834,
		"address": "Am Südstrand",
		"city": "Helgoland",
		"country": "Deutschland",
		"categories": ["Pier"]
	},
	{
		"date": "2018-10-06T16:31+0200",
		"name": "Scheibenhafen",
		"id": "56a4b668498edb9d32320208",
		"lat": 54.17940101748578,
		"lng": 7.888113737307362,
		"country": "Deutschland",
		"categories": ["Harbor / Marina"]
	},
	{
		"date": "2018-10-06T15:49+0200",
		"name": "Leuchtturm Helgoland",
		"id": "4eae70f1dab4a75e0a7ee751",
		"lat": 54.18182706130798,
		"lng": 7.882475852966308,
		"address": "Leuchtturmstr. 716",
		"postalCode": "27498",
		"city": "Helgoland",
		"country": "Deutschland",
		"categories": ["Lighthouse"]
	},
	{
		"date": "2018-10-06T15:19+0200",
		"name": "Helgoland",
		"id": "4c4827bd31e41b8d27034f35",
		"lat": 54.179918300149986,
		"lng": 7.885522842407226,
		"postalCode": "27498",
		"city": "Helgoland",
		"country": "Deutschland",
		"categories": ["Island"]
	},
	{
		"date": "2018-10-06T11:51+0200",
		"name": "Hotel Helgoländer Klassik",
		"id": "553793bd498e69a299e89626",
		"lat": 54.18233993808311,
		"lng": 7.88976655033913,
		"address": "Kurpromenade 29",
		"city": "27498 Helgoland",
		"country": "Deutschland",
		"categories": ["Hotel"]
	},
	{
		"date": "2018-10-06T10:51+0200",
		"name": "Leuchtturm Helgoland",
		"id": "4eae70f1dab4a75e0a7ee751",
		"lat": 54.18182706130798,
		"lng": 7.882475852966308,
		"address": "Leuchtturmstr. 716",
		"postalCode": "27498",
		"city": "Helgoland",
		"country": "Deutschland",
		"categories": ["Lighthouse"]
	},
	{
		"date": "2018-10-06T10:14+0200",
		"name": "Jägersteig",
		"id": "51dd25e8498e58a4e8f99622",
		"lat": 54.187136,
		"lng": 7.877626,
		"address": "Nordstrand",
		"city": "Helgoland",
		"country": "Deutschland",
		"categories": ["Trail"]
	},
	{
		"date": "2018-10-06T09:52+0200",
		"name": "Bunker",
		"id": "51595019e4b0202f88079ebd",
		"lat": 54.18229795922826,
		"lng": 7.884964942932129,
		"address": "Von-Aschen-Str. 590",
		"postalCode": "27498",
		"city": "Helgoland",
		"country": "Deutschland",
		"categories": ["Historic Site"]
	},
	{
		"date": "2018-10-06T09:32+0200",
		"name": "Heisenberg-Gedenkstein",
		"id": "568a3edb498e82da80e90b5c",
		"lat": 54.180533,
		"lng": 7.885818,
		"country": "Deutschland",
		"categories": ["Scenic Lookout"]
	},
	{
		"date": "2018-10-05T19:12+0200",
		"name": "Düne Süd",
		"id": "4c55688072cf0f47efcb2dd6",
		"lat": 54.18192729927316,
		"lng": 7.889254667179259,
		"address": "Lung Wai 41",
		"postalCode": "27498",
		"city": "Helgoland",
		"country": "Deutschland",
		"categories": ["Hotel", "Hotel Bar"]
	},
	{
		"date": "2018-10-05T17:29+0200",
		"name": "Hotel Helgoländer Klassik",
		"id": "553793bd498e69a299e89626",
		"lat": 54.18233993808311,
		"lng": 7.88976655033913,
		"address": "Kurpromenade 29",
		"city": "27498 Helgoland",
		"country": "Deutschland",
		"categories": ["Hotel"]
	},
	{
		"date": "2018-10-05T17:20+0200",
		"name": "Landungsbrücken Helgoland",
		"id": "501017fbe4b0afaa4aec7284",
		"lat": 54.180809558664684,
		"lng": 7.890564573767834,
		"address": "Am Südstrand",
		"city": "Helgoland",
		"country": "Deutschland",
		"categories": ["Pier"]
	},
	{
		"date": "2018-10-05T17:18+0200",
		"name": "Dünenfähre",
		"id": "4bc1b20e920eb713e30c1b2c",
		"lat": 54.18473077290325,
		"lng": 7.903621586184312,
		"address": "Helgoland - Düne - Helgoland",
		"postalCode": "27498",
		"city": "Helgoland",
		"country": "Deutschland",
		"categories": ["Boat or Ferry"]
	},
	{
		"date": "2018-10-05T17:08+0200",
		"name": "Hafen Düne",
		"id": "4eaab75b93ad72a2da86c2a9",
		"lat": 54.18471368532101,
		"lng": 7.903649325554547,
		"address": "Düne",
		"postalCode": "27498",
		"city": "Helgoland",
		"country": "Deutschland",
		"categories": ["Pier"]
	},
	{
		"date": "2018-10-05T16:54+0200",
		"name": "Helgoland-Düne",
		"id": "4dad6a7fcda1aece4a581a86",
		"lat": 54.18627212405039,
		"lng": 7.910242080688477,
		"postalCode": "27498",
		"city": "Helgoland",
		"country": "Deutschland",
		"categories": ["Island", "Beach"]
	},
	{
		"date": "2018-10-05T16:47+0200",
		"name": "WSC Helgoland Yachthafen",
		"id": "504dfe4be4b084386bf3c558",
		"lat": 54.184379,
		"lng": 7.89072,
		"country": "Deutschland",
		"categories": ["Harbor / Marina"]
	},
	{
		"date": "2018-10-05T15:14+0200",
		"name": "Seeflughafen Cuxhaven / Nordholz (FCN) (Seeflughafen Cuxhaven/Nordholz)",
		"id": "4c415b165faf76b04a674820",
		"lat": 53.77327334208194,
		"lng": 8.661861419677734,
		"address": "Walter-Carstens-Str. 1",
		"postalCode": "27639",
		"city": "Nordholz",
		"country": "Deutschland",
		"categories": ["Airport"]
	},
	{
		"date": "2018-10-05T13:15+0200",
		"name": "Bahnhof Nordholz",
		"id": "4ec257ea8231b62f437bdbbe",
		"lat": 53.778412300725996,
		"lng": 8.621009275769707,
		"address": "Bahnhofstr. 5",
		"postalCode": "27637",
		"city": "Nordholz",
		"country": "Deutschland",
		"categories": ["Train Station"]
	},
	{
		"date": "2018-10-05T13:06+0200",
		"name": "Bahnhof Nordholz",
		"id": "4ec257ea8231b62f437bdbbe",
		"lat": 53.778412300725996,
		"lng": 8.621009275769707,
		"address": "Bahnhofstr. 5",
		"postalCode": "27637",
		"city": "Nordholz",
		"country": "Deutschland",
		"categories": ["Train Station"]
	},
	{
		"date": "2018-10-05T12:36+0200",
		"name": "Bahnhof Cuxhaven",
		"id": "4b375637f964a520894025e3",
		"lat": 53.860765589642426,
		"lng": 8.703811168670654,
		"address": "Am Bahnhof 1",
		"postalCode": "27472",
		"city": "Cuxhaven",
		"country": "Deutschland",
		"categories": ["Train Station"]
	},
	{
		"date": "2018-10-05T12:06+0200",
		"name": "real",
		"id": "4b6055d1f964a52043e029e3",
		"lat": 53.862127473371444,
		"lng": 8.703407506496085,
		"address": "Konrad-Adenauer-Allee 2",
		"postalCode": "27472",
		"city": "Cuxhaven",
		"country": "Deutschland",
		"categories": ["Big Box Store", "Supermarket"]
	},
	{
		"date": "2018-10-05T12:05+0200",
		"name": "Cuxhaven",
		"id": "4dd3a00718384691b9ad2c20",
		"lat": 53.87021164784614,
		"lng": 8.698274858067483,
		"postalCode": "27472",
		"city": "Cuxhaven",
		"country": "Deutschland",
		"categories": ["Town"]
	},
	{
		"date": "2018-10-05T08:36+0200",
		"name": "S Hamburg Airport (Flughafen)",
		"id": "4d4ef78bdb1b3704cf7c131f",
		"lat": 53.631903017973485,
		"lng": 10.006793489197905,
		"address": "Flughafenstr. 1",
		"postalCode": "22335",
		"city": "Hamburg",
		"country": "Deutschland",
		"categories": ["Light Rail Station"]
	},
	{
		"date": "2018-10-05T08:08+0200",
		"name": "Hamburg Airport Helmut Schmidt (HAM) (Hamburg Airport Helmut Schmidt)",
		"id": "4b058866f964a520cec322e3",
		"lat": 53.63201776804796,
		"lng": 10.005176067352295,
		"address": "Flughafenstr. 1-3",
		"postalCode": "22335",
		"city": "Hamburg",
		"country": "Deutschland",
		"categories": ["Airport"]
	},
	{
		"date": "2018-10-05T06:42+0200",
		"name": "Gate B18",
		"id": "4e426a5f8877191939680b04",
		"lat": 52.30434324085227,
		"lng": 4.7623559942156115,
		"address": "Concourse B",
		"city": "Schiphol",
		"country": "Nederland",
		"categories": ["Airport Gate"]
	},
	{
		"date": "2018-10-05T06:07+0200",
		"name": "Juicy Details",
		"id": "4dc017f96e8124d25dc4ac0a",
		"lat": 52.30655820626184,
		"lng": 4.765211678250373,
		"address": "Lounge 1",
		"city": "1117 ZN  Schiphol The Netherla",
		"country": "Nederland",
		"categories": ["Juice Bar"]
	},
	{
		"date": "2018-10-05T05:24+0200",
		"name": "Amsterdam Airport Schiphol (AMS) (Amsterdam Airport Schiphol)",
		"id": "4a84e798f964a520defd1fe3",
		"lat": 52.3085704596075,
		"lng": 4.762122631072998,
		"address": "Aankomstpassage",
		"postalCode": "1118 CP",
		"city": "Schiphol",
		"country": "Nederland",
		"categories": ["Airport"]
	},
	{
		"date": "2018-10-04T20:05+0200",
		"name": "Station Haarlem",
		"id": "4a8c3036f964a5203a0d20e3",
		"lat": 52.387919728928985,
		"lng": 4.638276517449355,
		"address": "Stationsplein 11 L",
		"postalCode": "2011 LR",
		"city": "Haarlem",
		"country": "Nederland",
		"categories": ["Train Station"]
	},
	{
		"date": "2018-10-04T19:54+0200",
		"name": "Station Amsterdam Sloterdijk",
		"id": "4a56245ff964a52085b41fe3",
		"lat": 52.389038517725574,
		"lng": 4.838510921333843,
		"address": "Orlyplein 105",
		"postalCode": "1043 DT",
		"city": "Amsterdam",
		"country": "Nederland",
		"categories": ["Train Station"]
	},
	{
		"date": "2018-10-04T19:36+0200",
		"name": "Station Schiphol Airport",
		"id": "4b14bf25f964a5203fa623e3",
		"lat": 52.309421352795255,
		"lng": 4.762016504847906,
		"address": "Aankomstpassage 18",
		"postalCode": "1118 AX",
		"city": "Schiphol",
		"country": "Nederland",
		"categories": ["Train Station"]
	},
	{
		"date": "2018-10-04T19:19+0200",
		"name": "Amsterdam Airport Schiphol (AMS) (Amsterdam Airport Schiphol)",
		"id": "4a84e798f964a520defd1fe3",
		"lat": 52.3085704596075,
		"lng": 4.762122631072998,
		"address": "Aankomstpassage",
		"postalCode": "1118 CP",
		"city": "Schiphol",
		"country": "Nederland",
		"categories": ["Airport"]
	},
	{
		"date": "2018-10-04T16:47+0200",
		"name": "Gate A10",
		"id": "4dddc91dd16415421835d8b9",
		"lat": 47.433845067088285,
		"lng": 19.262394589369762,
		"address": "Terminal 2A",
		"city": "Budapest",
		"country": "Magyarország",
		"categories": ["Airport Gate"]
	},
	{
		"date": "2018-10-04T16:29+0200",
		"name": "DR. JUICE",
		"id": "4e782973c65b409c46a8c02c",
		"lat": 47.432892707628326,
		"lng": 19.261371062347862,
		"address": "SkyCourt",
		"postalCode": "1185",
		"city": "Budapest",
		"country": "Magyarország",
		"categories": ["Juice Bar"]
	},
	{
		"date": "2018-10-04T16:29+0200",
		"name": "Food Court",
		"id": "57fa1ad4498eb0c4e6e570cd",
		"lat": 47.43324471866434,
		"lng": 19.261294958863196,
		"address": "Budapest Liszt Ferenc Nemzetközi Repülőtér",
		"postalCode": "1185",
		"city": "Budapest",
		"country": "Magyarország",
		"categories": ["Food Court"]
	},
	{
		"date": "2018-10-04T15:32+0200",
		"name": "Budapest Liszt Ferenc International Airport (BUD) (Budapest Liszt Ferenc nemzetközi repülőtér)",
		"id": "4b61c2daf964a5200f212ae3",
		"lat": 47.4331855826648,
		"lng": 19.261276141427583,
		"address": "Budapest Airport",
		"postalCode": "1185",
		"city": "Budapest",
		"country": "Magyarország",
		"categories": ["Airport"]
	},
	{
		"date": "2018-10-04T15:30+0200",
		"name": "Terminal 2A",
		"id": "4c25aa535c5ca59357e044fe",
		"lat": 47.43307502585309,
		"lng": 19.262175999269573,
		"address": "BUD Nemzetközi Repülőtér",
		"postalCode": "1185",
		"city": "Budapest",
		"country": "Magyarország",
		"categories": ["Airport Terminal"]
	},
	{
		"date": "2018-10-04T09:09+0200",
		"name": "Docler Holding Irodaház",
		"id": "4b503f8af964a520171f27e3",
		"lat": 47.49694118099851,
		"lng": 19.117601577085395,
		"address": "Expó tér 5-7.",
		"postalCode": "1101",
		"city": "Budapest",
		"country": "Magyarország",
		"categories": ["Office"]
	},
	{
		"date": "2018-10-04T01:10+0200",
		"name": "Expo Congress Hotel Budapest",
		"id": "4bd1a6f95e0cce72efc8a184",
		"lat": 47.4933973371665,
		"lng": 19.1217436917344,
		"address": "Expo tér 2.",
		"postalCode": "1101",
		"city": "Budapest",
		"country": "Magyarország",
		"categories": ["Hotel"]
	},
	{
		"date": "2018-10-03T21:44+0200",
		"name": "Deák Ferenc tér",
		"id": "4d52c0d74015b1f7b1017ecf",
		"lat": 47.497560593384,
		"lng": 19.054577366898226,
		"address": "Deák Ferenc tér",
		"postalCode": "1052",
		"city": "Budapest",
		"country": "Magyarország",
		"categories": ["Plaza"]
	},
	{
		"date": "2018-10-03T18:58+0200",
		"name": "VakVarjú Étterem",
		"id": "4ce90b7bb99754810e1c0045",
		"lat": 47.499619266783206,
		"lng": 19.05616168170112,
		"address": "Paulay Ede u. 7.",
		"postalCode": "1061",
		"city": "Budapest",
		"country": "Magyarország",
		"categories": ["Hungarian Restaurant"]
	},
	{
		"date": "2018-10-03T11:27+0200",
		"name": "Docler Holding Irodaház",
		"id": "4b503f8af964a520171f27e3",
		"lat": 47.49694118099851,
		"lng": 19.117601577085395,
		"address": "Expó tér 5-7.",
		"postalCode": "1101",
		"city": "Budapest",
		"country": "Magyarország",
		"categories": ["Office"]
	},
	{
		"date": "2018-10-03T00:13+0200",
		"name": "Expo Congress Hotel Budapest",
		"id": "4bd1a6f95e0cce72efc8a184",
		"lat": 47.4933973371665,
		"lng": 19.1217436917344,
		"address": "Expo tér 2.",
		"postalCode": "1101",
		"city": "Budapest",
		"country": "Magyarország",
		"categories": ["Hotel"]
	},
	{
		"date": "2018-10-02T23:32+0200",
		"name": "Bem Mozi & Kávézó",
		"id": "4b61c744f964a52032222ae3",
		"lat": 47.51461644668785,
		"lng": 19.036144821445262,
		"address": "Margit krt. 5.",
		"postalCode": "1024",
		"city": "Budapest",
		"country": "Magyarország",
		"categories": ["Indie Movie Theater", "Pub"]
	},
	{
		"date": "2018-10-02T22:49+0200",
		"name": "Batthyány tér",
		"id": "4bd143cab221c9b6ac5bd5d0",
		"lat": 47.50636330316184,
		"lng": 19.038716554641724,
		"address": "Batthyány tér",
		"postalCode": "1011",
		"city": "Budapest",
		"country": "Magyarország",
		"categories": ["Plaza"]
	},
	{
		"date": "2018-10-02T22:42+0200",
		"name": "Főkukac Szobor",
		"id": "590c9bd7f1fdaf5d238ccb35",
		"lat": 47.502384,
		"lng": 19.039768,
		"address": "Bem rakpart",
		"postalCode": "1011",
		"city": "Budapest",
		"country": "Magyarország",
		"categories": ["Outdoor Sculpture"]
	},
	{
		"date": "2018-10-02T22:11+0200",
		"name": "Lánchíd (Széchenyi lánchíd)",
		"id": "4e627a8a1f6ef7d07abac68d",
		"lat": 47.49899578574834,
		"lng": 19.04381275177002,
		"address": "Lánchíd",
		"postalCode": "1055",
		"city": "Budapest",
		"country": "Magyarország",
		"categories": ["Bridge"]
	},
	{
		"date": "2018-10-02T21:59+0200",
		"name": "Szent István tér",
		"id": "4d7783fc396f37042f2ea938",
		"lat": 47.50065565117513,
		"lng": 19.052905440330505,
		"address": "Szent István tér",
		"postalCode": "1051",
		"city": "Budapest",
		"country": "Magyarország",
		"categories": ["Plaza"]
	},
	{
		"date": "2018-10-02T19:08+0200",
		"name": "BB'z Bar & Grill",
		"id": "5855d93c5a586918ee2f0e06",
		"lat": 47.49931892771204,
		"lng": 19.058591372324006,
		"address": "Király u. 15.",
		"postalCode": "1075",
		"city": "Budapest",
		"country": "Magyarország",
		"categories": ["Bar"]
	},
	{
		"date": "2018-10-02T18:42+0200",
		"name": "Pillangó utca (M2)",
		"id": "4b5ddadbf964a520117029e3",
		"lat": 47.50120288788079,
		"lng": 19.120030403137207,
		"address": "Kerepesi út",
		"postalCode": "1101",
		"city": "Budapest",
		"country": "Magyarország",
		"categories": ["Metro Station"]
	},
	{
		"date": "2018-10-02T09:18+0200",
		"name": "Docler Holding Irodaház",
		"id": "4b503f8af964a520171f27e3",
		"lat": 47.49694118099851,
		"lng": 19.117601577085395,
		"address": "Expó tér 5-7.",
		"postalCode": "1101",
		"city": "Budapest",
		"country": "Magyarország",
		"categories": ["Office"]
	},
	{
		"date": "2018-10-02T00:28+0200",
		"name": "Expo Congress Hotel Budapest",
		"id": "4bd1a6f95e0cce72efc8a184",
		"lat": 47.4933973371665,
		"lng": 19.1217436917344,
		"address": "Expo tér 2.",
		"postalCode": "1101",
		"city": "Budapest",
		"country": "Magyarország",
		"categories": ["Hotel"]
	},
	{
		"date": "2018-10-01T23:49+0200",
		"name": "Puskás Ferenc Stadion M (1, 1A)",
		"id": "4cb8873190c9a1439d8980d6",
		"lat": 47.50046790918459,
		"lng": 19.10786295025881,
		"address": "Hungária krt.",
		"postalCode": "1146",
		"city": "Budapest",
		"country": "Magyarország",
		"categories": ["Tram Station"]
	},
	{
		"date": "2018-10-01T23:49+0200",
		"name": "Pesti Pipi",
		"id": "58b866ff51666a48d2537243",
		"lat": 47.5004310839819,
		"lng": 19.10724170296898,
		"address": "Ifjúság útja 1.",
		"postalCode": "1148",
		"city": "Budapest",
		"country": "Magyarország",
		"categories": ["Fried Chicken Joint", "Burger Joint"]
	},
	{
		"date": "2018-10-01T22:12+0200",
		"name": "Legfelsőbb Beeróság",
		"id": "551d25a5498e9c0a87996faa",
		"lat": 47.495465679130106,
		"lng": 19.06231999397278,
		"address": "Dohány u. 20.",
		"postalCode": "1074",
		"city": "Budapest",
		"country": "Magyarország",
		"categories": ["Beer Bar"]
	},
	{
		"date": "2018-10-01T21:20+0200",
		"name": "Las Vegan's",
		"id": "58518f6d06f1a34cb4a42406",
		"lat": 47.49711790008929,
		"lng": 19.062899405123595,
		"country": "Magyarország",
		"categories": ["Vegetarian / Vegan Restaurant"]
	},
	{
		"date": "2018-10-01T21:20+0200",
		"name": "KARAVÁN Budapest - Street Food",
		"id": "54904695498ea579bad9be70",
		"lat": 47.49714497601781,
		"lng": 19.06290253580601,
		"address": "Kazinczy u. 18.",
		"postalCode": "1074",
		"city": "Budapest",
		"country": "Magyarország",
		"categories": ["Street Food Gathering"]
	},
	{
		"date": "2018-10-01T20:59+0200",
		"name": "Szimpla Kert",
		"id": "4b630e1af964a52020602ae3",
		"lat": 47.4968925081949,
		"lng": 19.062914031379552,
		"address": "Kazinczy u. 14.",
		"postalCode": "1075",
		"city": "Budapest",
		"country": "Magyarország",
		"categories": ["Pub"]
	},
	{
		"date": "2018-10-01T20:51+0200",
		"name": "deep burger",
		"id": "59cc0bfbdff8153e7b8cacb6",
		"lat": 47.49832900659874,
		"lng": 19.06630524569565,
		"address": "Klauzal 25.",
		"postalCode": "1072",
		"city": "Budapest VII. kerület",
		"country": "Magyarország",
		"categories": ["Burger Joint"]
	},
	{
		"date": "2018-10-01T18:26+0200",
		"name": "Füge udvar",
		"id": "4fa3f9b3bb3d9b195e1451bc",
		"lat": 47.49796649785825,
		"lng": 19.066600799560547,
		"address": "Klauzál u. 19.",
		"postalCode": "1072",
		"city": "Budapest",
		"country": "Magyarország",
		"categories": ["Beer Garden", "Bar"]
	},
	{
		"date": "2018-10-01T17:29+0200",
		"name": "Expo Congress Hotel Budapest",
		"id": "4bd1a6f95e0cce72efc8a184",
		"lat": 47.4933973371665,
		"lng": 19.1217436917344,
		"address": "Expo tér 2.",
		"postalCode": "1101",
		"city": "Budapest",
		"country": "Magyarország",
		"categories": ["Hotel"]
	},
	{
		"date": "2018-10-01T08:57+0200",
		"name": "Docler Holding Irodaház",
		"id": "4b503f8af964a520171f27e3",
		"lat": 47.49694118099851,
		"lng": 19.117601577085395,
		"address": "Expó tér 5-7.",
		"postalCode": "1101",
		"city": "Budapest",
		"country": "Magyarország",
		"categories": ["Office"]
	},
	{
		"date": "2018-10-01T00:14+0200",
		"name": "Expo Congress Hotel Budapest",
		"id": "4bd1a6f95e0cce72efc8a184",
		"lat": 47.4933973371665,
		"lng": 19.1217436917344,
		"address": "Expo tér 2.",
		"postalCode": "1101",
		"city": "Budapest",
		"country": "Magyarország",
		"categories": ["Hotel"]
	}
]
