[
	{
		"date": "2016-02-01T09:47:51.000Z",
		"name": "Soho",
		"id": "4c4715491ddec9280e339c32",
		"lat": 51.513461124357576,
		"lng": -0.13120680232532322,
		"postalCode": "W1",
		"city": "London",
		"country": "United Kingdom",
		"categories": [
			"Neighborhood"
		]
	},
	{
		"date": "2016-02-01T09:55:16.000Z",
		"name": "Google UK",
		"id": "4e1ffee9628469a574066a4e",
		"lat": 51.51592583201035,
		"lng": -0.127303104090698,
		"address": "1-13 St Giles High St",
		"postalCode": "WC2H 8LG",
		"city": "London",
		"country": "United Kingdom",
		"categories": [
			"Office"
		]
	},
	{
		"date": "2016-02-01T10:50:45.000Z",
		"name": "British Museum",
		"id": "4ac518d2f964a5203da720e3",
		"lat": 51.51900874337275,
		"lng": -0.12643718771869317,
		"address": "Great Russell St",
		"postalCode": "WC1B 3DG",
		"city": "London",
		"country": "United Kingdom",
		"categories": [
			"History Museum",
			"Art Museum"
		]
	},
	{
		"date": "2016-02-01T13:33:33.000Z",
		"name": "Tas Restaurant",
		"id": "4bacbc6cf964a520f6073be3",
		"lat": 51.51790426687126,
		"lng": -0.12755439664051152,
		"address": "22 Bloomsbury St.",
		"postalCode": "WC1B 3QJ",
		"city": "London",
		"country": "United Kingdom",
		"categories": [
			"Turkish Restaurant",
			"Mediterranean Restaurant"
		]
	},
	{
		"date": "2016-02-01T14:23:50.000Z",
		"name": "The Atlantis Bookshop",
		"id": "4ac518edf964a520bbac20e3",
		"lat": 51.517334374274334,
		"lng": -0.12509898046097445,
		"address": "49a Museum St",
		"postalCode": "WC1A 1LY",
		"city": "Bloomsbury",
		"country": "United Kingdom",
		"categories": [
			"Bookstore"
		]
	},
	{
		"date": "2016-02-01T16:28:12.000Z",
		"name": "London Stansted Airport (STN)",
		"id": "4ac518f7f964a520a5af20e3",
		"lat": 51.89036991471721,
		"lng": 0.2616527059581131,
		"address": "Bassingbourn Rd",
		"postalCode": "CM24 1QW",
		"city": "Stansted",
		"country": "United Kingdom",
		"categories": [
			"Airport"
		]
	},
	{
		"date": "2016-02-01T16:43:38.000Z",
		"name": "James Martin Kitchen",
		"id": "56311731498e5b4174715524",
		"lat": 51.89039825409561,
		"lng": 0.26091692416230217,
		"address": "Departure Lounge",
		"city": "Stansted",
		"country": "United Kingdom",
		"categories": [
			"Comfort Food Restaurant"
		]
	},
	{
		"date": "2016-02-01T17:13:36.000Z",
		"name": "Starbucks",
		"id": "4b33102cf964a5205d1725e3",
		"lat": 51.889784702477805,
		"lng": 0.2605144854169339,
		"address": "Stansted Airport Limited",
		"postalCode": "CM24 1QW",
		"city": "Stansted",
		"country": "United Kingdom",
		"categories": [
			"Coffee Shop"
		]
	},
	{
		"date": "2016-02-01T21:11:05.000Z",
		"name": "Frankfurt-Hahn Airport (HHN) (Frankfurt Hahn Airport)",
		"id": "4b5ae369f964a520ebd828e3",
		"lat": 49.9459178381779,
		"lng": 7.269687652587891,
		"address": "Gebäude 667",
		"postalCode": "55483",
		"city": "Hahn",
		"country": "Deutschland",
		"categories": [
			"Airport"
		]
	},
	{
		"date": "2016-02-01T22:40:44.000Z",
		"name": "Burger King",
		"id": "4b44a4dff964a5207cf825e3",
		"lat": 49.77088247292718,
		"lng": 6.650944503236045,
		"address": "Zurmaiener Straße 146",
		"postalCode": "54292",
		"city": "Trier",
		"country": "Deutschland",
		"categories": [
			"Fast Food Restaurant"
		]
	},
	{
		"date": "2016-02-02T07:46:26.000Z",
		"name": "Auchan",
		"id": "4b43c3bbf964a52006e925e3",
		"lat": 49.63357679951604,
		"lng": 6.169896125793457,
		"address": "5 rue Alphonse Weicker",
		"postalCode": "2721",
		"city": "Lëtzebuerg",
		"country": "Lëtzebuerg",
		"categories": [
			"Shopping Mall",
			"Supermarket"
		]
	},
	{
		"date": "2016-02-02T08:15:44.000Z",
		"name": "Docler Holding",
		"id": "52cbb89a11d243c791c37510",
		"lat": 49.6317381171169,
		"lng": 6.17131892913784,
		"address": "44, Avenue John F. Kennedy",
		"postalCode": "1855",
		"city": "Lëtzebuerg",
		"country": "Lëtzebuerg",
		"categories": [
			"Tech Startup"
		]
	},
	{
		"date": "2016-02-02T22:14:05.000Z",
		"name": "Cotton Candy Residence 5",
		"id": "5614386e498e5c4e8f4927d8",
		"lat": 49.75192729865979,
		"lng": 6.6370894371892835,
		"city": "Trier",
		"country": "Deutschland",
		"categories": [
			"Home (private)"
		]
	},
	{
		"date": "2016-02-03T08:02:45.000Z",
		"name": "Auchan",
		"id": "4b43c3bbf964a52006e925e3",
		"lat": 49.63357679951604,
		"lng": 6.169896125793457,
		"address": "5 rue Alphonse Weicker",
		"postalCode": "2721",
		"city": "Lëtzebuerg",
		"country": "Lëtzebuerg",
		"categories": [
			"Shopping Mall",
			"Supermarket"
		]
	},
	{
		"date": "2016-02-03T08:14:25.000Z",
		"name": "Docler Holding",
		"id": "52cbb89a11d243c791c37510",
		"lat": 49.6317381171169,
		"lng": 6.17131892913784,
		"address": "44, Avenue John F. Kennedy",
		"postalCode": "1855",
		"city": "Lëtzebuerg",
		"country": "Lëtzebuerg",
		"categories": [
			"Tech Startup"
		]
	},
	{
		"date": "2016-02-03T12:24:43.000Z",
		"name": "Sushi & More",
		"id": "53637542498e423ead872eeb",
		"lat": 49.63110252801338,
		"lng": 6.171859204267524,
		"address": "18-20 rue Edward Steichen",
		"city": "Lëtzebuerg",
		"country": "Lëtzebuerg",
		"categories": [
			"Sushi Restaurant"
		]
	},
	{
		"date": "2016-02-03T17:42:37.000Z",
		"name": "Kinepolis",
		"id": "4b4d6d86f964a52040d226e3",
		"lat": 49.63353601201701,
		"lng": 6.173125299780058,
		"address": "45 av. J.-F. Kennedy",
		"postalCode": "1855",
		"city": "Lëtzebuerg",
		"country": "Lëtzebuerg",
		"categories": [
			"Multiplex"
		]
	},
	{
		"date": "2016-02-03T22:47:04.000Z",
		"name": "Cotton Candy Residence 5",
		"id": "5614386e498e5c4e8f4927d8",
		"lat": 49.75192729865979,
		"lng": 6.6370894371892835,
		"city": "Trier",
		"country": "Deutschland",
		"categories": [
			"Home (private)"
		]
	},
	{
		"date": "2016-02-04T07:41:57.000Z",
		"name": "Auchan",
		"id": "4b43c3bbf964a52006e925e3",
		"lat": 49.63357679951604,
		"lng": 6.169896125793457,
		"address": "5 rue Alphonse Weicker",
		"postalCode": "2721",
		"city": "Lëtzebuerg",
		"country": "Lëtzebuerg",
		"categories": [
			"Shopping Mall",
			"Supermarket"
		]
	},
	{
		"date": "2016-02-04T08:20:21.000Z",
		"name": "Docler Holding",
		"id": "52cbb89a11d243c791c37510",
		"lat": 49.6317381171169,
		"lng": 6.17131892913784,
		"address": "44, Avenue John F. Kennedy",
		"postalCode": "1855",
		"city": "Lëtzebuerg",
		"country": "Lëtzebuerg",
		"categories": [
			"Tech Startup"
		]
	},
	{
		"date": "2016-02-04T11:04:26.000Z",
		"name": "Chimi Churri",
		"id": "5034b74de4b026a09b70395a",
		"lat": 49.63137691963008,
		"lng": 6.17395556717501,
		"address": "15, rue Edward Steichen",
		"country": "Lëtzebuerg",
		"categories": [
			"Latin American Restaurant"
		]
	},
	{
		"date": "2016-02-04T17:45:28.000Z",
		"name": "Cotton Candy Residence 5",
		"id": "5614386e498e5c4e8f4927d8",
		"lat": 49.75192729865979,
		"lng": 6.6370894371892835,
		"city": "Trier",
		"country": "Deutschland",
		"categories": [
			"Home (private)"
		]
	},
	{
		"date": "2016-02-05T10:21:31.000Z",
		"name": "Docler Holding",
		"id": "52cbb89a11d243c791c37510",
		"lat": 49.6317381171169,
		"lng": 6.17131892913784,
		"address": "44, Avenue John F. Kennedy",
		"postalCode": "1855",
		"city": "Lëtzebuerg",
		"country": "Lëtzebuerg",
		"categories": [
			"Tech Startup"
		]
	},
	{
		"date": "2016-02-05T11:41:25.000Z",
		"name": "McDonald's",
		"id": "4ee3c150490138df8c9047ba",
		"lat": 49.63355644536983,
		"lng": 6.173131320520858,
		"address": "45 Ave. J-f Kennedy",
		"postalCode": "1855",
		"city": "Lëtzebuerg",
		"country": "Lëtzebuerg",
		"categories": [
			"Fast Food Restaurant"
		]
	},
	{
		"date": "2016-02-06T12:42:02.000Z",
		"name": "Chopsticks",
		"id": "4de5118f8877bcb686821778",
		"lat": 49.75402300862892,
		"lng": 6.636423927941795,
		"city": "Trier",
		"country": "Deutschland",
		"categories": [
			"Chinese Restaurant"
		]
	},
	{
		"date": "2016-02-08T08:58:49.000Z",
		"name": "Auchan",
		"id": "4b43c3bbf964a52006e925e3",
		"lat": 49.63357679951604,
		"lng": 6.169896125793457,
		"address": "5 rue Alphonse Weicker",
		"postalCode": "2721",
		"city": "Lëtzebuerg",
		"country": "Lëtzebuerg",
		"categories": [
			"Shopping Mall",
			"Supermarket"
		]
	},
	{
		"date": "2016-02-08T10:43:18.000Z",
		"name": "Auchan Snacking",
		"id": "56260b3b498ec7228731a346",
		"lat": 49.6327935192468,
		"lng": 6.170054092253696,
		"country": "Lëtzebuerg",
		"categories": [
			"Snack Place"
		]
	},
	{
		"date": "2016-02-08T11:19:33.000Z",
		"name": "Docler Holding",
		"id": "52cbb89a11d243c791c37510",
		"lat": 49.6317381171169,
		"lng": 6.17131892913784,
		"address": "44, Avenue John F. Kennedy",
		"postalCode": "1855",
		"city": "Lëtzebuerg",
		"country": "Lëtzebuerg",
		"categories": [
			"Tech Startup"
		]
	},
	{
		"date": "2016-02-08T18:10:20.000Z",
		"name": "Cotton Candy Residence 5",
		"id": "5614386e498e5c4e8f4927d8",
		"lat": 49.75192729865979,
		"lng": 6.6370894371892835,
		"city": "Trier",
		"country": "Deutschland",
		"categories": [
			"Home (private)"
		]
	},
	{
		"date": "2016-02-09T07:55:19.000Z",
		"name": "Auchan",
		"id": "4b43c3bbf964a52006e925e3",
		"lat": 49.63357679951604,
		"lng": 6.169896125793457,
		"address": "5 rue Alphonse Weicker",
		"postalCode": "2721",
		"city": "Lëtzebuerg",
		"country": "Lëtzebuerg",
		"categories": [
			"Shopping Mall",
			"Supermarket"
		]
	},
	{
		"date": "2016-02-09T10:35:30.000Z",
		"name": "McDonald's",
		"id": "4ee3c150490138df8c9047ba",
		"lat": 49.63355644536983,
		"lng": 6.173131320520858,
		"address": "45 Ave. J-f Kennedy",
		"postalCode": "1855",
		"city": "Lëtzebuerg",
		"country": "Lëtzebuerg",
		"categories": [
			"Fast Food Restaurant"
		]
	},
	{
		"date": "2016-02-09T11:19:06.000Z",
		"name": "Docler Holding",
		"id": "52cbb89a11d243c791c37510",
		"lat": 49.6317381171169,
		"lng": 6.17131892913784,
		"address": "44, Avenue John F. Kennedy",
		"postalCode": "1855",
		"city": "Lëtzebuerg",
		"country": "Lëtzebuerg",
		"categories": [
			"Tech Startup"
		]
	},
	{
		"date": "2016-02-09T18:29:35.000Z",
		"name": "Belval Plaza Shopping Center",
		"id": "4ca4917e554b236abb2e3048",
		"lat": 49.500932218359914,
		"lng": 5.945884058262868,
		"address": "7 Avenue Du Rock 'n' Roll",
		"postalCode": "4361",
		"city": "Esch-Uelzecht",
		"country": "Lëtzebuerg",
		"categories": [
			"Shopping Mall"
		]
	},
	{
		"date": "2016-02-09T18:36:20.000Z",
		"name": "Upton Park",
		"id": "4f607d39e4b0d9c90214f9f1",
		"lat": 49.500924745974814,
		"lng": 5.9459823954684214,
		"country": "Lëtzebuerg",
		"categories": [
			"Burger Joint"
		]
	},
	{
		"date": "2016-02-09T19:12:01.000Z",
		"name": "Rockhal",
		"id": "4bd20a73a8b3a593c0fe665f",
		"lat": 49.50044516704587,
		"lng": 5.9474305486031875,
		"address": "Avenue du Rock’n’Roll 5",
		"postalCode": "4361",
		"city": "Esch-Uelzecht",
		"country": "Lëtzebuerg",
		"categories": [
			"Concert Hall"
		]
	},
	{
		"date": "2016-02-10T07:27:53.000Z",
		"name": "Auchan",
		"id": "4b43c3bbf964a52006e925e3",
		"lat": 49.63357679951604,
		"lng": 6.169896125793457,
		"address": "5 rue Alphonse Weicker",
		"postalCode": "2721",
		"city": "Lëtzebuerg",
		"country": "Lëtzebuerg",
		"categories": [
			"Shopping Mall",
			"Supermarket"
		]
	},
	{
		"date": "2016-02-10T07:36:50.000Z",
		"name": "Docler Holding",
		"id": "52cbb89a11d243c791c37510",
		"lat": 49.6317381171169,
		"lng": 6.17131892913784,
		"address": "44, Avenue John F. Kennedy",
		"postalCode": "1855",
		"city": "Lëtzebuerg",
		"country": "Lëtzebuerg",
		"categories": [
			"Tech Startup"
		]
	},
	{
		"date": "2016-02-10T17:45:16.000Z",
		"name": "Kinepolis",
		"id": "4b4d6d86f964a52040d226e3",
		"lat": 49.63353601201701,
		"lng": 6.173125299780058,
		"address": "45 av. J.-F. Kennedy",
		"postalCode": "1855",
		"city": "Lëtzebuerg",
		"country": "Lëtzebuerg",
		"categories": [
			"Multiplex"
		]
	},
	{
		"date": "2016-02-10T20:52:24.000Z",
		"name": "Pizza Hut",
		"id": "4c0e918cc6cf76b0f7f18051",
		"lat": 49.75452279757575,
		"lng": 6.640258068530749,
		"address": "Brotstr. 40",
		"postalCode": "54290",
		"city": "Trier",
		"country": "Deutschland",
		"categories": [
			"Pizza Place",
			"Restaurant"
		]
	},
	{
		"date": "2016-02-11T07:50:24.000Z",
		"name": "Auchan",
		"id": "4b43c3bbf964a52006e925e3",
		"lat": 49.63357679951604,
		"lng": 6.169896125793457,
		"address": "5 rue Alphonse Weicker",
		"postalCode": "2721",
		"city": "Lëtzebuerg",
		"country": "Lëtzebuerg",
		"categories": [
			"Shopping Mall",
			"Supermarket"
		]
	},
	{
		"date": "2016-02-12T07:46:38.000Z",
		"name": "Auchan",
		"id": "4b43c3bbf964a52006e925e3",
		"lat": 49.63357679951604,
		"lng": 6.169896125793457,
		"address": "5 rue Alphonse Weicker",
		"postalCode": "2721",
		"city": "Lëtzebuerg",
		"country": "Lëtzebuerg",
		"categories": [
			"Shopping Mall",
			"Supermarket"
		]
	},
	{
		"date": "2016-02-12T07:49:20.000Z",
		"name": "Docler Holding",
		"id": "52cbb89a11d243c791c37510",
		"lat": 49.6317381171169,
		"lng": 6.17131892913784,
		"address": "44, Avenue John F. Kennedy",
		"postalCode": "1855",
		"city": "Lëtzebuerg",
		"country": "Lëtzebuerg",
		"categories": [
			"Tech Startup"
		]
	},
	{
		"date": "2016-02-12T10:26:48.000Z",
		"name": "McDonald's",
		"id": "4ee3c150490138df8c9047ba",
		"lat": 49.63355644536983,
		"lng": 6.173131320520858,
		"address": "45 Ave. J-f Kennedy",
		"postalCode": "1855",
		"city": "Lëtzebuerg",
		"country": "Lëtzebuerg",
		"categories": [
			"Fast Food Restaurant"
		]
	},
	{
		"date": "2016-02-12T15:20:20.000Z",
		"name": "Cotton Candy Residence 5",
		"id": "5614386e498e5c4e8f4927d8",
		"lat": 49.75192729865979,
		"lng": 6.6370894371892835,
		"city": "Trier",
		"country": "Deutschland",
		"categories": [
			"Home (private)"
		]
	},
	{
		"date": "2016-02-12T15:35:38.000Z",
		"name": "Packstation 102",
		"id": "4c1a64cfb4e62d7f65bcd793",
		"lat": 49.748077366671886,
		"lng": 6.636359438685172,
		"address": "Gerberstr.",
		"postalCode": "54290",
		"city": "Trier",
		"country": "Deutschland",
		"categories": [
			"Shipping Store"
		]
	},
	{
		"date": "2016-02-13T15:29:41.000Z",
		"name": "Trier Galerie",
		"id": "4bc2e26c74a9a5933ad0d3f6",
		"lat": 49.75574434830903,
		"lng": 6.638750525074942,
		"address": "Fleischstr. 62",
		"postalCode": "54290",
		"city": "Trier",
		"country": "Deutschland",
		"categories": [
			"Shopping Mall"
		]
	},
	{
		"date": "2016-02-13T15:36:39.000Z",
		"name": "REWE City",
		"id": "57a3a39c498e406b9d2fd43a",
		"lat": 49.755999119833014,
		"lng": 6.637973785400391,
		"address": "Fleischstr. 62-65",
		"postalCode": "54290",
		"city": "Trier",
		"country": "Deutschland",
		"categories": [
			"Supermarket"
		]
	},
	{
		"date": "2016-02-13T18:09:23.000Z",
		"name": "Cotton Candy Residence 5",
		"id": "5614386e498e5c4e8f4927d8",
		"lat": 49.75192729865979,
		"lng": 6.6370894371892835,
		"city": "Trier",
		"country": "Deutschland",
		"categories": [
			"Home (private)"
		]
	},
	{
		"date": "2016-02-14T19:03:35.000Z",
		"name": "Da Massimo",
		"id": "4d2f3fdf6b1c2d431c1915da",
		"lat": 49.74622250425706,
		"lng": 6.615893840531082,
		"address": "Eurener Str. 68",
		"postalCode": "54294",
		"city": "Trier",
		"country": "Deutschland",
		"categories": [
			"Italian Restaurant"
		]
	},
	{
		"date": "2016-02-14T22:59:09.000Z",
		"name": "Cotton Candy Residence 5",
		"id": "5614386e498e5c4e8f4927d8",
		"lat": 49.75192729865979,
		"lng": 6.6370894371892835,
		"city": "Trier",
		"country": "Deutschland",
		"categories": [
			"Home (private)"
		]
	},
	{
		"date": "2016-02-15T17:50:24.000Z",
		"name": "Cotton Candy Residence 5",
		"id": "5614386e498e5c4e8f4927d8",
		"lat": 49.75192729865979,
		"lng": 6.6370894371892835,
		"city": "Trier",
		"country": "Deutschland",
		"categories": [
			"Home (private)"
		]
	},
	{
		"date": "2016-02-16T07:39:46.000Z",
		"name": "Auchan",
		"id": "4b43c3bbf964a52006e925e3",
		"lat": 49.63357679951604,
		"lng": 6.169896125793457,
		"address": "5 rue Alphonse Weicker",
		"postalCode": "2721",
		"city": "Lëtzebuerg",
		"country": "Lëtzebuerg",
		"categories": [
			"Shopping Mall",
			"Supermarket"
		]
	},
	{
		"date": "2016-02-16T08:03:11.000Z",
		"name": "Docler Holding",
		"id": "52cbb89a11d243c791c37510",
		"lat": 49.6317381171169,
		"lng": 6.17131892913784,
		"address": "44, Avenue John F. Kennedy",
		"postalCode": "1855",
		"city": "Lëtzebuerg",
		"country": "Lëtzebuerg",
		"categories": [
			"Tech Startup"
		]
	},
	{
		"date": "2016-02-16T17:51:41.000Z",
		"name": "Cotton Candy Residence 5",
		"id": "5614386e498e5c4e8f4927d8",
		"lat": 49.75192729865979,
		"lng": 6.6370894371892835,
		"city": "Trier",
		"country": "Deutschland",
		"categories": [
			"Home (private)"
		]
	},
	{
		"date": "2016-02-17T07:54:01.000Z",
		"name": "Auchan",
		"id": "4b43c3bbf964a52006e925e3",
		"lat": 49.63357679951604,
		"lng": 6.169896125793457,
		"address": "5 rue Alphonse Weicker",
		"postalCode": "2721",
		"city": "Lëtzebuerg",
		"country": "Lëtzebuerg",
		"categories": [
			"Shopping Mall",
			"Supermarket"
		]
	},
	{
		"date": "2016-02-17T09:26:13.000Z",
		"name": "Docler Holding",
		"id": "52cbb89a11d243c791c37510",
		"lat": 49.6317381171169,
		"lng": 6.17131892913784,
		"address": "44, Avenue John F. Kennedy",
		"postalCode": "1855",
		"city": "Lëtzebuerg",
		"country": "Lëtzebuerg",
		"categories": [
			"Tech Startup"
		]
	},
	{
		"date": "2016-02-17T14:31:56.000Z",
		"name": "Auchan Snacking",
		"id": "56260b3b498ec7228731a346",
		"lat": 49.6327935192468,
		"lng": 6.170054092253696,
		"country": "Lëtzebuerg",
		"categories": [
			"Snack Place"
		]
	},
	{
		"date": "2016-02-17T19:15:35.000Z",
		"name": "Cotton Candy Residence 5",
		"id": "5614386e498e5c4e8f4927d8",
		"lat": 49.75192729865979,
		"lng": 6.6370894371892835,
		"city": "Trier",
		"country": "Deutschland",
		"categories": [
			"Home (private)"
		]
	},
	{
		"date": "2016-02-18T07:43:22.000Z",
		"name": "Auchan",
		"id": "4b43c3bbf964a52006e925e3",
		"lat": 49.63357679951604,
		"lng": 6.169896125793457,
		"address": "5 rue Alphonse Weicker",
		"postalCode": "2721",
		"city": "Lëtzebuerg",
		"country": "Lëtzebuerg",
		"categories": [
			"Shopping Mall",
			"Supermarket"
		]
	},
	{
		"date": "2016-02-18T07:51:18.000Z",
		"name": "Docler Holding",
		"id": "52cbb89a11d243c791c37510",
		"lat": 49.6317381171169,
		"lng": 6.17131892913784,
		"address": "44, Avenue John F. Kennedy",
		"postalCode": "1855",
		"city": "Lëtzebuerg",
		"country": "Lëtzebuerg",
		"categories": [
			"Tech Startup"
		]
	},
	{
		"date": "2016-02-18T18:09:37.000Z",
		"name": "Saturn",
		"id": "4bc07375f8219c74138eb110",
		"lat": 49.75841808348975,
		"lng": 6.642463803291321,
		"address": "Simeonstrasse 53",
		"postalCode": "54290",
		"city": "Trier",
		"country": "Deutschland",
		"categories": [
			"Electronics Store",
			"Miscellaneous Shop"
		]
	},
	{
		"date": "2016-02-18T18:24:57.000Z",
		"name": "Pizza Hut",
		"id": "4c0e918cc6cf76b0f7f18051",
		"lat": 49.75452279757575,
		"lng": 6.640258068530749,
		"address": "Brotstr. 40",
		"postalCode": "54290",
		"city": "Trier",
		"country": "Deutschland",
		"categories": [
			"Pizza Place",
			"Restaurant"
		]
	},
	{
		"date": "2016-02-19T08:33:09.000Z",
		"name": "Auchan",
		"id": "4b43c3bbf964a52006e925e3",
		"lat": 49.63357679951604,
		"lng": 6.169896125793457,
		"address": "5 rue Alphonse Weicker",
		"postalCode": "2721",
		"city": "Lëtzebuerg",
		"country": "Lëtzebuerg",
		"categories": [
			"Shopping Mall",
			"Supermarket"
		]
	},
	{
		"date": "2016-02-19T11:19:43.000Z",
		"name": "Quick",
		"id": "4c1d1fceb4e62d7f5636dc93",
		"lat": 49.63372441223882,
		"lng": 6.169334468348117,
		"address": "2 rue Alphonse Weicker",
		"postalCode": "2721",
		"city": "Kirchberg",
		"country": "Lëtzebuerg",
		"categories": [
			"Fast Food Restaurant",
			"Burger Joint"
		]
	},
	{
		"date": "2016-02-19T15:17:20.000Z",
		"name": "Cotton Candy Residence 5",
		"id": "5614386e498e5c4e8f4927d8",
		"lat": 49.75192729865979,
		"lng": 6.6370894371892835,
		"city": "Trier",
		"country": "Deutschland",
		"categories": [
			"Home (private)"
		]
	},
	{
		"date": "2016-02-21T13:48:18.000Z",
		"name": "Kartoffelkiste",
		"id": "4c40b95eff711b8d14d61005",
		"lat": 49.753548843088936,
		"lng": 6.638939380645752,
		"address": "Fahrstraße 13-14",
		"postalCode": "54290",
		"city": "Trier",
		"country": "Deutschland",
		"categories": [
			"German Restaurant"
		]
	},
	{
		"date": "2016-02-21T19:08:01.000Z",
		"name": "Cotton Candy Residence 5",
		"id": "5614386e498e5c4e8f4927d8",
		"lat": 49.75192729865979,
		"lng": 6.6370894371892835,
		"city": "Trier",
		"country": "Deutschland",
		"categories": [
			"Home (private)"
		]
	},
	{
		"date": "2016-02-22T07:41:29.000Z",
		"name": "Auchan",
		"id": "4b43c3bbf964a52006e925e3",
		"lat": 49.63357679951604,
		"lng": 6.169896125793457,
		"address": "5 rue Alphonse Weicker",
		"postalCode": "2721",
		"city": "Lëtzebuerg",
		"country": "Lëtzebuerg",
		"categories": [
			"Shopping Mall",
			"Supermarket"
		]
	},
	{
		"date": "2016-02-22T11:26:22.000Z",
		"name": "Docler Holding",
		"id": "52cbb89a11d243c791c37510",
		"lat": 49.6317381171169,
		"lng": 6.17131892913784,
		"address": "44, Avenue John F. Kennedy",
		"postalCode": "1855",
		"city": "Lëtzebuerg",
		"country": "Lëtzebuerg",
		"categories": [
			"Tech Startup"
		]
	},
	{
		"date": "2016-02-23T09:50:43.000Z",
		"name": "Auchan",
		"id": "4b43c3bbf964a52006e925e3",
		"lat": 49.63357679951604,
		"lng": 6.169896125793457,
		"address": "5 rue Alphonse Weicker",
		"postalCode": "2721",
		"city": "Lëtzebuerg",
		"country": "Lëtzebuerg",
		"categories": [
			"Shopping Mall",
			"Supermarket"
		]
	},
	{
		"date": "2016-02-23T11:26:04.000Z",
		"name": "Docler Holding",
		"id": "52cbb89a11d243c791c37510",
		"lat": 49.6317381171169,
		"lng": 6.17131892913784,
		"address": "44, Avenue John F. Kennedy",
		"postalCode": "1855",
		"city": "Lëtzebuerg",
		"country": "Lëtzebuerg",
		"categories": [
			"Tech Startup"
		]
	},
	{
		"date": "2016-02-23T11:38:26.000Z",
		"name": "Sushi & More",
		"id": "53637542498e423ead872eeb",
		"lat": 49.63110252801338,
		"lng": 6.171859204267524,
		"address": "18-20 rue Edward Steichen",
		"city": "Lëtzebuerg",
		"country": "Lëtzebuerg",
		"categories": [
			"Sushi Restaurant"
		]
	},
	{
		"date": "2016-02-23T18:19:52.000Z",
		"name": "Das Bad an den Kaiserthermen",
		"id": "4b86b749f964a520439831e3",
		"lat": 49.74931475605719,
		"lng": 6.6401394717384985,
		"address": "Südallee 10-12",
		"postalCode": "54290",
		"city": "Trier",
		"country": "Deutschland",
		"categories": [
			"Pool",
			"Spa",
			"Gym Pool"
		]
	},
	{
		"date": "2016-02-23T21:47:40.000Z",
		"name": "Cotton Candy Residence 5",
		"id": "5614386e498e5c4e8f4927d8",
		"lat": 49.75192729865979,
		"lng": 6.6370894371892835,
		"city": "Trier",
		"country": "Deutschland",
		"categories": [
			"Home (private)"
		]
	},
	{
		"date": "2016-02-24T08:03:35.000Z",
		"name": "Auchan",
		"id": "4b43c3bbf964a52006e925e3",
		"lat": 49.63357679951604,
		"lng": 6.169896125793457,
		"address": "5 rue Alphonse Weicker",
		"postalCode": "2721",
		"city": "Lëtzebuerg",
		"country": "Lëtzebuerg",
		"categories": [
			"Shopping Mall",
			"Supermarket"
		]
	},
	{
		"date": "2016-02-24T08:37:51.000Z",
		"name": "Docler Holding",
		"id": "52cbb89a11d243c791c37510",
		"lat": 49.6317381171169,
		"lng": 6.17131892913784,
		"address": "44, Avenue John F. Kennedy",
		"postalCode": "1855",
		"city": "Lëtzebuerg",
		"country": "Lëtzebuerg",
		"categories": [
			"Tech Startup"
		]
	},
	{
		"date": "2016-02-24T19:13:45.000Z",
		"name": "Cotton Candy Residence 5",
		"id": "5614386e498e5c4e8f4927d8",
		"lat": 49.75192729865979,
		"lng": 6.6370894371892835,
		"city": "Trier",
		"country": "Deutschland",
		"categories": [
			"Home (private)"
		]
	},
	{
		"date": "2016-02-25T07:36:32.000Z",
		"name": "Auchan",
		"id": "4b43c3bbf964a52006e925e3",
		"lat": 49.63357679951604,
		"lng": 6.169896125793457,
		"address": "5 rue Alphonse Weicker",
		"postalCode": "2721",
		"city": "Lëtzebuerg",
		"country": "Lëtzebuerg",
		"categories": [
			"Shopping Mall",
			"Supermarket"
		]
	},
	{
		"date": "2016-02-25T08:18:20.000Z",
		"name": "Docler Holding",
		"id": "52cbb89a11d243c791c37510",
		"lat": 49.6317381171169,
		"lng": 6.17131892913784,
		"address": "44, Avenue John F. Kennedy",
		"postalCode": "1855",
		"city": "Lëtzebuerg",
		"country": "Lëtzebuerg",
		"categories": [
			"Tech Startup"
		]
	},
	{
		"date": "2016-02-25T17:17:10.000Z",
		"name": "Bricherhaff",
		"id": "51839b23498e3270c1501e51",
		"lat": 49.625546441321816,
		"lng": 6.162806740162044,
		"country": "Lëtzebuerg",
		"categories": [
			"Bus Station"
		]
	},
	{
		"date": "2016-02-25T18:33:47.000Z",
		"name": "Packstation 102",
		"id": "4c1a64cfb4e62d7f65bcd793",
		"lat": 49.748077366671886,
		"lng": 6.636359438685172,
		"address": "Gerberstr.",
		"postalCode": "54290",
		"city": "Trier",
		"country": "Deutschland",
		"categories": [
			"Shipping Store"
		]
	},
	{
		"date": "2016-02-25T20:08:11.000Z",
		"name": "Cotton Candy Residence 5",
		"id": "5614386e498e5c4e8f4927d8",
		"lat": 49.75192729865979,
		"lng": 6.6370894371892835,
		"city": "Trier",
		"country": "Deutschland",
		"categories": [
			"Home (private)"
		]
	},
	{
		"date": "2016-02-26T07:47:06.000Z",
		"name": "Auchan",
		"id": "4b43c3bbf964a52006e925e3",
		"lat": 49.63357679951604,
		"lng": 6.169896125793457,
		"address": "5 rue Alphonse Weicker",
		"postalCode": "2721",
		"city": "Lëtzebuerg",
		"country": "Lëtzebuerg",
		"categories": [
			"Shopping Mall",
			"Supermarket"
		]
	},
	{
		"date": "2016-02-26T08:02:16.000Z",
		"name": "Docler Holding",
		"id": "52cbb89a11d243c791c37510",
		"lat": 49.6317381171169,
		"lng": 6.17131892913784,
		"address": "44, Avenue John F. Kennedy",
		"postalCode": "1855",
		"city": "Lëtzebuerg",
		"country": "Lëtzebuerg",
		"categories": [
			"Tech Startup"
		]
	},
	{
		"date": "2016-02-26T11:35:39.000Z",
		"name": "McDonald's",
		"id": "4ee3c150490138df8c9047ba",
		"lat": 49.63355644536983,
		"lng": 6.173131320520858,
		"address": "45 Ave. J-f Kennedy",
		"postalCode": "1855",
		"city": "Lëtzebuerg",
		"country": "Lëtzebuerg",
		"categories": [
			"Fast Food Restaurant"
		]
	},
	{
		"date": "2016-02-26T15:21:49.000Z",
		"name": "Bricherhaff",
		"id": "51839b23498e3270c1501e51",
		"lat": 49.625546441321816,
		"lng": 6.162806740162044,
		"country": "Lëtzebuerg",
		"categories": [
			"Bus Station"
		]
	},
	{
		"date": "2016-02-26T16:39:20.000Z",
		"name": "Ringfoto Kramp",
		"id": "56d07fb5498ee9910d828a6f",
		"lat": 49.7592447,
		"lng": 6.6429421,
		"address": "Margaretengässchen 2",
		"postalCode": "54290",
		"city": "Trier",
		"country": "Deutschland",
		"categories": []
	},
	{
		"date": "2016-02-26T16:59:55.000Z",
		"name": "Trier Galerie",
		"id": "4bc2e26c74a9a5933ad0d3f6",
		"lat": 49.75574434830903,
		"lng": 6.638750525074942,
		"address": "Fleischstr. 62",
		"postalCode": "54290",
		"city": "Trier",
		"country": "Deutschland",
		"categories": [
			"Shopping Mall"
		]
	},
	{
		"date": "2016-02-26T17:00:05.000Z",
		"name": "REWE City",
		"id": "57a3a39c498e406b9d2fd43a",
		"lat": 49.755999119833014,
		"lng": 6.637973785400391,
		"address": "Fleischstr. 62-65",
		"postalCode": "54290",
		"city": "Trier",
		"country": "Deutschland",
		"categories": [
			"Supermarket"
		]
	},
	{
		"date": "2016-02-26T17:04:55.000Z",
		"name": "Chopsticks",
		"id": "4de5118f8877bcb686821778",
		"lat": 49.75402300862892,
		"lng": 6.636423927941795,
		"city": "Trier",
		"country": "Deutschland",
		"categories": [
			"Chinese Restaurant"
		]
	},
	{
		"date": "2016-02-26T17:46:46.000Z",
		"name": "Cotton Candy Residence 5",
		"id": "5614386e498e5c4e8f4927d8",
		"lat": 49.75192729865979,
		"lng": 6.6370894371892835,
		"city": "Trier",
		"country": "Deutschland",
		"categories": [
			"Home (private)"
		]
	},
	{
		"date": "2016-02-27T09:42:02.000Z",
		"name": "Frisör X-Press",
		"id": "4be440757e2a76b05aab1c9b",
		"lat": 49.75467830862341,
		"lng": 6.637507929870502,
		"address": "Fleischstr. 29",
		"postalCode": "54290",
		"city": "Trier",
		"country": "Deutschland",
		"categories": [
			"Salon / Barbershop"
		]
	},
	{
		"date": "2016-02-27T09:55:19.000Z",
		"name": "Deutsche Post",
		"id": "4b9b9ea5f964a520271436e3",
		"lat": 49.75823560944808,
		"lng": 6.651807287220711,
		"address": "Moltkestraße 21",
		"postalCode": "54290",
		"city": "Trier",
		"country": "Deutschland",
		"categories": [
			"Post Office"
		]
	},
	{
		"date": "2016-02-27T10:35:21.000Z",
		"name": "Lacoste",
		"id": "4dc2a6c5d1643ed27a53a7f6",
		"lat": 49.754918,
		"lng": 6.638043,
		"address": "Fleischstraße 22",
		"postalCode": "54290",
		"city": "Trier",
		"country": "Deutschland",
		"categories": [
			"Clothing Store"
		]
	},
	{
		"date": "2016-02-27T10:43:34.000Z",
		"name": "Cotton Candy Residence 5",
		"id": "5614386e498e5c4e8f4927d8",
		"lat": 49.75192729865979,
		"lng": 6.6370894371892835,
		"city": "Trier",
		"country": "Deutschland",
		"categories": [
			"Home (private)"
		]
	},
	{
		"date": "2016-02-28T12:44:37.000Z",
		"name": "SUBWAY",
		"id": "4bd5f2f74e32d13a62c9c180",
		"lat": 49.75656672303617,
		"lng": 6.640678733429695,
		"address": "Hauptmarkt 13",
		"postalCode": "54290",
		"city": "Trier",
		"country": "Deutschland",
		"categories": [
			"Sandwich Place"
		]
	},
	{
		"date": "2016-02-28T13:18:30.000Z",
		"name": "Café-Konditorei Raab",
		"id": "4d691e4fb1f060fcc087cfe2",
		"lat": 49.75304671238585,
		"lng": 6.633932266007464,
		"address": "Karl-Marx-Straße 14",
		"postalCode": "54290",
		"city": "Trier",
		"country": "Deutschland",
		"categories": [
			"Dessert Shop",
			"Café",
			"Chocolate Shop"
		]
	},
	{
		"date": "2016-02-28T13:23:08.000Z",
		"name": "Cotton Candy Residence 5",
		"id": "5614386e498e5c4e8f4927d8",
		"lat": 49.75192729865979,
		"lng": 6.6370894371892835,
		"city": "Trier",
		"country": "Deutschland",
		"categories": [
			"Home (private)"
		]
	},
	{
		"date": "2016-02-29T08:16:41.000Z",
		"name": "Auchan",
		"id": "4b43c3bbf964a52006e925e3",
		"lat": 49.63357679951604,
		"lng": 6.169896125793457,
		"address": "5 rue Alphonse Weicker",
		"postalCode": "2721",
		"city": "Lëtzebuerg",
		"country": "Lëtzebuerg",
		"categories": [
			"Shopping Mall",
			"Supermarket"
		]
	},
	{
		"date": "2016-02-29T08:21:04.000Z",
		"name": "Docler Holding",
		"id": "52cbb89a11d243c791c37510",
		"lat": 49.6317381171169,
		"lng": 6.17131892913784,
		"address": "44, Avenue John F. Kennedy",
		"postalCode": "1855",
		"city": "Lëtzebuerg",
		"country": "Lëtzebuerg",
		"categories": [
			"Tech Startup"
		]
	},
	{
		"date": "2016-02-29T19:02:44.000Z",
		"name": "Cotton Candy Residence 5",
		"id": "5614386e498e5c4e8f4927d8",
		"lat": 49.75192729865979,
		"lng": 6.6370894371892835,
		"city": "Trier",
		"country": "Deutschland",
		"categories": [
			"Home (private)"
		]
	}
]