[
	{
		"date": "2016-06-01T11:21:22.000Z",
		"name": "Cotton Candy Residence 5",
		"id": "5614386e498e5c4e8f4927d8",
		"lat": 49.75192729865979,
		"lng": 6.6370894371892835,
		"city": "Trier",
		"country": "Deutschland",
		"categories": [
			"Home (private)"
		]
	},
	{
		"date": "2016-06-01T17:50:41.000Z",
		"name": "Botmann",
		"id": "4ef22b1602d5677fe3e1c71c",
		"lat": 49.75475748719982,
		"lng": 6.638539118319999,
		"address": "Am Kornmarkt 4",
		"postalCode": "54290",
		"city": "Trier",
		"country": "Deutschland",
		"categories": [
			"Dentist's Office"
		]
	},
	{
		"date": "2016-06-02T06:14:12.000Z",
		"name": "Dr. Med. Christian Abel",
		"id": "57066c57498e3de1a03abbc3",
		"lat": 49.759147,
		"lng": 6.643812,
		"address": "Simeonstr. 8",
		"city": "Trier",
		"country": "Deutschland",
		"categories": [
			"Eye Doctor"
		]
	},
	{
		"date": "2016-06-02T19:08:09.000Z",
		"name": "Cotton Candy Residence 5",
		"id": "5614386e498e5c4e8f4927d8",
		"lat": 49.75192729865979,
		"lng": 6.6370894371892835,
		"city": "Trier",
		"country": "Deutschland",
		"categories": [
			"Home (private)"
		]
	},
	{
		"date": "2016-06-03T06:57:25.000Z",
		"name": "Docler Holding",
		"id": "52cbb89a11d243c791c37510",
		"lat": 49.6317381171169,
		"lng": 6.17131892913784,
		"address": "44, Avenue John F. Kennedy",
		"postalCode": "1855",
		"city": "Lëtzebuerg",
		"country": "Lëtzebuerg",
		"categories": [
			"Tech Startup"
		]
	},
	{
		"date": "2016-06-03T09:19:37.000Z",
		"name": "McDonald's",
		"id": "4ee3c150490138df8c9047ba",
		"lat": 49.63355644536983,
		"lng": 6.173131320520858,
		"address": "45 Ave. J-f Kennedy",
		"postalCode": "1855",
		"city": "Lëtzebuerg",
		"country": "Lëtzebuerg",
		"categories": [
			"Fast Food Restaurant"
		]
	},
	{
		"date": "2016-06-03T10:42:56.000Z",
		"name": "Auchan",
		"id": "4b43c3bbf964a52006e925e3",
		"lat": 49.63357679951604,
		"lng": 6.169896125793457,
		"address": "5 rue Alphonse Weicker",
		"postalCode": "2721",
		"city": "Lëtzebuerg",
		"country": "Lëtzebuerg",
		"categories": [
			"Shopping Mall",
			"Supermarket"
		]
	},
	{
		"date": "2016-06-03T11:06:45.000Z",
		"name": "Bricherhaff",
		"id": "51839b23498e3270c1501e51",
		"lat": 49.625546441321816,
		"lng": 6.162806740162044,
		"country": "Lëtzebuerg",
		"categories": [
			"Bus Station"
		]
	},
	{
		"date": "2016-06-03T12:30:26.000Z",
		"name": "Cotton Candy Residence 5",
		"id": "5614386e498e5c4e8f4927d8",
		"lat": 49.75192729865979,
		"lng": 6.6370894371892835,
		"city": "Trier",
		"country": "Deutschland",
		"categories": [
			"Home (private)"
		]
	},
	{
		"date": "2016-06-04T11:15:41.000Z",
		"name": "REWE City",
		"id": "57a3a39c498e406b9d2fd43a",
		"lat": 49.755999119833014,
		"lng": 6.637973785400391,
		"address": "Fleischstr. 62-65",
		"postalCode": "54290",
		"city": "Trier",
		"country": "Deutschland",
		"categories": [
			"Supermarket"
		]
	},
	{
		"date": "2016-06-04T20:32:24.000Z",
		"name": "Cotton Candy Residence 5",
		"id": "5614386e498e5c4e8f4927d8",
		"lat": 49.75192729865979,
		"lng": 6.6370894371892835,
		"city": "Trier",
		"country": "Deutschland",
		"categories": [
			"Home (private)"
		]
	},
	{
		"date": "2016-06-06T06:09:41.000Z",
		"name": "Dr. Med. Christian Abel",
		"id": "57066c57498e3de1a03abbc3",
		"lat": 49.759147,
		"lng": 6.643812,
		"address": "Simeonstr. 8",
		"city": "Trier",
		"country": "Deutschland",
		"categories": [
			"Eye Doctor"
		]
	},
	{
		"date": "2016-06-06T13:19:37.000Z",
		"name": "Tokyo Sushi",
		"id": "4d3cac0bfb4c54810998d614",
		"lat": 49.75874720587124,
		"lng": 6.640462134289527,
		"address": "Moselstraße 6",
		"city": "Trier",
		"country": "Deutschland",
		"categories": [
			"Sushi Restaurant",
			"Bar"
		]
	},
	{
		"date": "2016-06-06T14:05:48.000Z",
		"name": "Kyoto",
		"id": "57558333498e0e0a92fc506a",
		"lat": 49.758534,
		"lng": 6.64093,
		"postalCode": "54290",
		"city": "Trier",
		"country": "Deutschland",
		"categories": [
			"Gourmet Shop"
		]
	},
	{
		"date": "2016-06-06T14:31:26.000Z",
		"name": "dm-drogerie markt",
		"id": "4c696f63c946e21e3323ea8e",
		"lat": 49.75375487666679,
		"lng": 6.6394660575399485,
		"address": "Brotstr. 30/31",
		"postalCode": "54290",
		"city": "Trier",
		"country": "Deutschland",
		"categories": [
			"Drugstore"
		]
	},
	{
		"date": "2016-06-06T15:37:52.000Z",
		"name": "Cotton Candy Residence 5",
		"id": "5614386e498e5c4e8f4927d8",
		"lat": 49.75192729865979,
		"lng": 6.6370894371892835,
		"city": "Trier",
		"country": "Deutschland",
		"categories": [
			"Home (private)"
		]
	},
	{
		"date": "2016-06-07T07:02:37.000Z",
		"name": "Docler Holding",
		"id": "52cbb89a11d243c791c37510",
		"lat": 49.6317381171169,
		"lng": 6.17131892913784,
		"address": "44, Avenue John F. Kennedy",
		"postalCode": "1855",
		"city": "Lëtzebuerg",
		"country": "Lëtzebuerg",
		"categories": [
			"Tech Startup"
		]
	},
	{
		"date": "2016-06-07T10:32:17.000Z",
		"name": "Bagelstein",
		"id": "54f0609b498ea7bb9626e820",
		"lat": 49.6332078,
		"lng": 6.16949633,
		"address": "Rue Alphonse Weicker 5",
		"postalCode": "2721",
		"city": "Lëtzebuerg",
		"country": "Lëtzebuerg",
		"categories": [
			"Bagel Shop",
			"Modern European Restaurant"
		]
	},
	{
		"date": "2016-06-07T17:20:55.000Z",
		"name": "Cotton Candy Residence 5",
		"id": "5614386e498e5c4e8f4927d8",
		"lat": 49.75192729865979,
		"lng": 6.6370894371892835,
		"city": "Trier",
		"country": "Deutschland",
		"categories": [
			"Home (private)"
		]
	},
	{
		"date": "2016-06-08T07:21:19.000Z",
		"name": "Docler Holding",
		"id": "52cbb89a11d243c791c37510",
		"lat": 49.6317381171169,
		"lng": 6.17131892913784,
		"address": "44, Avenue John F. Kennedy",
		"postalCode": "1855",
		"city": "Lëtzebuerg",
		"country": "Lëtzebuerg",
		"categories": [
			"Tech Startup"
		]
	},
	{
		"date": "2016-06-08T09:16:47.000Z",
		"name": "Dean & David",
		"id": "53288e8711d2ad54eef962f3",
		"lat": 49.63359181756525,
		"lng": 6.173222788183037,
		"address": "45, avenue J.-F. Kennedy",
		"postalCode": "1855",
		"city": "Lëtzebuerg",
		"country": "Lëtzebuerg",
		"categories": [
			"Salad Place"
		]
	},
	{
		"date": "2016-06-09T06:28:53.000Z",
		"name": "Auchan",
		"id": "4b43c3bbf964a52006e925e3",
		"lat": 49.63357679951604,
		"lng": 6.169896125793457,
		"address": "5 rue Alphonse Weicker",
		"postalCode": "2721",
		"city": "Lëtzebuerg",
		"country": "Lëtzebuerg",
		"categories": [
			"Shopping Mall",
			"Supermarket"
		]
	},
	{
		"date": "2016-06-09T06:48:49.000Z",
		"name": "Docler Holding",
		"id": "52cbb89a11d243c791c37510",
		"lat": 49.6317381171169,
		"lng": 6.17131892913784,
		"address": "44, Avenue John F. Kennedy",
		"postalCode": "1855",
		"city": "Lëtzebuerg",
		"country": "Lëtzebuerg",
		"categories": [
			"Tech Startup"
		]
	},
	{
		"date": "2016-06-09T09:51:11.000Z",
		"name": "Apulia Antichi Sapori",
		"id": "52d6e66e498e3733dfa1058c",
		"lat": 49.633822883864724,
		"lng": 6.16949483192922,
		"address": "Centre Commercial Auchan (1st floor)",
		"city": "Lëtzebuerg",
		"country": "Lëtzebuerg",
		"categories": [
			"Italian Restaurant"
		]
	},
	{
		"date": "2016-06-09T16:54:37.000Z",
		"name": "Cotton Candy Residence 5",
		"id": "5614386e498e5c4e8f4927d8",
		"lat": 49.75192729865979,
		"lng": 6.6370894371892835,
		"city": "Trier",
		"country": "Deutschland",
		"categories": [
			"Home (private)"
		]
	},
	{
		"date": "2016-06-10T06:40:17.000Z",
		"name": "Auchan",
		"id": "4b43c3bbf964a52006e925e3",
		"lat": 49.63357679951604,
		"lng": 6.169896125793457,
		"address": "5 rue Alphonse Weicker",
		"postalCode": "2721",
		"city": "Lëtzebuerg",
		"country": "Lëtzebuerg",
		"categories": [
			"Shopping Mall",
			"Supermarket"
		]
	},
	{
		"date": "2016-06-10T09:54:38.000Z",
		"name": "Dean & David",
		"id": "53288e8711d2ad54eef962f3",
		"lat": 49.63359181756525,
		"lng": 6.173222788183037,
		"address": "45, avenue J.-F. Kennedy",
		"postalCode": "1855",
		"city": "Lëtzebuerg",
		"country": "Lëtzebuerg",
		"categories": [
			"Salad Place"
		]
	},
	{
		"date": "2016-06-10T15:02:52.000Z",
		"name": "Cotton Candy Residence 5",
		"id": "5614386e498e5c4e8f4927d8",
		"lat": 49.75192729865979,
		"lng": 6.6370894371892835,
		"city": "Trier",
		"country": "Deutschland",
		"categories": [
			"Home (private)"
		]
	},
	{
		"date": "2016-06-11T14:54:40.000Z",
		"name": "Trier Galerie",
		"id": "4bc2e26c74a9a5933ad0d3f6",
		"lat": 49.75574434830903,
		"lng": 6.638750525074942,
		"address": "Fleischstr. 62",
		"postalCode": "54290",
		"city": "Trier",
		"country": "Deutschland",
		"categories": [
			"Shopping Mall"
		]
	},
	{
		"date": "2016-06-11T14:55:44.000Z",
		"name": "REWE City",
		"id": "57a3a39c498e406b9d2fd43a",
		"lat": 49.755999119833014,
		"lng": 6.637973785400391,
		"address": "Fleischstr. 62-65",
		"postalCode": "54290",
		"city": "Trier",
		"country": "Deutschland",
		"categories": [
			"Supermarket"
		]
	},
	{
		"date": "2016-06-11T15:52:33.000Z",
		"name": "Cotton Candy Residence 5",
		"id": "5614386e498e5c4e8f4927d8",
		"lat": 49.75192729865979,
		"lng": 6.6370894371892835,
		"city": "Trier",
		"country": "Deutschland",
		"categories": [
			"Home (private)"
		]
	},
	{
		"date": "2016-06-12T17:06:22.000Z",
		"name": "Cotton Candy Residence 5",
		"id": "5614386e498e5c4e8f4927d8",
		"lat": 49.75192729865979,
		"lng": 6.6370894371892835,
		"city": "Trier",
		"country": "Deutschland",
		"categories": [
			"Home (private)"
		]
	},
	{
		"date": "2016-06-13T06:53:13.000Z",
		"name": "Auchan",
		"id": "4b43c3bbf964a52006e925e3",
		"lat": 49.63357679951604,
		"lng": 6.169896125793457,
		"address": "5 rue Alphonse Weicker",
		"postalCode": "2721",
		"city": "Lëtzebuerg",
		"country": "Lëtzebuerg",
		"categories": [
			"Shopping Mall",
			"Supermarket"
		]
	},
	{
		"date": "2016-06-13T07:02:56.000Z",
		"name": "Docler Holding",
		"id": "52cbb89a11d243c791c37510",
		"lat": 49.6317381171169,
		"lng": 6.17131892913784,
		"address": "44, Avenue John F. Kennedy",
		"postalCode": "1855",
		"city": "Lëtzebuerg",
		"country": "Lëtzebuerg",
		"categories": [
			"Tech Startup"
		]
	},
	{
		"date": "2016-06-13T09:30:05.000Z",
		"name": "McDonald's",
		"id": "4ee3c150490138df8c9047ba",
		"lat": 49.63355644536983,
		"lng": 6.173131320520858,
		"address": "45 Ave. J-f Kennedy",
		"postalCode": "1855",
		"city": "Lëtzebuerg",
		"country": "Lëtzebuerg",
		"categories": [
			"Fast Food Restaurant"
		]
	},
	{
		"date": "2016-06-13T17:21:19.000Z",
		"name": "Packstation 102",
		"id": "4c1a64cfb4e62d7f65bcd793",
		"lat": 49.748077366671886,
		"lng": 6.636359438685172,
		"address": "Gerberstr.",
		"postalCode": "54290",
		"city": "Trier",
		"country": "Deutschland",
		"categories": [
			"Shipping Store"
		]
	},
	{
		"date": "2016-06-13T17:34:01.000Z",
		"name": "Cotton Candy Residence 5",
		"id": "5614386e498e5c4e8f4927d8",
		"lat": 49.75192729865979,
		"lng": 6.6370894371892835,
		"city": "Trier",
		"country": "Deutschland",
		"categories": [
			"Home (private)"
		]
	},
	{
		"date": "2016-06-14T06:24:45.000Z",
		"name": "Auchan",
		"id": "4b43c3bbf964a52006e925e3",
		"lat": 49.63357679951604,
		"lng": 6.169896125793457,
		"address": "5 rue Alphonse Weicker",
		"postalCode": "2721",
		"city": "Lëtzebuerg",
		"country": "Lëtzebuerg",
		"categories": [
			"Shopping Mall",
			"Supermarket"
		]
	},
	{
		"date": "2016-06-14T08:45:43.000Z",
		"name": "Docler Holding",
		"id": "52cbb89a11d243c791c37510",
		"lat": 49.6317381171169,
		"lng": 6.17131892913784,
		"address": "44, Avenue John F. Kennedy",
		"postalCode": "1855",
		"city": "Lëtzebuerg",
		"country": "Lëtzebuerg",
		"categories": [
			"Tech Startup"
		]
	},
	{
		"date": "2016-06-14T09:36:17.000Z",
		"name": "Dean & David",
		"id": "53288e8711d2ad54eef962f3",
		"lat": 49.63359181756525,
		"lng": 6.173222788183037,
		"address": "45, avenue J.-F. Kennedy",
		"postalCode": "1855",
		"city": "Lëtzebuerg",
		"country": "Lëtzebuerg",
		"categories": [
			"Salad Place"
		]
	},
	{
		"date": "2016-06-14T19:14:23.000Z",
		"name": "Cotton Candy Residence 5",
		"id": "5614386e498e5c4e8f4927d8",
		"lat": 49.75192729865979,
		"lng": 6.6370894371892835,
		"city": "Trier",
		"country": "Deutschland",
		"categories": [
			"Home (private)"
		]
	},
	{
		"date": "2016-06-15T07:02:28.000Z",
		"name": "Auchan",
		"id": "4b43c3bbf964a52006e925e3",
		"lat": 49.63357679951604,
		"lng": 6.169896125793457,
		"address": "5 rue Alphonse Weicker",
		"postalCode": "2721",
		"city": "Lëtzebuerg",
		"country": "Lëtzebuerg",
		"categories": [
			"Shopping Mall",
			"Supermarket"
		]
	},
	{
		"date": "2016-06-15T17:52:35.000Z",
		"name": "Cotton Candy Residence 5",
		"id": "5614386e498e5c4e8f4927d8",
		"lat": 49.75192729865979,
		"lng": 6.6370894371892835,
		"city": "Trier",
		"country": "Deutschland",
		"categories": [
			"Home (private)"
		]
	},
	{
		"date": "2016-06-16T06:03:31.000Z",
		"name": "Auchan",
		"id": "4b43c3bbf964a52006e925e3",
		"lat": 49.63357679951604,
		"lng": 6.169896125793457,
		"address": "5 rue Alphonse Weicker",
		"postalCode": "2721",
		"city": "Lëtzebuerg",
		"country": "Lëtzebuerg",
		"categories": [
			"Shopping Mall",
			"Supermarket"
		]
	},
	{
		"date": "2016-06-16T06:21:29.000Z",
		"name": "Docler Holding",
		"id": "52cbb89a11d243c791c37510",
		"lat": 49.6317381171169,
		"lng": 6.17131892913784,
		"address": "44, Avenue John F. Kennedy",
		"postalCode": "1855",
		"city": "Lëtzebuerg",
		"country": "Lëtzebuerg",
		"categories": [
			"Tech Startup"
		]
	},
	{
		"date": "2016-06-16T11:26:50.000Z",
		"name": "McDonald's",
		"id": "4ee3c150490138df8c9047ba",
		"lat": 49.63355644536983,
		"lng": 6.173131320520858,
		"address": "45 Ave. J-f Kennedy",
		"postalCode": "1855",
		"city": "Lëtzebuerg",
		"country": "Lëtzebuerg",
		"categories": [
			"Fast Food Restaurant"
		]
	},
	{
		"date": "2016-06-16T15:33:04.000Z",
		"name": "POST Telecom",
		"id": "568280ad498edeed8064ce82",
		"lat": 49.627315706609366,
		"lng": 6.162816870147716,
		"address": "33a, Avenue J-F Kennedy",
		"postalCode": "1242",
		"city": "Kirchberg",
		"country": "Lëtzebuerg",
		"categories": [
			"Post Office"
		]
	},
	{
		"date": "2016-06-16T16:58:03.000Z",
		"name": "Cotton Candy Residence 5",
		"id": "5614386e498e5c4e8f4927d8",
		"lat": 49.75192729865979,
		"lng": 6.6370894371892835,
		"city": "Trier",
		"country": "Deutschland",
		"categories": [
			"Home (private)"
		]
	},
	{
		"date": "2016-06-17T06:32:23.000Z",
		"name": "Docler Holding",
		"id": "52cbb89a11d243c791c37510",
		"lat": 49.6317381171169,
		"lng": 6.17131892913784,
		"address": "44, Avenue John F. Kennedy",
		"postalCode": "1855",
		"city": "Lëtzebuerg",
		"country": "Lëtzebuerg",
		"categories": [
			"Tech Startup"
		]
	},
	{
		"date": "2016-06-17T09:57:37.000Z",
		"name": "Auchan",
		"id": "4b43c3bbf964a52006e925e3",
		"lat": 49.63357679951604,
		"lng": 6.169896125793457,
		"address": "5 rue Alphonse Weicker",
		"postalCode": "2721",
		"city": "Lëtzebuerg",
		"country": "Lëtzebuerg",
		"categories": [
			"Shopping Mall",
			"Supermarket"
		]
	},
	{
		"date": "2016-06-17T09:59:12.000Z",
		"name": "Bagelstein",
		"id": "54f0609b498ea7bb9626e820",
		"lat": 49.6332078,
		"lng": 6.16949633,
		"address": "Rue Alphonse Weicker 5",
		"postalCode": "2721",
		"city": "Lëtzebuerg",
		"country": "Lëtzebuerg",
		"categories": [
			"Bagel Shop",
			"Modern European Restaurant"
		]
	},
	{
		"date": "2016-06-17T21:27:27.000Z",
		"name": "Cotton Candy Residence 5",
		"id": "5614386e498e5c4e8f4927d8",
		"lat": 49.75192729865979,
		"lng": 6.6370894371892835,
		"city": "Trier",
		"country": "Deutschland",
		"categories": [
			"Home (private)"
		]
	},
	{
		"date": "2016-06-18T08:40:47.000Z",
		"name": "Frisör X-Press",
		"id": "4be440757e2a76b05aab1c9b",
		"lat": 49.75467830862341,
		"lng": 6.637507929870502,
		"address": "Fleischstr. 29",
		"postalCode": "54290",
		"city": "Trier",
		"country": "Deutschland",
		"categories": [
			"Salon / Barbershop"
		]
	},
	{
		"date": "2016-06-18T08:43:10.000Z",
		"name": "Trier Galerie",
		"id": "4bc2e26c74a9a5933ad0d3f6",
		"lat": 49.75574434830903,
		"lng": 6.638750525074942,
		"address": "Fleischstr. 62",
		"postalCode": "54290",
		"city": "Trier",
		"country": "Deutschland",
		"categories": [
			"Shopping Mall"
		]
	},
	{
		"date": "2016-06-18T08:45:17.000Z",
		"name": "McPaper",
		"id": "57650a15498ea0ca0e3fc4ff",
		"lat": 49.755784,
		"lng": 6.63849,
		"country": "Deutschland",
		"categories": [
			"Paper / Office Supplies Store"
		]
	},
	{
		"date": "2016-06-18T10:52:02.000Z",
		"name": "EDEKA Trier-West",
		"id": "4b9b8e5df964a520360f36e3",
		"lat": 49.75003456429876,
		"lng": 6.62256395794963,
		"address": "Über Brücken 4",
		"postalCode": "54294",
		"city": "Trier",
		"country": "Deutschland",
		"categories": [
			"Supermarket"
		]
	},
	{
		"date": "2016-06-18T14:57:19.000Z",
		"name": "Lacoste",
		"id": "4dc2a6c5d1643ed27a53a7f6",
		"lat": 49.754918,
		"lng": 6.638043,
		"address": "Fleischstraße 22",
		"postalCode": "54290",
		"city": "Trier",
		"country": "Deutschland",
		"categories": [
			"Clothing Store"
		]
	},
	{
		"date": "2016-06-18T15:11:35.000Z",
		"name": "Galeria Karstadt Kaufhof",
		"id": "4bced3cc29d4b713b916a9dc",
		"lat": 49.758402321262075,
		"lng": 6.642170291856277,
		"address": "Simeonstr. 53",
		"postalCode": "54290",
		"city": "Trier",
		"country": "Deutschland",
		"categories": [
			"Department Store"
		]
	},
	{
		"date": "2016-06-18T15:11:43.000Z",
		"name": "Saturn",
		"id": "4bc07375f8219c74138eb110",
		"lat": 49.75841808348975,
		"lng": 6.642463803291321,
		"address": "Simeonstrasse 53",
		"postalCode": "54290",
		"city": "Trier",
		"country": "Deutschland",
		"categories": [
			"Electronics Store",
			"Miscellaneous Shop"
		]
	},
	{
		"date": "2016-06-20T06:17:58.000Z",
		"name": "Auchan",
		"id": "4b43c3bbf964a52006e925e3",
		"lat": 49.63357679951604,
		"lng": 6.169896125793457,
		"address": "5 rue Alphonse Weicker",
		"postalCode": "2721",
		"city": "Lëtzebuerg",
		"country": "Lëtzebuerg",
		"categories": [
			"Shopping Mall",
			"Supermarket"
		]
	},
	{
		"date": "2016-06-20T07:57:47.000Z",
		"name": "Docler Holding",
		"id": "52cbb89a11d243c791c37510",
		"lat": 49.6317381171169,
		"lng": 6.17131892913784,
		"address": "44, Avenue John F. Kennedy",
		"postalCode": "1855",
		"city": "Lëtzebuerg",
		"country": "Lëtzebuerg",
		"categories": [
			"Tech Startup"
		]
	},
	{
		"date": "2016-06-20T10:01:22.000Z",
		"name": "Bagelstein",
		"id": "54f0609b498ea7bb9626e820",
		"lat": 49.6332078,
		"lng": 6.16949633,
		"address": "Rue Alphonse Weicker 5",
		"postalCode": "2721",
		"city": "Lëtzebuerg",
		"country": "Lëtzebuerg",
		"categories": [
			"Bagel Shop",
			"Modern European Restaurant"
		]
	},
	{
		"date": "2016-06-20T17:00:06.000Z",
		"name": "Igel",
		"id": "5131f0a5e4b02029e2c60511",
		"lat": 49.70964673767868,
		"lng": 6.549557978985899,
		"city": "Igel",
		"country": "Deutschland",
		"categories": [
			"Village"
		]
	},
	{
		"date": "2016-06-20T17:47:12.000Z",
		"name": "Cotton Candy Residence 5",
		"id": "5614386e498e5c4e8f4927d8",
		"lat": 49.75192729865979,
		"lng": 6.6370894371892835,
		"city": "Trier",
		"country": "Deutschland",
		"categories": [
			"Home (private)"
		]
	},
	{
		"date": "2016-06-21T06:29:59.000Z",
		"name": "Auchan",
		"id": "4b43c3bbf964a52006e925e3",
		"lat": 49.63357679951604,
		"lng": 6.169896125793457,
		"address": "5 rue Alphonse Weicker",
		"postalCode": "2721",
		"city": "Lëtzebuerg",
		"country": "Lëtzebuerg",
		"categories": [
			"Shopping Mall",
			"Supermarket"
		]
	},
	{
		"date": "2016-06-21T06:35:36.000Z",
		"name": "Docler Holding",
		"id": "52cbb89a11d243c791c37510",
		"lat": 49.6317381171169,
		"lng": 6.17131892913784,
		"address": "44, Avenue John F. Kennedy",
		"postalCode": "1855",
		"city": "Lëtzebuerg",
		"country": "Lëtzebuerg",
		"categories": [
			"Tech Startup"
		]
	},
	{
		"date": "2016-06-21T09:51:38.000Z",
		"name": "OrientX",
		"id": "4b94eed9f964a5204e8834e3",
		"lat": 49.633586781634136,
		"lng": 6.169116659059767,
		"address": "5, rue Alphonse Weicker",
		"postalCode": "2721",
		"city": "Lëtzebuerg",
		"country": "Lëtzebuerg",
		"categories": [
			"Middle Eastern Restaurant",
			"Falafel Restaurant",
			"Turkish Restaurant"
		]
	},
	{
		"date": "2016-06-21T16:39:37.000Z",
		"name": "Cotton Candy Residence 5",
		"id": "5614386e498e5c4e8f4927d8",
		"lat": 49.75192729865979,
		"lng": 6.6370894371892835,
		"city": "Trier",
		"country": "Deutschland",
		"categories": [
			"Home (private)"
		]
	},
	{
		"date": "2016-06-22T09:52:15.000Z",
		"name": "Vapiano",
		"id": "4c51b35b3940be9a6a8e4e09",
		"lat": 49.63180649278271,
		"lng": 6.17125118616227,
		"address": "Avenue John F. Kennedy 44",
		"postalCode": "1855",
		"city": "Kirchberg",
		"country": "Lëtzebuerg",
		"categories": [
			"Italian Restaurant",
			"Mediterranean Restaurant"
		]
	},
	{
		"date": "2016-06-22T10:20:29.000Z",
		"name": "Docler Holding",
		"id": "52cbb89a11d243c791c37510",
		"lat": 49.6317381171169,
		"lng": 6.17131892913784,
		"address": "44, Avenue John F. Kennedy",
		"postalCode": "1855",
		"city": "Lëtzebuerg",
		"country": "Lëtzebuerg",
		"categories": [
			"Tech Startup"
		]
	},
	{
		"date": "2016-06-22T19:11:21.000Z",
		"name": "Place d'Armes",
		"id": "4b51ff5ff964a520346027e3",
		"lat": 49.61128514946624,
		"lng": 6.129312214916856,
		"address": "Place d'Armes",
		"postalCode": "1136",
		"city": "Lëtzebuerg",
		"country": "Lëtzebuerg",
		"categories": [
			"Plaza"
		]
	},
	{
		"date": "2016-06-22T19:15:31.000Z",
		"name": "Café de Paris",
		"id": "4e4fd4627d8bd425e494be2d",
		"lat": 49.611429176537925,
		"lng": 6.128994346731197,
		"address": "16 Place d’Armes",
		"postalCode": "1136",
		"city": "Lëtzebuerg",
		"country": "Lëtzebuerg",
		"categories": [
			"Café",
			"Restaurant"
		]
	},
	{
		"date": "2016-06-22T19:47:47.000Z",
		"name": "Place de la Constitution",
		"id": "4f00842c6c25c5ce81e1cabd",
		"lat": 49.60946554019063,
		"lng": 6.129401079150345,
		"city": "Lëtzebuerg",
		"country": "Lëtzebuerg",
		"categories": [
			"Plaza",
			"Historic Site"
		]
	},
	{
		"date": "2016-06-22T20:35:40.000Z",
		"name": "Cathedrale Notre-Dame de Luxembourg",
		"id": "4ba71ba3f964a520238139e3",
		"lat": 49.60975054645064,
		"lng": 6.131551265716553,
		"address": "4 rue Notre Dame",
		"postalCode": "2240",
		"city": "Lëtzebuerg",
		"country": "Lëtzebuerg",
		"categories": [
			"Church"
		]
	},
	{
		"date": "2016-06-22T23:26:55.000Z",
		"name": "Cotton Candy Residence 5",
		"id": "5614386e498e5c4e8f4927d8",
		"lat": 49.75192729865979,
		"lng": 6.6370894371892835,
		"city": "Trier",
		"country": "Deutschland",
		"categories": [
			"Home (private)"
		]
	},
	{
		"date": "2016-06-23T11:08:06.000Z",
		"name": "Cotton Candy Residence 5",
		"id": "5614386e498e5c4e8f4927d8",
		"lat": 49.75192729865979,
		"lng": 6.6370894371892835,
		"city": "Trier",
		"country": "Deutschland",
		"categories": [
			"Home (private)"
		]
	},
	{
		"date": "2016-06-23T16:31:57.000Z",
		"name": "Yomaro",
		"id": "5389cc8a498e077069607503",
		"lat": 49.751875,
		"lng": 6.637965,
		"city": "Trier",
		"country": "Deutschland",
		"categories": [
			"Frozen Yogurt Shop"
		]
	},
	{
		"date": "2016-06-23T17:07:11.000Z",
		"name": "Havanna",
		"id": "4bbb680bb35776b085eccb01",
		"lat": 49.75244007940719,
		"lng": 6.637062301857559,
		"address": "Viehmarkplatz 8",
		"postalCode": "54290",
		"city": "Trier",
		"country": "Deutschland",
		"categories": [
			"Cocktail Bar",
			"Bar"
		]
	},
	{
		"date": "2016-06-24T06:13:19.000Z",
		"name": "Auchan",
		"id": "4b43c3bbf964a52006e925e3",
		"lat": 49.63357679951604,
		"lng": 6.169896125793457,
		"address": "5 rue Alphonse Weicker",
		"postalCode": "2721",
		"city": "Lëtzebuerg",
		"country": "Lëtzebuerg",
		"categories": [
			"Shopping Mall",
			"Supermarket"
		]
	},
	{
		"date": "2016-06-24T06:28:10.000Z",
		"name": "Docler Holding",
		"id": "52cbb89a11d243c791c37510",
		"lat": 49.6317381171169,
		"lng": 6.17131892913784,
		"address": "44, Avenue John F. Kennedy",
		"postalCode": "1855",
		"city": "Lëtzebuerg",
		"country": "Lëtzebuerg",
		"categories": [
			"Tech Startup"
		]
	},
	{
		"date": "2016-06-24T09:49:26.000Z",
		"name": "Apulia Antichi Sapori",
		"id": "52d6e66e498e3733dfa1058c",
		"lat": 49.633822883864724,
		"lng": 6.16949483192922,
		"address": "Centre Commercial Auchan (1st floor)",
		"city": "Lëtzebuerg",
		"country": "Lëtzebuerg",
		"categories": [
			"Italian Restaurant"
		]
	},
	{
		"date": "2016-06-24T16:17:11.000Z",
		"name": "Cotton Candy Residence 5",
		"id": "5614386e498e5c4e8f4927d8",
		"lat": 49.75192729865979,
		"lng": 6.6370894371892835,
		"city": "Trier",
		"country": "Deutschland",
		"categories": [
			"Home (private)"
		]
	},
	{
		"date": "2016-06-25T16:32:12.000Z",
		"name": "Bahnhof Trier Süd",
		"id": "4ced382213aea14325c7659f",
		"lat": 49.74447666949439,
		"lng": 6.636523270887939,
		"address": "Leostr. 1",
		"postalCode": "54294",
		"city": "Trier",
		"country": "Deutschland",
		"categories": [
			"Train Station"
		]
	},
	{
		"date": "2016-06-25T17:43:11.000Z",
		"name": "Luxembourg Railway Station (Gare CFL de Luxembourg)",
		"id": "4b4ca760f964a5200fb926e3",
		"lat": 49.59990526320813,
		"lng": 6.134598255157471,
		"address": "Place de la Gare",
		"postalCode": "1616",
		"city": "Lëtzebuerg",
		"country": "Lëtzebuerg",
		"categories": [
			"Train Station"
		]
	},
	{
		"date": "2016-06-25T18:25:30.000Z",
		"name": "Rockhal",
		"id": "4bd20a73a8b3a593c0fe665f",
		"lat": 49.50044516704587,
		"lng": 5.9474305486031875,
		"address": "Avenue du Rock’n’Roll 5",
		"postalCode": "4361",
		"city": "Esch-Uelzecht",
		"country": "Lëtzebuerg",
		"categories": [
			"Concert Hall"
		]
	},
	{
		"date": "2016-06-25T18:33:31.000Z",
		"name": "Rockhal Café",
		"id": "4f2b0c6be4b0dd6b76ab25a1",
		"lat": 49.500569185711655,
		"lng": 5.947419604582356,
		"address": "5, Avenue du Rock 'n Roll",
		"postalCode": "4351",
		"city": "Esch-Uelzecht",
		"country": "Lëtzebuerg",
		"categories": [
			"Bar",
			"Restaurant"
		]
	},
	{
		"date": "2016-06-25T21:17:58.000Z",
		"name": "Luxembourg Railway Station (Gare CFL de Luxembourg)",
		"id": "4b4ca760f964a5200fb926e3",
		"lat": 49.59990526320813,
		"lng": 6.134598255157471,
		"address": "Place de la Gare",
		"postalCode": "1616",
		"city": "Lëtzebuerg",
		"country": "Lëtzebuerg",
		"categories": [
			"Train Station"
		]
	},
	{
		"date": "2016-06-25T23:05:27.000Z",
		"name": "1001 Nacht",
		"id": "55100379498e78e11cca8b27",
		"lat": 49.753074,
		"lng": 6.635731,
		"address": "Jüdemerstraße",
		"city": "Trier",
		"country": "Deutschland",
		"categories": [
			"Middle Eastern Restaurant"
		]
	},
	{
		"date": "2016-06-26T00:34:23.000Z",
		"name": "Cotton Candy Residence 5",
		"id": "5614386e498e5c4e8f4927d8",
		"lat": 49.75192729865979,
		"lng": 6.6370894371892835,
		"city": "Trier",
		"country": "Deutschland",
		"categories": [
			"Home (private)"
		]
	},
	{
		"date": "2016-06-26T13:45:03.000Z",
		"name": "Kartoffelkiste",
		"id": "4c40b95eff711b8d14d61005",
		"lat": 49.753548843088936,
		"lng": 6.638939380645752,
		"address": "Fahrstraße 13-14",
		"postalCode": "54290",
		"city": "Trier",
		"country": "Deutschland",
		"categories": [
			"German Restaurant"
		]
	},
	{
		"date": "2016-06-26T16:45:41.000Z",
		"name": "Cotton Candy Residence 5",
		"id": "5614386e498e5c4e8f4927d8",
		"lat": 49.75192729865979,
		"lng": 6.6370894371892835,
		"city": "Trier",
		"country": "Deutschland",
		"categories": [
			"Home (private)"
		]
	},
	{
		"date": "2016-06-26T19:01:06.000Z",
		"name": "Coyote Cafe",
		"id": "4b52de43f964a520968927e3",
		"lat": 49.75700668313922,
		"lng": 6.639006500084768,
		"address": "Nikolaus-Koch-Platz 5",
		"postalCode": "54290",
		"city": "Trier",
		"country": "Deutschland",
		"categories": [
			"American Restaurant"
		]
	},
	{
		"date": "2016-06-27T06:27:36.000Z",
		"name": "Auchan",
		"id": "4b43c3bbf964a52006e925e3",
		"lat": 49.63357679951604,
		"lng": 6.169896125793457,
		"address": "5 rue Alphonse Weicker",
		"postalCode": "2721",
		"city": "Lëtzebuerg",
		"country": "Lëtzebuerg",
		"categories": [
			"Shopping Mall",
			"Supermarket"
		]
	},
	{
		"date": "2016-06-27T06:34:09.000Z",
		"name": "Docler Holding",
		"id": "52cbb89a11d243c791c37510",
		"lat": 49.6317381171169,
		"lng": 6.17131892913784,
		"address": "44, Avenue John F. Kennedy",
		"postalCode": "1855",
		"city": "Lëtzebuerg",
		"country": "Lëtzebuerg",
		"categories": [
			"Tech Startup"
		]
	},
	{
		"date": "2016-06-27T12:28:25.000Z",
		"name": "Antica Roma",
		"id": "4d809c69208a5481de427767",
		"lat": 49.63340850221395,
		"lng": 6.1692424911676556,
		"address": "Galerie Auchan",
		"city": "Lëtzebuerg",
		"country": "Lëtzebuerg",
		"categories": [
			"Italian Restaurant"
		]
	},
	{
		"date": "2016-06-28T06:28:46.000Z",
		"name": "Auchan",
		"id": "4b43c3bbf964a52006e925e3",
		"lat": 49.63357679951604,
		"lng": 6.169896125793457,
		"address": "5 rue Alphonse Weicker",
		"postalCode": "2721",
		"city": "Lëtzebuerg",
		"country": "Lëtzebuerg",
		"categories": [
			"Shopping Mall",
			"Supermarket"
		]
	},
	{
		"date": "2016-06-28T06:38:31.000Z",
		"name": "Docler Holding",
		"id": "52cbb89a11d243c791c37510",
		"lat": 49.6317381171169,
		"lng": 6.17131892913784,
		"address": "44, Avenue John F. Kennedy",
		"postalCode": "1855",
		"city": "Lëtzebuerg",
		"country": "Lëtzebuerg",
		"categories": [
			"Tech Startup"
		]
	},
	{
		"date": "2016-06-28T16:33:55.000Z",
		"name": "Zara",
		"id": "4dcaa579d22da18f4e68253b",
		"lat": 49.633872602172076,
		"lng": 6.168606284901443,
		"address": "5 rue Alphonse Weicker",
		"postalCode": "2721",
		"city": "Lëtzebuerg",
		"country": "Lëtzebuerg",
		"categories": [
			"Clothing Store",
			"Boutique"
		]
	},
	{
		"date": "2016-06-28T17:32:37.000Z",
		"name": "Cotton Candy Residence 5",
		"id": "5614386e498e5c4e8f4927d8",
		"lat": 49.75192729865979,
		"lng": 6.6370894371892835,
		"city": "Trier",
		"country": "Deutschland",
		"categories": [
			"Home (private)"
		]
	},
	{
		"date": "2016-06-29T06:22:02.000Z",
		"name": "Auchan",
		"id": "4b43c3bbf964a52006e925e3",
		"lat": 49.63357679951604,
		"lng": 6.169896125793457,
		"address": "5 rue Alphonse Weicker",
		"postalCode": "2721",
		"city": "Lëtzebuerg",
		"country": "Lëtzebuerg",
		"categories": [
			"Shopping Mall",
			"Supermarket"
		]
	},
	{
		"date": "2016-06-29T07:39:26.000Z",
		"name": "Docler Holding",
		"id": "52cbb89a11d243c791c37510",
		"lat": 49.6317381171169,
		"lng": 6.17131892913784,
		"address": "44, Avenue John F. Kennedy",
		"postalCode": "1855",
		"city": "Lëtzebuerg",
		"country": "Lëtzebuerg",
		"categories": [
			"Tech Startup"
		]
	},
	{
		"date": "2016-06-29T09:42:20.000Z",
		"name": "McDonald's",
		"id": "4ee3c150490138df8c9047ba",
		"lat": 49.63355644536983,
		"lng": 6.173131320520858,
		"address": "45 Ave. J-f Kennedy",
		"postalCode": "1855",
		"city": "Lëtzebuerg",
		"country": "Lëtzebuerg",
		"categories": [
			"Fast Food Restaurant"
		]
	},
	{
		"date": "2016-06-29T17:18:31.000Z",
		"name": "Cotton Candy Residence 5",
		"id": "5614386e498e5c4e8f4927d8",
		"lat": 49.75192729865979,
		"lng": 6.6370894371892835,
		"city": "Trier",
		"country": "Deutschland",
		"categories": [
			"Home (private)"
		]
	},
	{
		"date": "2016-06-30T06:19:18.000Z",
		"name": "Auchan",
		"id": "4b43c3bbf964a52006e925e3",
		"lat": 49.63357679951604,
		"lng": 6.169896125793457,
		"address": "5 rue Alphonse Weicker",
		"postalCode": "2721",
		"city": "Lëtzebuerg",
		"country": "Lëtzebuerg",
		"categories": [
			"Shopping Mall",
			"Supermarket"
		]
	},
	{
		"date": "2016-06-30T06:29:38.000Z",
		"name": "Docler Holding",
		"id": "52cbb89a11d243c791c37510",
		"lat": 49.6317381171169,
		"lng": 6.17131892913784,
		"address": "44, Avenue John F. Kennedy",
		"postalCode": "1855",
		"city": "Lëtzebuerg",
		"country": "Lëtzebuerg",
		"categories": [
			"Tech Startup"
		]
	},
	{
		"date": "2016-06-30T16:39:02.000Z",
		"name": "Cotton Candy Residence 5",
		"id": "5614386e498e5c4e8f4927d8",
		"lat": 49.75192729865979,
		"lng": 6.6370894371892835,
		"city": "Trier",
		"country": "Deutschland",
		"categories": [
			"Home (private)"
		]
	}
]